[
  {
    "Nome_escola": "EEEM - SÃO FRANCISCO",
    "Endereco": "RUA PEDRO RIBEIRO, 177, SAO FRANCISCO",
    "Municipio": "Afonso Claudio",
    "CEP": "29600-000",
    "telefone": "",
    "email": "escolasaofrancisco@sedu.es.gov.br",
    "Latitude": -19.997485,
    "Longitude": -41.134055,
    "Numero_professores": null,
    "Numero_alunos": null
  },
  {
    "Nome_escola": "EEPEF - FAZENDA SANTO ANTONIO",
    "Endereco": "FAZENDA SANTO ANTONIO",
    "Municipio": "Afonso Claudio",
    "CEP": "29604-000",
    "telefone": "",
    "email": "escolasantantonio@sedu.es.gov.br",
    "Latitude": -20.148775,
    "Longitude": -41.051037,
    "Numero_professores": null,
    "Numero_alunos": null
  },
  {
    "Nome_escola": "EEUEF - PATRIMONIO DOS GONCALVES",
    "Endereco": "RUA PATRIMONIO DOS GONCALVES, IBICABA",
    "Municipio": "Afonso Claudio",
    "CEP": "29612-000",
    "telefone": "",
    "email": "escoladosgoncalves@sedu.es.gov.br",
    "Latitude": -20.01318,
    "Longitude": -41.239212,
    "Numero_professores": null,
    "Numero_alunos": null
  },
  {
    "Nome_escola": "PRÉ-ENEM CEEFMTI AFONSO CLAUDIO",
    "Endereco": "RUA UTE AMELIA GASTIN PADUA, 50124, SAO TARCISIO",
    "Municipio": "Afonso Claudio",
    "CEP": "29600-000",
    "telefone": "(27) 3735-2088",
    "email": "ceefmtiafonsoclaudio@sedu.es.gov.br",
    "Latitude": -20.074898,
    "Longitude": -41.127396,
    "Numero_professores": 3,
    "Numero_alunos": null
  },
  {
    "Nome_escola": "CEEFMTI AFONSO CLAUDIO",
    "Endereco": "RUA UTE AMELIA GASTIN PADUA, 50124, SAO TARCISIO",
    "Municipio": "Afonso Cláudio",
    "CEP": "29600-000",
    "telefone": "(27) 3735-2088",
    "email": "ceefmtiafonsoclaudio@sedu.es.gov.br",
    "Latitude": -20.07547,
    "Longitude": -41.126976,
    "Numero_professores": 38,
    "Numero_alunos": null
  },
  {
    "Nome_escola": "EEEFM ELVIRA BARROS",
    "Endereco": "AVENIDA LEVY DIAS DE CARVALHO, 200, PD, SERRA PELADA",
    "Municipio": "Afonso Cláudio",
    "CEP": "29603-000",
    "telefone": "(27) 3735-7184",
    "email": "escolaelvira@sedu.es.gov.br",
    "Latitude": -20.004312,
    "Longitude": -41.029232,
    "Numero_professores": 23,
    "Numero_alunos": null
  },
  {
    "Nome_escola": "EEEFM JOSE CUPERTINO",
    "Endereco": "RUA UTE AMELIA GASTIN PADUA, 49, ESCOLA, SAO TARCISIO",
    "Municipio": "Afonso Cláudio",
    "CEP": "29600-000",
    "telefone": "(27) 9603-4742",
    "email": "escolajosecupertino@sedu.es.gov.br",
    "Latitude": -20.075541,
    "Longitude": -41.126851,
    "Numero_professores": 34,
    "Numero_alunos": null
  },
  {
    "Nome_escola": "EEEFM JOSE GIESTAS",
    "Endereco": "RUA WERNER RUCHDESCHEL, 227, VILA PONTOES",
    "Municipio": "Afonso Cláudio",
    "CEP": "29604-000",
    "telefone": "(27) 98860-0001",
    "email": "escolajose@sedu.es.gov.br",
    "Latitude": -20.200903,
    "Longitude": -41.045484,
    "Numero_professores": 24,
    "Numero_alunos": null
  },
  {
    "Nome_escola": "EEEFM JOSE ROBERTO CHRISTO",
    "Endereco": "RUA ALIPIO VIEIRA DA CUNHA, 307, PIRACEMA",
    "Municipio": "Afonso Cláudio",
    "CEP": "29600-000",
    "telefone": "(27) 3735-1860",
    "email": "escolajoseroberto@sedu.es.gov.br",
    "Latitude": -20.18294,
    "Longitude": -41.193786,
    "Numero_professores": 24,
    "Numero_alunos": null
  },
  {
    "Nome_escola": "EEEFM MARIA DE ABREU ALVIM",
    "Endereco": "AVENIDA FRANCISCO TOSTA, SN, FAZENDA GUANDU",
    "Municipio": "Afonso Cláudio",
    "CEP": "29609-000",
    "telefone": "",
    "email": "escolamariadeabreu@sedu.es.gov.br",
    "Latitude": -20.214187,
    "Longitude": -41.103684,
    "Numero_professores": 30,
    "Numero_alunos": null
  },
  {
    "Nome_escola": "EEEM MATA FRIA",
    "Endereco": "CORREGO FRANCISCO CORREA, SN, DISTRITO MATA FRIA",
    "Municipio": "Afonso Cláudio",
    "CEP": "29600-000",
    "telefone": "(27) 99570-0072",
    "email": "escolamatafria@sedu.es.gov.br",
    "Latitude": -20.082525,
    "Longitude": -40.977692,
    "Numero_professores": 12,
    "Numero_alunos": null
  },
  {
    "Nome_escola": "PRÉ-ENEM EEEFM PROFESSORA ANA MARIA CARLETTI QUIUQUI",
    "Endereco": "RUA JORGE ELIAS HITTI, 220, CENTRO",
    "Municipio": "Aguia Branca",
    "CEP": "29795-000",
    "telefone": "(27) 3745-1465",
    "email": "escolaaguiabranca@sedu.es.gov.br",
    "Latitude": -18.984623,
    "Longitude": -40.740263,
    "Numero_professores": 2,
    "Numero_alunos": null
  },
  {
    "Nome_escola": "CEEFMTI ARISTEU AGUIAR",
    "Endereco": "AVENIDA DR WANDERLEY, SNº, Nº ESCOLA, CENTRO",
    "Municipio": "Alegre",
    "CEP": "29500-000",
    "telefone": "(28) 3552-1619",
    "email": "escolaaristeuaguiar@sedu.es.gov.br",
    "Latitude": -20.758909,
    "Longitude": -41.537454,
    "Numero_professores": 44,
    "Numero_alunos": null
  },
  {
    "Nome_escola": "EEEF - PROFESSOR LELLIS",
    "Endereco": "RUA DR OLIVIO CORREA PEDROSA, 178, CENTRO",
    "Municipio": "Alegre",
    "CEP": "29500-000",
    "telefone": "(28) 3552-3797",
    "email": "escolalellis@sedu.es.gov.br",
    "Latitude": -20.760739,
    "Longitude": -41.530824,
    "Numero_professores": null,
    "Numero_alunos": null
  },
  {
    "Nome_escola": "EEEFM ANA MONTEIRO DE PAIVA",
    "Endereco": "RUA SEBASTIAO JOSE VIAL, 320, ANUTIBA",
    "Municipio": "Alegre",
    "CEP": "29500-000",
    "telefone": "(28) 3552-7219",
    "email": "escolaanamonteiro@sedu.es.gov.br",
    "Latitude": -20.611608,
    "Longitude": -41.449638,
    "Numero_professores": 22,
    "Numero_alunos": null
  },
  {
    "Nome_escola": "EEEFM JOSE CORRENTE",
    "Endereco": "RUA LUCINDO RODRIGUES PINTO, 183, PREDIO, CAFE",
    "Municipio": "Alegre",
    "CEP": "29515-000",
    "telefone": "(28) 99915-6553",
    "email": "escolajosecorrente@sedu.es.gov.br",
    "Latitude": -20.868411,
    "Longitude": -41.571617,
    "Numero_professores": 21,
    "Numero_alunos": null
  },
  {
    "Nome_escola": "EEEFM OSCAR DE ALMEIDA GAMA",
    "Endereco": "RUA HUGO FURTADO, SN, ARARAI",
    "Municipio": "Alegre",
    "CEP": "29535-000",
    "telefone": "(28) 8102-0315",
    "email": "escolaoscaralmeida@sedu.es.gov.br",
    "Latitude": -20.592803,
    "Longitude": -41.555549,
    "Numero_professores": 13,
    "Numero_alunos": null
  },
  {
    "Nome_escola": "EEEFM PROFESSOR PEDRO SIMAO",
    "Endereco": "RUA CARMOSINA DIAS DO NASCIMENTO, SN, ANTIGO LUCIANO DUART, CLERIO MOULIN",
    "Municipio": "Alegre",
    "CEP": "29500-000",
    "telefone": "(28) 99943-6649",
    "email": "escolapedrosimao@sedu.es.gov.br",
    "Latitude": -20.766468,
    "Longitude": -41.545898,
    "Numero_professores": 30,
    "Numero_alunos": null
  },
  {
    "Nome_escola": "EEEFM PROFª CELIA TEIXEIRA DO CARMO",
    "Endereco": "RUA THEODORO PINTO DE SOUZA, SN, CENTRO, RIVE",
    "Municipio": "Alegre",
    "CEP": "29520-000",
    "telefone": "(28) 3552-8022",
    "email": "escolaceliacarmo@sedu.es.gov.br",
    "Latitude": -20.756702,
    "Longitude": -41.459112,
    "Numero_professores": 36,
    "Numero_alunos": null
  },
  {
    "Nome_escola": "EEEFM SIRENA REZENDE FONSECA",
    "Endereco": "RUA JOSE LOUREIRO PRATA, 190, CENTRO, CELINA",
    "Municipio": "Alegre",
    "CEP": "29510-000",
    "telefone": "(28) 3552-6149",
    "email": "escolasirenarezende@sedu.es.gov.br",
    "Latitude": -20.764757,
    "Longitude": -41.592005,
    "Numero_professores": 33,
    "Numero_alunos": null
  },
  {
    "Nome_escola": "PRE EENEM CEEFMTI ARISTEU AGUIAR",
    "Endereco": "AVENIDA DR WANDERLEY, SN, CENTRO",
    "Municipio": "Alegre",
    "CEP": "29500-000",
    "telefone": "(28) 3552-1619",
    "email": "escolaaristeuaguiar@sedu.es.gov.br",
    "Latitude": -20.760483,
    "Longitude": -41.534478,
    "Numero_professores": 3,
    "Numero_alunos": null
  },
  {
    "Nome_escola": "PRE ENEM EEEFM SIRENA REZENDE FONSECA",
    "Endereco": "RUA JOSE LOUREIRO PRATA, 190, CELINA",
    "Municipio": "Alegre",
    "CEP": "29510-000",
    "telefone": "(28) 3552-6149",
    "email": "escolasirenarezende@sedu.es.gov.br",
    "Latitude": -20.764743,
    "Longitude": -41.592197,
    "Numero_professores": 11,
    "Numero_alunos": null
  },
  {
    "Nome_escola": "EEEFM CAMILA MOTTA",
    "Endereco": "RUA NELSON DA COSTA MELLO, 197, OURO BRANCO",
    "Municipio": "Alfredo Chaves",
    "CEP": "29240-000",
    "telefone": "(27) 3269-1838",
    "email": "escolacamilamotta@sedu.es.gov.br",
    "Latitude": -20.638163,
    "Longitude": -40.746562,
    "Numero_professores": 31,
    "Numero_alunos": null
  },
  {
    "Nome_escola": "EEUEF BARRA DO BATATAL",
    "Endereco": "BR 101",
    "Municipio": "Alfredo Chaves",
    "CEP": "29240-000",
    "telefone": "",
    "email": "",
    "Latitude": -19.751175,
    "Longitude": -40.380054,
    "Numero_professores": null,
    "Numero_alunos": null
  },
  {
    "Nome_escola": "EEUEF GAVIAO",
    "Endereco": "BR",
    "Municipio": "Alfredo Chaves",
    "CEP": "29240-000",
    "telefone": "",
    "email": "",
    "Latitude": -20.635175,
    "Longitude": -40.750028,
    "Numero_professores": null,
    "Numero_alunos": null
  },
  {
    "Nome_escola": "EEUEF PIOMONTE",
    "Endereco": "DISTRITO",
    "Municipio": "Alfredo Chaves",
    "CEP": "29240-000",
    "telefone": "(27) 3229-6555",
    "email": "",
    "Latitude": -20.635175,
    "Longitude": -40.750028,
    "Numero_professores": null,
    "Numero_alunos": null
  },
  {
    "Nome_escola": "EEUEF RIO VEADO",
    "Endereco": "DISTRITO",
    "Municipio": "Alfredo Chaves",
    "CEP": "29240-000",
    "telefone": "",
    "email": "",
    "Latitude": -20.635175,
    "Longitude": -40.750028,
    "Numero_professores": null,
    "Numero_alunos": null
  },
  {
    "Nome_escola": "EEUEF SAO MARCOS",
    "Endereco": "RUA PROJETADA",
    "Municipio": "Alfredo Chaves",
    "CEP": "29240-000",
    "telefone": "(27) 3243-5523",
    "email": "",
    "Latitude": -20.636058,
    "Longitude": -40.751661,
    "Numero_professores": null,
    "Numero_alunos": null
  },
  {
    "Nome_escola": "EEEFM PASTOR ANTONIO NUNES DE CARVALHO",
    "Endereco": "RUA PAULO BRUNO, 76, CENTRO",
    "Municipio": "Alto Rio Novo",
    "CEP": "29760-000",
    "telefone": "(27) 3746-1641",
    "email": "escolapastorantonio@sedu.es.gov.br",
    "Latitude": -19.057261,
    "Longitude": -41.018484,
    "Numero_professores": 36,
    "Numero_alunos": null
  },
  {
    "Nome_escola": "CEEMTI PAULO FREIRE",
    "Endereco": "AVENIDA MARIANA DAMAZIO FLORES, 701, ANTIGO SENAI, ANCHIETA",
    "Municipio": "Anchieta",
    "CEP": "29230-000",
    "telefone": "(28) 3536-2709",
    "email": "ceemtipaulofreire@sedu.es.gov.br",
    "Latitude": -20.805267,
    "Longitude": -40.635868,
    "Numero_professores": 62,
    "Numero_alunos": null
  },
  {
    "Nome_escola": "EEEFM CORONEL GOMES DE OLIVEIRA",
    "Endereco": "ESTRADA DE RODAGEM ESTADUAL ANCHIETA X JABAQUARA, 1.078, 078 PROXIMO AO P | A, NOVA ESPERANCA",
    "Municipio": "Anchieta",
    "CEP": "29230-000",
    "telefone": "(28) 3536-1859",
    "email": "escolacelgomes@sedu.es.gov.br",
    "Latitude": -20.799668,
    "Longitude": -40.642165,
    "Numero_professores": 47,
    "Numero_alunos": null
  },
  {
    "Nome_escola": "EEUEF CANELA",
    "Endereco": "RUA PROJETADA",
    "Municipio": "Anchieta",
    "CEP": "29230-000",
    "telefone": "",
    "email": "",
    "Latitude": -20.828144,
    "Longitude": -40.694277,
    "Numero_professores": null,
    "Numero_alunos": null
  },
  {
    "Nome_escola": "ESCOLA FAMILIA AGRICOLA DE OLIVANIA - MEPES",
    "Endereco": "AVENIDA MARIANA DAMAZIO FLORES, SN, ANCHIETA",
    "Municipio": "Anchieta",
    "CEP": "29230-000",
    "telefone": "(28) 3536-1151",
    "email": "efao.mepes@gmail.com",
    "Latitude": -20.582442,
    "Longitude": -40.646413,
    "Numero_professores": null,
    "Numero_alunos": null
  },
  {
    "Nome_escola": "PRÉ-ENEM EEEFM CORONEL GOMES DE OLIVEIRA",
    "Endereco": "ESTRADA DE RODAGEM ESTADUAL ANCHIETA X JABAQUARA, 1078, NOVA ESPERANCA",
    "Municipio": "Anchieta",
    "CEP": "29230-000",
    "telefone": "(28) 3536-1859",
    "email": "escolacelgomes@sedu.es.gov.br",
    "Latitude": -20.799747,
    "Longitude": -40.64222,
    "Numero_professores": 3,
    "Numero_alunos": null
  },
  {
    "Nome_escola": "EEEM - GODOFREDO POSSI",
    "Endereco": "RUA JOSE PUPPIN, SNº, BONSUCESSO",
    "Municipio": "Apiaca",
    "CEP": "29450-000",
    "telefone": "",
    "email": "escolagodofredopossi@sedu.es.gov.br",
    "Latitude": -20.982082,
    "Longitude": -41.559929,
    "Numero_professores": null,
    "Numero_alunos": null
  },
  {
    "Nome_escola": "EEEFM CANDIDA POVOA",
    "Endereco": "RUA LAD MARECHAL CANDIDO RONDON, SN, CENTRO",
    "Municipio": "Apiacá",
    "CEP": "29450-000",
    "telefone": "(28) 98805-0074",
    "email": "escolacandidapovoa@sedu.es.gov.br",
    "Latitude": -21.151342,
    "Longitude": -41.569411,
    "Numero_professores": 23,
    "Numero_alunos": null
  },
  {
    "Nome_escola": "CEEMTI MONSENHOR GUILHERME SCHMITZ",
    "Endereco": "RUA ARISTIDES BITTI, 350, DE CARLI",
    "Municipio": "Aracruz",
    "CEP": "29194-006",
    "telefone": "(27) 3256-1637",
    "email": "escolamguilherme@sedu.es.gov.br",
    "Latitude": -19.821874,
    "Longitude": -40.282946,
    "Numero_professores": 57,
    "Numero_alunos": null
  },
  {
    "Nome_escola": "EEEFM CABOCLO BERNARDO",
    "Endereco": "AVENIDA PROFESSOR APARICIO ALVARENGA, SN, BARRA DO RIACHO",
    "Municipio": "Aracruz",
    "CEP": "29197-556",
    "telefone": "(27) 3296-8227",
    "email": "escolacaboclo@sedu.es.gov.br",
    "Latitude": -19.825149,
    "Longitude": -40.060233,
    "Numero_professores": 44,
    "Numero_alunos": null
  },
  {
    "Nome_escola": "EEEFM DYLIO PENEDO",
    "Endereco": "RUA GENES QUARTEZANI, 01, JACUPEMBA",
    "Municipio": "Aracruz",
    "CEP": "29190-010",
    "telefone": "(27) 99817-0181",
    "email": "escoladyliopenedo@sedu.es.gov.br",
    "Latitude": -19.58777,
    "Longitude": -40.19402,
    "Numero_professores": 38,
    "Numero_alunos": null
  },
  {
    "Nome_escola": "EEEFM ERMENTINA LEAL",
    "Endereco": "AVENIDA SAO BENEDITO, 344, VILA DO RIACHO",
    "Municipio": "Aracruz",
    "CEP": "29197-051",
    "telefone": "(27) 3250-9210",
    "email": "escolaermentinaleal@sedu.es.gov.br",
    "Latitude": -19.746003,
    "Longitude": -40.040627,
    "Numero_professores": 35,
    "Numero_alunos": null
  },
  {
    "Nome_escola": "EEEFM MISAEL PINTO NETTO",
    "Endereco": "RUA GENERAL ARISTIDES GUARANA, 38, ESCOLA, CENTRO",
    "Municipio": "Aracruz",
    "CEP": "29190-050",
    "telefone": "(27) 3256-6270",
    "email": "escolamisaelpinto@sedu.es.gov.br",
    "Latitude": -19.820705,
    "Longitude": -40.27461,
    "Numero_professores": 76,
    "Numero_alunos": null
  },
  {
    "Nome_escola": "EEEFM PRIMO BITTI",
    "Endereco": "AVENIDA DAS PALMEIRAS, SN, ESCOLA, COQUEIRAL",
    "Municipio": "Aracruz",
    "CEP": "29199-135",
    "telefone": "(27) 3250-1206",
    "email": "escolaprimobitti@sedu.es.gov.br",
    "Latitude": -19.928533,
    "Longitude": -40.139213,
    "Numero_professores": 50,
    "Numero_alunos": null
  },
  {
    "Nome_escola": "EEEFM PROFESSOR APARICIO ALVARENGA",
    "Endereco": "AVENIDA AURELIO ALVARENGA, 102, ESCOLA, GUARANA",
    "Municipio": "Aracruz",
    "CEP": "29195-421",
    "telefone": "(27) 3276-1375",
    "email": "escolaaparicio@sedu.es.gov.br",
    "Latitude": -19.678149,
    "Longitude": -40.260763,
    "Numero_professores": 34,
    "Numero_alunos": null
  },
  {
    "Nome_escola": "EEIEFM ALDEIA CAIEIRAS VELHA",
    "Endereco": "RODOVIA PRIMO BITTI - ALDEIA INDIGENA CAIEIRAS VELHA, SN, ALDEIA CAIEIRAS VELHA",
    "Municipio": "Aracruz",
    "CEP": "29190-010",
    "telefone": "(27) 3372-7960",
    "email": "escolaaldeiadecaieirasvelhas@sedu.es.gov.br",
    "Latitude": -19.92059,
    "Longitude": -40.175213,
    "Numero_professores": 16,
    "Numero_alunos": null
  },
  {
    "Nome_escola": "PRE ENEM EEEFM MISAEL PINTO NETO",
    "Endereco": "RUA GENERAL ARISTIDES GUARANA, 38, CENTRO",
    "Municipio": "Aracruz",
    "CEP": "29190-050",
    "telefone": "(27) 3256-6270",
    "email": "escolamisaelpinto@sedu.es.gov.br",
    "Latitude": -19.82014,
    "Longitude": -40.274367,
    "Numero_professores": 4,
    "Numero_alunos": null
  },
  {
    "Nome_escola": "PRÉ-ENEM CEEMTI MONSENHOR GUILHERME SCHMITZ",
    "Endereco": "RUA ARISTIDES BITTI, 350, DE CARLI",
    "Municipio": "Aracruz",
    "CEP": "29194-006",
    "telefone": "3256-1637",
    "email": "zanonangela@gmail.com",
    "Latitude": -19.822111,
    "Longitude": -40.282789,
    "Numero_professores": 5,
    "Numero_alunos": null
  },
  {
    "Nome_escola": "EEEFM FERNANDO DE ABREU",
    "Endereco": "RUA GENERAL DUTRA, 15, CENTRO",
    "Municipio": "Atílio Vivácqua",
    "CEP": "29490-000",
    "telefone": "(28) 3538-1511",
    "email": "escolafernandoabreu@sedu.es.gov.br",
    "Latitude": -20.912876,
    "Longitude": -41.19633,
    "Numero_professores": 39,
    "Numero_alunos": null
  },
  {
    "Nome_escola": "CEEMTI BAIXO GUANDU",
    "Endereco": "AVENIDA PRESIDENTE TANCREDO DE ALMEIDA NEVES, 215, PREDIO ESCOLAR, VILA KENNEDY",
    "Municipio": "Baixo Guandu",
    "CEP": "29730-000",
    "telefone": "(27) 99715-8616",
    "email": "ceemtibaixoguandu@sedu.es.gov.br",
    "Latitude": -19.51528,
    "Longitude": -41.005054,
    "Numero_professores": 36,
    "Numero_alunos": null
  },
  {
    "Nome_escola": "EEEF BRASIL",
    "Endereco": "RUA DUQUE DE CAXIAS, SN, CENTRO",
    "Municipio": "Baixo Guandu",
    "CEP": "29730-000",
    "telefone": "(27) 3732-4172",
    "email": "marciarabbi@hotmail.com",
    "Latitude": -19.511436,
    "Longitude": -41.022694,
    "Numero_professores": 29,
    "Numero_alunos": null
  },
  {
    "Nome_escola": "EEEFM DR JONES DOS SANTOS NEVES",
    "Endereco": "RUA ANTONIO SAMPAIO, 1423, SAPUCAIA",
    "Municipio": "Baixo Guandu",
    "CEP": "29730-000",
    "telefone": "(27) 3732-1529",
    "email": "escoladrjones@sedu.es.gov.br",
    "Latitude": -19.507925,
    "Longitude": -41.024056,
    "Numero_professores": 31,
    "Numero_alunos": null
  },
  {
    "Nome_escola": "EEEFM JOSE DAMASCENO FILHO",
    "Endereco": "RUA QUINTINO BOCAIUVA, 442, SAPUCAIA",
    "Municipio": "Baixo Guandu",
    "CEP": "29730-000",
    "telefone": "(27) 3732-1959",
    "email": "escolajosedamasceno@sedu.es.gov.br",
    "Latitude": -19.509954,
    "Longitude": -41.018533,
    "Numero_professores": 38,
    "Numero_alunos": null
  },
  {
    "Nome_escola": "EEEM MARIA HELENA STEIN MERLO",
    "Endereco": "RUA VILA KM 14 DO MUTUM, SN, ZONA RURAL",
    "Municipio": "Baixo Guandu",
    "CEP": "29730-000",
    "telefone": "(27) 3732-6033",
    "email": "mcengelhardt@sedu.es.gov.br",
    "Latitude": -19.398512,
    "Longitude": -40.904992,
    "Numero_professores": 5,
    "Numero_alunos": null
  },
  {
    "Nome_escola": "EEEM RODRIGO CESAR PROESCHOLDT",
    "Endereco": "RUA JOÃO JULHO CARDOSO, SN, ALTO MUTUM PRETO",
    "Municipio": "Baixo Guandu",
    "CEP": "29737-990",
    "telefone": "",
    "email": "mcengelhardt@sedu.es.gov.br",
    "Latitude": -19.52316,
    "Longitude": -41.001016,
    "Numero_professores": null,
    "Numero_alunos": null
  },
  {
    "Nome_escola": "EEUEF - BARRA DA LAGOA PRETA",
    "Endereco": "RUA BARRA DA LAGOA PRETA, ZONA RURAL",
    "Municipio": "Baixo Guandu",
    "CEP": "29742-000",
    "telefone": "",
    "email": "",
    "Latitude": -19.512449,
    "Longitude": -41.013787,
    "Numero_professores": null,
    "Numero_alunos": null
  },
  {
    "Nome_escola": "EEUEF - BARRA DO CRISCIUMA",
    "Endereco": "RUA BARRA DO CRISCIÚMA, ZONA RURAL",
    "Municipio": "Baixo Guandu",
    "CEP": "29740-000",
    "telefone": "",
    "email": "",
    "Latitude": -19.513501,
    "Longitude": -41.015904,
    "Numero_professores": null,
    "Numero_alunos": null
  },
  {
    "Nome_escola": "EEUEF - CABECEIRA DO DEZ",
    "Endereco": "CORREGO KM 10, ZONA RURAL",
    "Municipio": "Baixo Guandu",
    "CEP": "29730-000",
    "telefone": "",
    "email": "",
    "Latitude": -19.512449,
    "Longitude": -41.013787,
    "Numero_professores": null,
    "Numero_alunos": null
  },
  {
    "Nome_escola": "EEUEF - CORREGO DO BATUTA",
    "Endereco": "RUA CÓRREGO DO BATUTA, CENTRO",
    "Municipio": "Baixo Guandu",
    "CEP": "29735-000",
    "telefone": "",
    "email": "",
    "Latitude": -19.512449,
    "Longitude": -41.013787,
    "Numero_professores": null,
    "Numero_alunos": null
  },
  {
    "Nome_escola": "EEUEF - DOIS IRMAOS",
    "Endereco": "CORREGO DOIS IRMAOS, CENTRO",
    "Municipio": "Baixo Guandu",
    "CEP": "29740-000",
    "telefone": "",
    "email": "",
    "Latitude": -19.517805,
    "Longitude": -41.010997,
    "Numero_professores": null,
    "Numero_alunos": null
  },
  {
    "Nome_escola": "EEUEF - KM 20 DO MUTUM",
    "Endereco": "RUA KM 20 DO MUTUM, ZONA RURAL",
    "Municipio": "Baixo Guandu",
    "CEP": "29735-000",
    "telefone": "",
    "email": "",
    "Latitude": -19.470369,
    "Longitude": -40.896315,
    "Numero_professores": null,
    "Numero_alunos": null
  },
  {
    "Nome_escola": "EEUEF - KM 8 DO MUTUM",
    "Endereco": "RUA KM 8 DO MUTUM, ZONA RURAL",
    "Municipio": "Baixo Guandu",
    "CEP": "29735-000",
    "telefone": "",
    "email": "",
    "Latitude": -19.512449,
    "Longitude": -41.013787,
    "Numero_professores": null,
    "Numero_alunos": null
  },
  {
    "Nome_escola": "EEUEF - VARJÃO",
    "Endereco": "RUA CÓRREGO DO VARJÃO, ZONA RURAL",
    "Municipio": "Baixo Guandu",
    "CEP": "29740-000",
    "telefone": "",
    "email": "",
    "Latitude": -19.512449,
    "Longitude": -41.013787,
    "Numero_professores": null,
    "Numero_alunos": null
  },
  {
    "Nome_escola": "PRE ENEM CEEMTI BAIXO GUANDU",
    "Endereco": "AV PRESIDENTE TANCREDO DE ALMEIDA NEVES, 215, VILA KENNEDY",
    "Municipio": "Baixo Guandu",
    "CEP": "29730-000",
    "telefone": "(27) 3732-9591",
    "email": "ceemtibaixoguandu@sedu.es.gov.br",
    "Latitude": -19.51528,
    "Longitude": -41.005054,
    "Numero_professores": 3,
    "Numero_alunos": null
  },
  {
    "Nome_escola": "PRÉ-ENEM EEEFM JOSE DAMASCENO FILHO",
    "Endereco": "RUA QUINTINO BOCAIUVA, 442, SAPUCAIA",
    "Municipio": "Baixo Guandu",
    "CEP": "29730-000",
    "telefone": "3732-1959",
    "email": "patriciafcontabilidade@outlook.com",
    "Latitude": -19.509954,
    "Longitude": -41.018533,
    "Numero_professores": 7,
    "Numero_alunos": null
  },
  {
    "Nome_escola": "EEEF ANTONIO CIRILO",
    "Endereco": "CORREGO SAO JOSE, SN, PAULISTA",
    "Municipio": "Barra de Sao Francisco",
    "CEP": "29815-000",
    "telefone": "",
    "email": "escolaantoniocirilo@sedu.es.gov.br",
    "Latitude": -18.510244,
    "Longitude": -40.773624,
    "Numero_professores": 7,
    "Numero_alunos": null
  },
  {
    "Nome_escola": "EEEF VARGEM ALEGRE",
    "Endereco": "RUA BENEDITO FELIPPE FERREIRA, 445, CENTRO",
    "Municipio": "Barra de Sao Francisco",
    "CEP": "29800-000",
    "telefone": "(27) 99619-5096",
    "email": "escolavargemalegre@sedu.es.gov.br",
    "Latitude": -18.807249,
    "Longitude": -40.852449,
    "Numero_professores": 12,
    "Numero_alunos": null
  },
  {
    "Nome_escola": "EEPEF CORREGO DO FERVEDOURO",
    "Endereco": "CORREGO FERVEDOURO, SN, CACHOEIRINHA DE ITAUNAS",
    "Municipio": "Barra de Sao Francisco",
    "CEP": "29800-000",
    "telefone": "(27) 98817-6110",
    "email": "cflandrade@sedu.es.gov.br",
    "Latitude": -18.689531,
    "Longitude": -40.86607,
    "Numero_professores": 0,
    "Numero_alunos": null
  },
  {
    "Nome_escola": "EEUEF BOA ESPERANCA - BARRA DE SAO FRANCISCO",
    "Endereco": "RUA FORTALEZA, SN, CORREGO",
    "Municipio": "Barra de Sao Francisco",
    "CEP": "29800-000",
    "telefone": "",
    "email": "cflandrade@sedu.es.gov.br",
    "Latitude": -18.764783,
    "Longitude": -40.898025,
    "Numero_professores": 0,
    "Numero_alunos": null
  },
  {
    "Nome_escola": "EEUEF FAZENDA BARRA ALEGRE",
    "Endereco": "CORREGO RIO DO CAMPO, SN, MONTE SINAI",
    "Municipio": "Barra de Sao Francisco",
    "CEP": "29800-000",
    "telefone": "",
    "email": "cita@sedu.es.gov.br",
    "Latitude": -18.485732,
    "Longitude": -40.867074,
    "Numero_professores": 1,
    "Numero_alunos": null
  },
  {
    "Nome_escola": "EEUEF FAZENDA JOSE LINO",
    "Endereco": "CORREGO SAO JOSE, SN, MONTE SINAI",
    "Municipio": "Barra de Sao Francisco",
    "CEP": "29800-000",
    "telefone": "",
    "email": "cita@sedu.es.gov.br",
    "Latitude": -18.668357,
    "Longitude": -40.867274,
    "Numero_professores": 1,
    "Numero_alunos": null
  },
  {
    "Nome_escola": "EEUEF ITAUNINHAS - BARRA DE SAO FRANCISCO",
    "Endereco": "RUA ITAUNAS, SN, ITAUNINHAS",
    "Municipio": "Barra de Sao Francisco",
    "CEP": "29800-000",
    "telefone": "(27) 98817-6110",
    "email": "escolaflandrade@sedu.es.gov.br",
    "Latitude": -18.765324,
    "Longitude": -40.888769,
    "Numero_professores": 1,
    "Numero_alunos": null
  },
  {
    "Nome_escola": "PRE ENEM CEEFMTI JOAO XXIII",
    "Endereco": "ALAMEDA JOAO XXIII, 144, VILA PEREIRA",
    "Municipio": "Barra de Sao Francisco",
    "CEP": "29800-000",
    "telefone": "(27) 3756-1577",
    "email": "escolajoaoxxiii@sedu.es.gov.br",
    "Latitude": -18.755838,
    "Longitude": -40.897991,
    "Numero_professores": 4,
    "Numero_alunos": null
  },
  {
    "Nome_escola": "CEEFMTI JOAO XXIII",
    "Endereco": "ALAMEDA JOAO XXIII, 144, ESCOLA, VILA PEREIRA",
    "Municipio": "Barra de São Francisco",
    "CEP": "29800-000",
    "telefone": "(27) 3756-1577",
    "email": "escolajoaoxxiii@sedu.es.gov.br",
    "Latitude": -18.755955,
    "Longitude": -40.898109,
    "Numero_professores": 32,
    "Numero_alunos": null
  },
  {
    "Nome_escola": "EE - PRBSF - PENITENCIARIA REGIONAL DE B S FRANCISCO",
    "Endereco": "RUA PENITENCIÁRIA DE BARRA DE SÃO FRANCISCO, PENITENCIÁRIA, VILA LUCIENE",
    "Municipio": "Barra de São Francisco",
    "CEP": "29800-000",
    "telefone": "",
    "email": "",
    "Latitude": -18.734448,
    "Longitude": -40.894016,
    "Numero_professores": null,
    "Numero_alunos": null
  },
  {
    "Nome_escola": "EEEF FRANCISCO LOURENCO ANDRADE",
    "Endereco": "RUA FRANCISCO LOURENCO DE ANDRADE, 32, MONTE SENIR",
    "Municipio": "Barra de São Francisco",
    "CEP": "29800-000",
    "telefone": "(27) 8817-6110",
    "email": "escolaflandrade@sedu.es.gov.br",
    "Latitude": -18.837506,
    "Longitude": -40.781339,
    "Numero_professores": 13,
    "Numero_alunos": null
  },
  {
    "Nome_escola": "EEEF ITA",
    "Endereco": "CORREGO DO ITA, SN, ZONA RURAL, MONTE SINAI",
    "Municipio": "Barra de São Francisco",
    "CEP": "29800-000",
    "telefone": "(27) 99881-7501",
    "email": "escolaita@sedu.es.gov.br",
    "Latitude": -18.628101,
    "Longitude": -40.86904,
    "Numero_professores": 10,
    "Numero_alunos": null
  },
  {
    "Nome_escola": "EEEFM ALADIM SILVESTRE DE ALMEIDA",
    "Endereco": "RUA JOSE TIAGO, SN, ESCOLA, MONTE SINAI",
    "Municipio": "Barra de São Francisco",
    "CEP": "29800-000",
    "telefone": "(27) 9823-3377",
    "email": "escolaaladimalmeida@sedu.es.gov.br",
    "Latitude": -18.585422,
    "Longitude": -40.88708,
    "Numero_professores": 23,
    "Numero_alunos": null
  },
  {
    "Nome_escola": "EEEFM GOVERNADOR LINDENBERG",
    "Endereco": "RUA DIRCEU CARDOSO, 240, PD, IRMAOS FERNANDES",
    "Municipio": "Barra de São Francisco",
    "CEP": "29800-000",
    "telefone": "(27) 3756-1290",
    "email": "escolagovernador@sedu.es.gov.br",
    "Latitude": -18.749677,
    "Longitude": -40.893669,
    "Numero_professores": 61,
    "Numero_alunos": null
  },
  {
    "Nome_escola": "EEEFM PROFESSORA ASCENDINA FEITOSA",
    "Endereco": "RUA JOSE CHAVES, SN, VILA PAULISTA",
    "Municipio": "Barra de São Francisco",
    "CEP": "29815-000",
    "telefone": "(27) 3756-6191",
    "email": "escolaprofascendina@sedu.es.gov.br",
    "Latitude": -18.663819,
    "Longitude": -40.795629,
    "Numero_professores": 28,
    "Numero_alunos": null
  },
  {
    "Nome_escola": "EEPEF CORREGO BOA SORTE",
    "Endereco": "ORREGO BOA SORTE",
    "Municipio": "Barra de São Francisco",
    "CEP": "29800-000",
    "telefone": "",
    "email": "",
    "Latitude": -18.75442,
    "Longitude": -40.893095,
    "Numero_professores": null,
    "Numero_alunos": null
  },
  {
    "Nome_escola": "EEUEF - BARRA DA CAMBEVA",
    "Endereco": "CORREGO RIO DO CAMPO, MONTE SINAI",
    "Municipio": "Barra de São Francisco",
    "CEP": "29800-000",
    "telefone": "",
    "email": "",
    "Latitude": -18.501103,
    "Longitude": -40.878774,
    "Numero_professores": null,
    "Numero_alunos": null
  },
  {
    "Nome_escola": "EEUEF - BARRA DA PIPOCA",
    "Endereco": "RUA BARRA DA PIPOCA, MONTE SINAI",
    "Municipio": "Barra de São Francisco",
    "CEP": "29800-000",
    "telefone": "",
    "email": "",
    "Latitude": -18.538522,
    "Longitude": -40.890552,
    "Numero_professores": null,
    "Numero_alunos": null
  },
  {
    "Nome_escola": "EEUEF - CABECEIRA CORREGO SAO PAULO",
    "Endereco": "CORREGO SAO PAULO, SANTO ANTONIO",
    "Municipio": "Barra de São Francisco",
    "CEP": "29800-000",
    "telefone": "",
    "email": "",
    "Latitude": -18.795775,
    "Longitude": -40.806986,
    "Numero_professores": null,
    "Numero_alunos": null
  },
  {
    "Nome_escola": "EEUEF BARRA DA FORTALEZA",
    "Endereco": "BARRA DA FORTALEZA",
    "Municipio": "Barra de São Francisco",
    "CEP": "29800-000",
    "telefone": "",
    "email": "",
    "Latitude": -18.75442,
    "Longitude": -40.893095,
    "Numero_professores": null,
    "Numero_alunos": null
  },
  {
    "Nome_escola": "EEUEF BARRA DO ALECRIM",
    "Endereco": "BARRA DP ALECRIM",
    "Municipio": "Barra de São Francisco",
    "CEP": "29800-000",
    "telefone": "",
    "email": "",
    "Latitude": -18.754521,
    "Longitude": -40.891928,
    "Numero_professores": null,
    "Numero_alunos": null
  },
  {
    "Nome_escola": "EEUEF CORREGO DA FERRUGEM",
    "Endereco": "CORREGO DA FERRUGEM",
    "Municipio": "Barra de São Francisco",
    "CEP": "29800-000",
    "telefone": "",
    "email": "",
    "Latitude": -18.75442,
    "Longitude": -40.893095,
    "Numero_professores": null,
    "Numero_alunos": null
  },
  {
    "Nome_escola": "EEUEF CORREGO DO AVENTUREIRO",
    "Endereco": "COREGO DO AVENTUREIRO",
    "Municipio": "Barra de São Francisco",
    "CEP": "29800-000",
    "telefone": "",
    "email": "",
    "Latitude": -18.765249,
    "Longitude": -40.854515,
    "Numero_professores": null,
    "Numero_alunos": null
  },
  {
    "Nome_escola": "EEUEF CORREGO DOS FAGUNDES",
    "Endereco": "CORREGO BOA SORTE, SN, ZONA RURAL, MONTE SINAI",
    "Municipio": "Barra de São Francisco",
    "CEP": "29807-000",
    "telefone": "",
    "email": "cita@sedu.es.gov.br",
    "Latitude": -18.474373,
    "Longitude": -40.896617,
    "Numero_professores": 0,
    "Numero_alunos": null
  },
  {
    "Nome_escola": "PRÉ-ENEM EEEFM ANTONIO DOS SANTOS NEVES",
    "Endereco": "AVENIDA DEMOCRATA, 845, CENTRO",
    "Municipio": "Boa Esperanca",
    "CEP": "29845-000",
    "telefone": "",
    "email": "escolaantonioneves@sedu.es.gov.br",
    "Latitude": -18.54102,
    "Longitude": -40.298391,
    "Numero_professores": 1,
    "Numero_alunos": null
  },
  {
    "Nome_escola": "CEIER DE BOA ESPERANCA",
    "Endereco": "RODOVIA BOA ESPERANCA SAO MATEUS, SN, KM 03, ZONA RURAL",
    "Municipio": "Boa Esperança",
    "CEP": "29845-000",
    "telefone": "(27) 9695-1522",
    "email": "centroboaesperanca@sedu.es.gov.br",
    "Latitude": -18.538148,
    "Longitude": -40.272763,
    "Numero_professores": 27,
    "Numero_alunos": null
  },
  {
    "Nome_escola": "EEEFM ANTONIO DOS SANTOS NEVES",
    "Endereco": "AVENIDA DEMOCRATA, 845, CENTRO",
    "Municipio": "Boa Esperança",
    "CEP": "29845-000",
    "telefone": "",
    "email": "escolaantonioneves@sedu.es.gov.br",
    "Latitude": -18.540924,
    "Longitude": -40.29844,
    "Numero_professores": 54,
    "Numero_alunos": null
  },
  {
    "Nome_escola": "EEEFM SOBRADINHO",
    "Endereco": "RUA FAUSTINA MONTI, 714, SAO JOSE DO SOBRADINHO",
    "Municipio": "Boa Esperança",
    "CEP": "29845-000",
    "telefone": "(27) 9582-1110",
    "email": "escolasobradinho@sedu.es.gov.br",
    "Latitude": -18.428827,
    "Longitude": -40.38719,
    "Numero_professores": 28,
    "Numero_alunos": null
  },
  {
    "Nome_escola": "EEEFM HORACIO PLINIO",
    "Endereco": "RUA ATAULPHO VIRGILIO LOBO, 70, CENTRO",
    "Municipio": "Bom Jesus do Norte",
    "CEP": "29460-000",
    "telefone": "(28) 3562-1606",
    "email": "escolahoracioplinio@sedu.es.gov.br",
    "Latitude": -21.132724,
    "Longitude": -41.678369,
    "Numero_professores": 34,
    "Numero_alunos": null
  },
  {
    "Nome_escola": "EEEFM ALVARO CASTELO",
    "Endereco": "RUA PRACA 15 DE DEZEMBRO, 100, BELARMINO ULIANA",
    "Municipio": "Brejetuba",
    "CEP": "29630-000",
    "telefone": "(27) 3733-1124",
    "email": "escolaalvarocastelo@sedu.es.gov.br",
    "Latitude": -20.144514,
    "Longitude": -41.287701,
    "Numero_professores": 37,
    "Numero_alunos": null
  },
  {
    "Nome_escola": "EEEFM FAZENDA CAMPORES",
    "Endereco": "RANCHO DANTAS, SN, ZONA RURAL",
    "Municipio": "Brejetuba",
    "CEP": "29630-000",
    "telefone": "(27) 99912-7368",
    "email": "escolafazendacampore@sedu.es.gov.br",
    "Latitude": -20.253019,
    "Longitude": -41.237865,
    "Numero_professores": 21,
    "Numero_alunos": null
  },
  {
    "Nome_escola": "EEEFM LEOGILDO SEVERIANO DE SOUZA",
    "Endereco": "FAZENDA LEOGILDO, ZONA RURAL, RURAL SN",
    "Municipio": "Brejetuba",
    "CEP": "29630-000",
    "telefone": "(27) 99914-8320",
    "email": "escolaleogilsouza@sedu.es.gov.br",
    "Latitude": -20.110522,
    "Longitude": -41.339661,
    "Numero_professores": 24,
    "Numero_alunos": null
  },
  {
    "Nome_escola": "EEEFM MARLENE BRANDAO",
    "Endereco": "RUA MARIANO DUTRA CHAVES, 120, VILA DE BREJAUBINHA, ZONA RURAL",
    "Municipio": "Brejetuba",
    "CEP": "29630-000",
    "telefone": "(27) 99768-3448",
    "email": "escolamarlenebrandao@sedu.es.gov.br",
    "Latitude": -20.182302,
    "Longitude": -41.26679,
    "Numero_professores": 21,
    "Numero_alunos": null
  },
  {
    "Nome_escola": "EEEFM SAO JORGE",
    "Endereco": "RUA NEPHTALY ANTONIO CAETANO, 160, PD, SAO JORGE DE OLIVEIRA",
    "Municipio": "Brejetuba",
    "CEP": "29635-000",
    "telefone": "(27) 3733-4033",
    "email": "escolasaojorge@sedu.es.gov.br",
    "Latitude": -19.975493,
    "Longitude": -41.280212,
    "Numero_professores": 17,
    "Numero_alunos": null
  },
  {
    "Nome_escola": "CEEFMTI FRANCISCO COELHO AVILA JUNIOR",
    "Endereco": "RUA PEDRO SILVAN, 01, CORONEL BORGES",
    "Municipio": "Cachoeiro de Itapemirim",
    "CEP": "29306-240",
    "telefone": "(28) 3522-4197",
    "email": "escolafranciscoavila@sedu.es.gov.br",
    "Latitude": -20.853404,
    "Longitude": -41.093698,
    "Numero_professores": 52,
    "Numero_alunos": null
  },
  {
    "Nome_escola": "CEEFMTI LICEU MUNIZ FREIRE",
    "Endereco": "RUA MOREIRA, 171, INDEPENDENCIA",
    "Municipio": "Cachoeiro de Itapemirim",
    "CEP": "29306-320",
    "telefone": "(28) 3522-4881",
    "email": "escolaliceu@sedu.es.gov.br",
    "Latitude": -20.853033,
    "Longitude": -41.106325,
    "Numero_professores": 60,
    "Numero_alunos": null
  },
  {
    "Nome_escola": "CEEJA - DE CACHOEIRO DE ITAPEMIRIM",
    "Endereco": "RUA MOREIRA, 215, CORONEL BORGES",
    "Municipio": "Cachoeiro de Itapemirim",
    "CEP": "29306-320",
    "telefone": "(28) 3014-2098",
    "email": "",
    "Latitude": -20.853842,
    "Longitude": -41.105629,
    "Numero_professores": 48,
    "Numero_alunos": null
  },
  {
    "Nome_escola": "EE - CPFCI - CENTRO PRISIONAL FEMININO DE CACHOEIRO DE ITAPEMIRIM",
    "Endereco": "RUA PROFESSOR QUINTILIANO DE AZEVEDO, 31, GUANDU",
    "Municipio": "Cachoeiro de Itapemirim",
    "CEP": "29300-020",
    "telefone": "",
    "email": "",
    "Latitude": -20.847563,
    "Longitude": -41.118851,
    "Numero_professores": null,
    "Numero_alunos": null
  },
  {
    "Nome_escola": "EE - PRCI - PENITENCIÁRIA REGIONAL DE CACHOEIRO DE ITAPEMIRIM",
    "Endereco": "RUA PROFESSOR QUINTILIANO DE AZEVEDO, 31, GUANDU",
    "Municipio": "Cachoeiro de Itapemirim",
    "CEP": "29300-020",
    "telefone": "(28) 3524-2308",
    "email": "",
    "Latitude": -20.847563,
    "Longitude": -41.118851,
    "Numero_professores": null,
    "Numero_alunos": null
  },
  {
    "Nome_escola": "EE EEE AUDITIVA LIONS PROF NAPOLEÃO ALBUQUERQUE",
    "Endereco": "RUA DR DEOLINDO, 104, BAIMINAS",
    "Municipio": "Cachoeiro de Itapemirim",
    "CEP": "29305-436",
    "telefone": "",
    "email": "prof.dr.adelmo@gmail.com",
    "Latitude": -20.856295,
    "Longitude": -41.105157,
    "Numero_professores": null,
    "Numero_alunos": null
  },
  {
    "Nome_escola": "EEEF - CLUBE DO BOSQUE",
    "Endereco": "RUA JORGE MARCONDES DE SOUZA, 12, PRESIDENTE ARTHUR DA COSTA E SILVA",
    "Municipio": "Cachoeiro de Itapemirim",
    "CEP": "29305-811",
    "telefone": "(28) 3518-1255",
    "email": "clubedobosque@sedu.es.gov.br",
    "Latitude": -20.861669,
    "Longitude": -41.108274,
    "Numero_professores": null,
    "Numero_alunos": null
  },
  {
    "Nome_escola": "EEEF - CORAMARA",
    "Endereco": "AVENIDA JORGE SIMAO, 27, CORAMARA",
    "Municipio": "Cachoeiro de Itapemirim",
    "CEP": "29313-367",
    "telefone": "",
    "email": "escolacoramara@sedu.es.gov.br",
    "Latitude": -20.831184,
    "Longitude": -41.15273,
    "Numero_professores": null,
    "Numero_alunos": null
  },
  {
    "Nome_escola": "EEEF - COUTINHO",
    "Endereco": "RUA CARLOS VIANA, COUTINHO",
    "Municipio": "Cachoeiro de Itapemirim",
    "CEP": "29300-982",
    "telefone": "",
    "email": "escolacoutinho@sedu.es.gov.br",
    "Latitude": -20.754661,
    "Longitude": -41.193096,
    "Numero_professores": null,
    "Numero_alunos": null
  },
  {
    "Nome_escola": "EEEF - DONA MARIA SANTANA",
    "Endereco": "RUA JACINTO PASTRO, 14, BASILEIA",
    "Municipio": "Cachoeiro de Itapemirim",
    "CEP": "29302-848",
    "telefone": "(28) 3511-9892",
    "email": "escoladonamaria@sedu.es.gov.br",
    "Latitude": -20.850651,
    "Longitude": -41.123731,
    "Numero_professores": null,
    "Numero_alunos": null
  },
  {
    "Nome_escola": "EEEF - ELISEU LOFEGO",
    "Endereco": "RUA MATEUS, RUI PINTO BANDEIRA",
    "Municipio": "Cachoeiro de Itapemirim",
    "CEP": "29315-802",
    "telefone": "(28) 3511-4361",
    "email": "escolaelizeulofego@sedu.es.gov.br",
    "Latitude": -20.838653,
    "Longitude": -41.182934,
    "Numero_professores": null,
    "Numero_alunos": null
  },
  {
    "Nome_escola": "EEEF - JOSE TAVEIRA DOS SANTOS",
    "Endereco": "RUA OLGA CONTARINI, ABELARDO FERREIRA MACHADO",
    "Municipio": "Cachoeiro de Itapemirim",
    "CEP": "29309-257",
    "telefone": "(28) 3515-1187",
    "email": "escolajosetaveira@sedu.es.gov.br",
    "Latitude": -20.837745,
    "Longitude": -41.110912,
    "Numero_professores": null,
    "Numero_alunos": null
  },
  {
    "Nome_escola": "EEEF - ROTARY",
    "Endereco": "RUA NELSON BORELLI, 6, OTTON MARINS",
    "Municipio": "Cachoeiro de Itapemirim",
    "CEP": "29301-822",
    "telefone": "(28) 3522-3542",
    "email": "escolarotary@sedu.es.gov.br",
    "Latitude": -20.84807,
    "Longitude": -41.132041,
    "Numero_professores": null,
    "Numero_alunos": null
  },
  {
    "Nome_escola": "EEEF ANDRE LEANDRO SILOTTI",
    "Endereco": "VARGEM GRANDE DE SOTURNO",
    "Municipio": "Cachoeiro de Itapemirim",
    "CEP": "29321-000",
    "telefone": "(28) 3524-1241",
    "email": "",
    "Latitude": -20.777448,
    "Longitude": -41.068361,
    "Numero_professores": null,
    "Numero_alunos": null
  },
  {
    "Nome_escola": "EEEF DR ARISTIDES ALEXANDRE CAMPOS",
    "Endereco": "AVENIDA MONTE CASTELO, SN, INDEPENDENCIA",
    "Municipio": "Cachoeiro de Itapemirim",
    "CEP": "29300-020",
    "telefone": "(28) 3511-2387",
    "email": "giovannamoreno3@hotmail.com",
    "Latitude": -20.847942,
    "Longitude": -41.107268,
    "Numero_professores": 11,
    "Numero_alunos": null
  },
  {
    "Nome_escola": "EEEF GIRONDA",
    "Endereco": "RUA ADÃO MATHIELO, SN, ZONA RURAL",
    "Municipio": "Cachoeiro de Itapemirim",
    "CEP": "29326-000",
    "telefone": "(28) 3523-1087",
    "email": "escolagironda@sedu.es.gov.br",
    "Latitude": -20.723058,
    "Longitude": -41.082722,
    "Numero_professores": 11,
    "Numero_alunos": null
  },
  {
    "Nome_escola": "EEEF PROF AMELIA TOLEDO DO ROSARIO",
    "Endereco": "CORREGO DOS MONOS, SN, ZONA RURAL",
    "Municipio": "Cachoeiro de Itapemirim",
    "CEP": "29328-000",
    "telefone": "(28) 3521-5127",
    "email": "escolaameliatoledo@sedu.es.gov.br",
    "Latitude": -20.868594,
    "Longitude": -41.207471,
    "Numero_professores": 22,
    "Numero_alunos": null
  },
  {
    "Nome_escola": "EEEF SANTA CECILIA",
    "Endereco": "RUA CABO TAVEIRA, 02, SANTA CECILIA",
    "Municipio": "Cachoeiro de Itapemirim",
    "CEP": "29307-530",
    "telefone": "(28) 3028-8844",
    "email": "escolasantacecilia@sedu.es.gov.br",
    "Latitude": -20.840899,
    "Longitude": -41.109239,
    "Numero_professores": 19,
    "Numero_alunos": null
  },
  {
    "Nome_escola": "EEEFM AGOSTINHO SIMONATO",
    "Endereco": "RUA FRANCISCO RODRIGUES ALMAGO, 01, JARDIM AMERICA",
    "Municipio": "Cachoeiro de Itapemirim",
    "CEP": "29310-775",
    "telefone": "(28) 3521-5030",
    "email": "escolaagostinho@sedu.es.gov.br",
    "Latitude": -20.849873,
    "Longitude": -41.146319,
    "Numero_professores": 53,
    "Numero_alunos": null
  },
  {
    "Nome_escola": "EEEFM BERNARDINO MONTEIRO",
    "Endereco": "RUA FRANCISCO MARTINS, 41, AMARELO",
    "Municipio": "Cachoeiro de Itapemirim",
    "CEP": "29304-615",
    "telefone": "(28) 3522-9751",
    "email": "escolabernardino@sedu.es.gov.br",
    "Latitude": -20.859548,
    "Longitude": -41.118052,
    "Numero_professores": 29,
    "Numero_alunos": null
  },
  {
    "Nome_escola": "EEEFM CAROLINA PASSOS GAIGHER",
    "Endereco": "RUA JOSE REBELLO, 96, PREDIO, IBITIQUARA",
    "Municipio": "Cachoeiro de Itapemirim",
    "CEP": "29307-178",
    "telefone": "(28) 3522-8924",
    "email": "escolacarolinagaighe@sedu.es.gov.br",
    "Latitude": -20.844804,
    "Longitude": -41.108859,
    "Numero_professores": 24,
    "Numero_alunos": null
  },
  {
    "Nome_escola": "EEEFM FRATERNIDADE E LUZ",
    "Endereco": "RUA JOAO SANTANA, 02, PRINCIPAL, SUMARE",
    "Municipio": "Cachoeiro de Itapemirim",
    "CEP": "29304-540",
    "telefone": "(28) 3522-4539",
    "email": "escolafraternidade@sedu.es.gov.br",
    "Latitude": -20.854199,
    "Longitude": -41.112235,
    "Numero_professores": 37,
    "Numero_alunos": null
  },
  {
    "Nome_escola": "EEEFM LIONS SEBASTIAO PAIVA VIDAURRE",
    "Endereco": "PRACA ADRIAO COELHO FILHO, 18, DR LUIZ TINOCO DA FONSECA",
    "Municipio": "Cachoeiro de Itapemirim",
    "CEP": "29313-280",
    "telefone": "(28) 3521-4694",
    "email": "escolalionspaiva@sedu.es.gov.br",
    "Latitude": -20.83244,
    "Longitude": -41.156159,
    "Numero_professores": 42,
    "Numero_alunos": null
  },
  {
    "Nome_escola": "EEEFM MARIA ANGELICA MARANGONI SANTANA",
    "Endereco": "RUA FRANCISCO SANTOS, 2 A 14, ZUMBI",
    "Municipio": "Cachoeiro de Itapemirim",
    "CEP": "29302-067",
    "telefone": "(28) 3027-2717",
    "email": "escolamariaangelica@sedu.es.gov.br",
    "Latitude": -20.851226,
    "Longitude": -41.127206,
    "Numero_professores": 25,
    "Numero_alunos": null
  },
  {
    "Nome_escola": "EEEFM NEWTRO FERREIRA DE ALMEIDA",
    "Endereco": "RUA AGUILAR FERREIRA ATHAYDE, 83, MONTE BELO",
    "Municipio": "Cachoeiro de Itapemirim",
    "CEP": "29314-775",
    "telefone": "(28) 3518-0784",
    "email": "escolanewtro@sedu.es.gov.br",
    "Latitude": -20.875533,
    "Longitude": -41.104545,
    "Numero_professores": 14,
    "Numero_alunos": null
  },
  {
    "Nome_escola": "EEEFM PACOTUBA",
    "Endereco": "RUA DIOGO PIRES DE AMORIM, SN, ZONA RURAL",
    "Municipio": "Cachoeiro de Itapemirim",
    "CEP": "29323-000",
    "telefone": "(28) 3539-7000",
    "email": "tuchi-m@ig.com.br",
    "Latitude": -20.763628,
    "Longitude": -41.272272,
    "Numero_professores": 13,
    "Numero_alunos": null
  },
  {
    "Nome_escola": "EEEFM PRESIDENTE GETULIO VARGAS",
    "Endereco": "RUA JOAO FRANKLIN MACHADO, 40, ABELARDO FERREIRA MACHADO",
    "Municipio": "Cachoeiro de Itapemirim",
    "CEP": "29309-274",
    "telefone": "(28) 3522-2004",
    "email": "escolagetuliovargas@sedu.es.gov.br",
    "Latitude": -20.841919,
    "Longitude": -41.114443,
    "Numero_professores": 54,
    "Numero_alunos": null
  },
  {
    "Nome_escola": "EEEFM PROF CLAUDIONOR RIBEIRO",
    "Endereco": "RUA BERNARDO DE ALMEIDA, 72, MARIA ORTIZ",
    "Municipio": "Cachoeiro de Itapemirim",
    "CEP": "29301-540",
    "telefone": "(28) 3522-0395",
    "email": "escolaclaudionor@sedu.es.gov.br",
    "Latitude": -20.842689,
    "Longitude": -41.126307,
    "Numero_professores": 75,
    "Numero_alunos": null
  },
  {
    "Nome_escola": "EEEFM PROF HOSANA SALLES",
    "Endereco": "RUA HUMBERTO TIRELLO, 83, AEROPORTO",
    "Municipio": "Cachoeiro de Itapemirim",
    "CEP": "29314-110",
    "telefone": "(28) 3517-7045",
    "email": "escolahosanasalles@sedu.es.gov.br",
    "Latitude": -20.831341,
    "Longitude": -41.176054,
    "Numero_professores": 74,
    "Numero_alunos": null
  },
  {
    "Nome_escola": "EEEFM PROF PETRONILHA VIDIGAL",
    "Endereco": "RUA BRAZ VIVACQUA, 40, ITAOCA",
    "Municipio": "Cachoeiro de Itapemirim",
    "CEP": "29325-000",
    "telefone": "(28) 3539-1355",
    "email": "escolapetronilha@sedu.es.gov.br",
    "Latitude": -20.728055,
    "Longitude": -41.132682,
    "Numero_professores": 38,
    "Numero_alunos": null
  },
  {
    "Nome_escola": "EEEFM PROFESSOR DOMINGOS UBALDO",
    "Endereco": "RUA CORONEL FRANCISCO ATHAYDE CONDURU, 75 A 125, ZONA RURAL",
    "Municipio": "Cachoeiro de Itapemirim",
    "CEP": "29329-000",
    "telefone": "(28) 3539-5166",
    "email": "escoladomingosubaldo@sedu.es.gov.br",
    "Latitude": -20.673511,
    "Longitude": -41.207415,
    "Numero_professores": 34,
    "Numero_alunos": null
  },
  {
    "Nome_escola": "EEEFM PROFESSORA INAH WERNECK",
    "Endereco": "RUA CARIRI, 81, AQUIDABAN",
    "Municipio": "Cachoeiro de Itapemirim",
    "CEP": "29308-210",
    "telefone": "(28) 3522-7368",
    "email": "escolainah@sedu.es.gov.br",
    "Latitude": -20.841536,
    "Longitude": -41.116919,
    "Numero_professores": 93,
    "Numero_alunos": null
  },
  {
    "Nome_escola": "EEEFM QUINTILIANO DE AZEVEDO",
    "Endereco": "RUA SAMUEL DUARTE, 02, SANTO ANTONIO",
    "Municipio": "Cachoeiro de Itapemirim",
    "CEP": "29300-550",
    "telefone": "(28) 3522-6520",
    "email": "escolaquintiliano@sedu.es.gov.br",
    "Latitude": -20.846348,
    "Longitude": -41.12578,
    "Numero_professores": 78,
    "Numero_alunos": null
  },
  {
    "Nome_escola": "EEEFM WILSON RESENDE",
    "Endereco": "RUA PRACA JOSE GAVA, SN, BURARAMA",
    "Municipio": "Cachoeiro de Itapemirim",
    "CEP": "29327-000",
    "telefone": "(28) 3539-3051",
    "email": "escolawilsonresende@sedu.es.gov.br",
    "Latitude": -20.680654,
    "Longitude": -41.347351,
    "Numero_professores": 23,
    "Numero_alunos": null
  },
  {
    "Nome_escola": "EEEFM ZACHEU MOREIRA DA FRAGA",
    "Endereco": "RUA JOELMAR DAROS, SN, PREDIO, ZONA RURAL",
    "Municipio": "Cachoeiro de Itapemirim",
    "CEP": "29321-000",
    "telefone": "(28) 99930-5666",
    "email": "escolazacheu@sedu.es.gov.br",
    "Latitude": -20.763382,
    "Longitude": -41.059508,
    "Numero_professores": 60,
    "Numero_alunos": null
  },
  {
    "Nome_escola": "EEEM CEI ATTILA DE ALMEIDA MIRANDA",
    "Endereco": "AVENIDA NOSSA SENHORA DA CONSOLACAO, 176, VILA RICA",
    "Municipio": "Cachoeiro de Itapemirim",
    "CEP": "29301-500",
    "telefone": "(28) 3522-4647",
    "email": "centroattilaalmeida@sedu.es.gov.br",
    "Latitude": -20.842305,
    "Longitude": -41.128564,
    "Numero_professores": 69,
    "Numero_alunos": null
  },
  {
    "Nome_escola": "EEPEF - SANTA FE",
    "Endereco": "RUA SANTA FE DE CIMA, 8, ZONA RURAL",
    "Municipio": "Cachoeiro de Itapemirim",
    "CEP": "29300-210",
    "telefone": "",
    "email": "",
    "Latitude": -20.837582,
    "Longitude": -41.228891,
    "Numero_professores": null,
    "Numero_alunos": null
  },
  {
    "Nome_escola": "EEUEF - BANCA DE AREIA",
    "Endereco": "RUA BANCA DE AREIA, FAZ, ZONA RURAL",
    "Municipio": "Cachoeiro de Itapemirim",
    "CEP": "29300-130",
    "telefone": "",
    "email": "",
    "Latitude": -20.839438,
    "Longitude": -41.307241,
    "Numero_professores": null,
    "Numero_alunos": null
  },
  {
    "Nome_escola": "EEUEF - BARRA DE ITAOCA",
    "Endereco": "RUA SALGADINHO(ITAÓCA)",
    "Municipio": "Cachoeiro de Itapemirim",
    "CEP": "29325-000",
    "telefone": "",
    "email": "",
    "Latitude": -20.736113,
    "Longitude": -41.13302,
    "Numero_professores": null,
    "Numero_alunos": null
  },
  {
    "Nome_escola": "EEUEF - BOA CONSERVA",
    "Endereco": "RUA BOA CONSERVA, ZONA RURAL",
    "Municipio": "Cachoeiro de Itapemirim",
    "CEP": "29327-000",
    "telefone": "",
    "email": "",
    "Latitude": -20.675315,
    "Longitude": -41.309647,
    "Numero_professores": null,
    "Numero_alunos": null
  },
  {
    "Nome_escola": "EEUEF - CAPOEIRAO",
    "Endereco": "RUA CAPOEIRAO, ZONA RURAL",
    "Municipio": "Cachoeiro de Itapemirim",
    "CEP": "29300-020",
    "telefone": "",
    "email": "",
    "Latitude": -20.839776,
    "Longitude": -41.332067,
    "Numero_professores": null,
    "Numero_alunos": null
  },
  {
    "Nome_escola": "EEUEF - COBICA",
    "Endereco": "RUA COBICA, FAZ, ZONA RURAL",
    "Municipio": "Cachoeiro de Itapemirim",
    "CEP": "29321-000",
    "telefone": "",
    "email": "",
    "Latitude": -20.80949,
    "Longitude": -41.069427,
    "Numero_professores": null,
    "Numero_alunos": null
  },
  {
    "Nome_escola": "EEUEF - FAZENDA SANTA FE",
    "Endereco": "RUA SANTA FE BAIXO, FAZ",
    "Municipio": "Cachoeiro de Itapemirim",
    "CEP": "29300-020",
    "telefone": "",
    "email": "",
    "Latitude": -20.829228,
    "Longitude": -41.205959,
    "Numero_professores": null,
    "Numero_alunos": null
  },
  {
    "Nome_escola": "EEUEF - JABOTICABEIRA",
    "Endereco": "RUA JABOTICABEIRA, GUANDU",
    "Municipio": "Cachoeiro de Itapemirim",
    "CEP": "29323-000",
    "telefone": "(28) 3515-2716",
    "email": "",
    "Latitude": -20.680567,
    "Longitude": -41.281817,
    "Numero_professores": null,
    "Numero_alunos": null
  },
  {
    "Nome_escola": "EEUEF - RETIRO FREITAS",
    "Endereco": "RUA RETIRO, FAZ, ZONA RURAL",
    "Municipio": "Cachoeiro de Itapemirim",
    "CEP": "29323-000",
    "telefone": "",
    "email": "",
    "Latitude": -20.695095,
    "Longitude": -41.275325,
    "Numero_professores": null,
    "Numero_alunos": null
  },
  {
    "Nome_escola": "EEUEF COQUEIROS",
    "Endereco": "COQUEIROS",
    "Municipio": "Cachoeiro de Itapemirim",
    "CEP": "29323-000",
    "telefone": "(28) 3560-1106",
    "email": "",
    "Latitude": -20.857444,
    "Longitude": -41.250025,
    "Numero_professores": null,
    "Numero_alunos": null
  },
  {
    "Nome_escola": "EEUEF CORREGO DO BRAS",
    "Endereco": "RUA MARIO ROMANELLI, CENTRO",
    "Municipio": "Cachoeiro de Itapemirim",
    "CEP": "29300-020",
    "telefone": "",
    "email": "",
    "Latitude": -20.851434,
    "Longitude": -41.115536,
    "Numero_professores": null,
    "Numero_alunos": null
  },
  {
    "Nome_escola": "EEUEF FAZENDA JACU",
    "Endereco": "FAZENDA JACU",
    "Municipio": "Cachoeiro de Itapemirim",
    "CEP": "29327-000",
    "telefone": "(28) 3560-1126",
    "email": "",
    "Latitude": -20.723483,
    "Longitude": -41.34594,
    "Numero_professores": null,
    "Numero_alunos": null
  },
  {
    "Nome_escola": "EEUEF FURQUILHA",
    "Endereco": "FURQUILHA, ZONA, RURAL",
    "Municipio": "Cachoeiro de Itapemirim",
    "CEP": "29327-000",
    "telefone": "",
    "email": "",
    "Latitude": -20.640568,
    "Longitude": -41.356393,
    "Numero_professores": null,
    "Numero_alunos": null
  },
  {
    "Nome_escola": "EEUEF MOITAOZINHO",
    "Endereco": "PRACA JERONYMO MONTEIRO, SN, , CENTRO",
    "Municipio": "Cachoeiro de Itapemirim",
    "CEP": "29300-970",
    "telefone": "(28) 3515-2416",
    "email": "",
    "Latitude": -20.848492,
    "Longitude": -41.11253,
    "Numero_professores": null,
    "Numero_alunos": null
  },
  {
    "Nome_escola": "EEUEF SANTA TEREZINHA",
    "Endereco": "FAZENDA BANANAL",
    "Municipio": "Cachoeiro de Itapemirim",
    "CEP": "29323-000",
    "telefone": "",
    "email": "",
    "Latitude": -20.799214,
    "Longitude": -41.31591,
    "Numero_professores": null,
    "Numero_alunos": null
  },
  {
    "Nome_escola": "PRE ENEM EEEFM LIONS SEBASTIAO PAIVA VIDAURRE",
    "Endereco": "PRACA ADRIAO COELHO FILHO, 18, DR LUIZ TINOCO DA FONSECA",
    "Municipio": "Cachoeiro de Itapemirim",
    "CEP": "29313-280",
    "telefone": "(28) 3521-4694",
    "email": "escolalionspaiva@sedu.es.gov.br",
    "Latitude": -20.83253,
    "Longitude": -41.156162,
    "Numero_professores": 7,
    "Numero_alunos": null
  },
  {
    "Nome_escola": "PRE ENEM LICEU MUNIZ FREIRE",
    "Endereco": "RUA MOREIRA, 171, INDEPENDENCIA",
    "Municipio": "Cachoeiro de Itapemirim",
    "CEP": "29306-320",
    "telefone": "(28) 3522-4881",
    "email": "escolaliceu@sedu.es.gov.br",
    "Latitude": -20.852809,
    "Longitude": -41.106837,
    "Numero_professores": 5,
    "Numero_alunos": null
  },
  {
    "Nome_escola": "PRÉ-ENEM EEEFM PRESIDENTE GETULIO VARGAS",
    "Endereco": "RUA JOAO FRANKLIN MACHADO, 40, ABELARDO FERREIRA MACHADO",
    "Municipio": "Cachoeiro de Itapemirim",
    "CEP": "29309-274",
    "telefone": "3522-2004",
    "email": "marciadeosb@gmail.com",
    "Latitude": -20.842021,
    "Longitude": -41.11453,
    "Numero_professores": 3,
    "Numero_alunos": null
  },
  {
    "Nome_escola": "PRÉ-ENEM EEEM CEI ATTILA DE ALMEIDA MIRANDA",
    "Endereco": "AVENIDA NOSSA SENHORA DA CONSOLACAO, 176, VILA RICA",
    "Municipio": "Cachoeiro de Itapemirim",
    "CEP": "29301-080",
    "telefone": "3522-4647",
    "email": "fernandasampaiodealmeida@gmail.com",
    "Latitude": -20.842353,
    "Longitude": -41.128638,
    "Numero_professores": 6,
    "Numero_alunos": null
  },
  {
    "Nome_escola": "CEEFMTI PROFESSOR JOSE LEAO NUNES",
    "Endereco": "AVENIDA PERIMETRAL, SN, VALE DA ESPERANCA",
    "Municipio": "Cariacica",
    "CEP": "29141-010",
    "telefone": "(27) 3226-2426",
    "email": "escolajoseleaonunes@sedu.es.gov.br",
    "Latitude": -20.345127,
    "Longitude": -40.365221,
    "Numero_professores": 60,
    "Numero_alunos": null
  },
  {
    "Nome_escola": "CEEFMTI PROFESSORA MARIA PENEDO",
    "Endereco": "RUA TRINTA E UM DE MARCO, SN, ITACIBA",
    "Municipio": "Cariacica",
    "CEP": "29150-015",
    "telefone": "(27) 3286-1048",
    "email": "profmariapenedo@sedu.es.gov.br",
    "Latitude": -20.326407,
    "Longitude": -40.374309,
    "Numero_professores": 52,
    "Numero_alunos": null
  },
  {
    "Nome_escola": "CEEFTI PRESIDENTE CASTELO BRANCO",
    "Endereco": "RUA DO SESI, SN, PORTO DE SANTANA",
    "Municipio": "Cariacica",
    "CEP": "29153-076",
    "telefone": "(27) 3366-1746",
    "email": "escolacastelobranco@sedu.es.gov.br",
    "Latitude": -20.308297,
    "Longitude": -40.367184,
    "Numero_professores": 23,
    "Numero_alunos": null
  },
  {
    "Nome_escola": "EE - HCTP - HOSPITAL DE CUSTODIO E TRAT PSIQUIATRICO",
    "Endereco": "RODOVIA JOSE SETTE, ROCAS, VELHAS, CARIACICA",
    "Municipio": "Cariacica",
    "CEP": "29156-970",
    "telefone": "(27) 3254-5442",
    "email": "",
    "Latitude": -20.247353,
    "Longitude": -40.41857,
    "Numero_professores": null,
    "Numero_alunos": null
  },
  {
    "Nome_escola": "EE - IASES - INSTITUTO DE ATEND SOCIO EDUCAT DO ESP SANTO",
    "Endereco": "RODOVIA GOVERNADOR JOSÉ SETE, SN, SAO JOAO BATISTA",
    "Municipio": "Cariacica",
    "CEP": "29150-315",
    "telefone": "(27) 3284-6916",
    "email": "espacoeducativo@iases.es.gov.br",
    "Latitude": -20.264292,
    "Longitude": -40.420343,
    "Numero_professores": null,
    "Numero_alunos": null
  },
  {
    "Nome_escola": "EE - PEF - PENITENCIARIA ESTADUAL FEMININA DE TUCUM",
    "Endereco": "RODOVIA JOSE SETTE, SN, TUCUM",
    "Municipio": "Cariacica",
    "CEP": "29140-158",
    "telefone": "(27) 3136-2242",
    "email": "",
    "Latitude": -20.247353,
    "Longitude": -40.41857,
    "Numero_professores": null,
    "Numero_alunos": null
  },
  {
    "Nome_escola": "EEEF - CELESTINO DE ALMEIDA",
    "Endereco": "RUA BLUMENAU, BELA VISTA",
    "Municipio": "Cariacica",
    "CEP": "29142-296",
    "telefone": "(27) 3316-5797",
    "email": "escolacelestino@sedu.es.gov.br",
    "Latitude": -20.369546,
    "Longitude": -40.37163,
    "Numero_professores": null,
    "Numero_alunos": null
  },
  {
    "Nome_escola": "EEEF - GENERAL TIBURCIO",
    "Endereco": "RUA GABINO RIOS, PORTO DE SANTANA",
    "Municipio": "Cariacica",
    "CEP": "29153-010",
    "telefone": "(27) 3343-3746",
    "email": "escolatiburcio@sedu.es.gov.br",
    "Latitude": -20.310258,
    "Longitude": -40.36679,
    "Numero_professores": null,
    "Numero_alunos": null
  },
  {
    "Nome_escola": "EEEF - GLADISTON REGIS BARBOSA",
    "Endereco": "RUA A, 38, JARDIM BOTANICO",
    "Municipio": "Cariacica",
    "CEP": "29142-745",
    "telefone": "",
    "email": "escolagladiston@sedu.es.gov.br",
    "Latitude": -20.394991,
    "Longitude": -40.365947,
    "Numero_professores": null,
    "Numero_alunos": null
  },
  {
    "Nome_escola": "EEEF - MANOEL PASCHOAL DE OLIVEIRA",
    "Endereco": "AVENIDA NOVA CANAA, 289",
    "Municipio": "Cariacica",
    "CEP": "29153-425",
    "telefone": "(27) 3236-8983",
    "email": "escolamanoelpascoal@sedu.es.gov.br",
    "Latitude": -20.285964,
    "Longitude": -40.376089,
    "Numero_professores": null,
    "Numero_alunos": null
  },
  {
    "Nome_escola": "EEEF - PRESIDENTE MÉDICI",
    "Endereco": "RUA SEBASTIAO, PRESIDENTE MEDICI",
    "Municipio": "Cariacica",
    "CEP": "29153-650",
    "telefone": "(27) 3396-4926",
    "email": "escolamedici@sedu.es.gov.br",
    "Latitude": -20.303063,
    "Longitude": -40.369607,
    "Numero_professores": null,
    "Numero_alunos": null
  },
  {
    "Nome_escola": "EEEF - PROF AUGUSTO CARVALHO",
    "Endereco": "RUA IMACULADA CONCEIÇÃO, SN, ITACIBA",
    "Municipio": "Cariacica",
    "CEP": "29150-200",
    "telefone": "(27) 3236-2871",
    "email": "escolaprofaugusto@sedu.es.gov.br",
    "Latitude": -20.323834,
    "Longitude": -40.374634,
    "Numero_professores": null,
    "Numero_alunos": null
  },
  {
    "Nome_escola": "EEEF - PROF MARIUZA SECHIN",
    "Endereco": "RUA NOVENTA E CINCO, NOVA ROSA DA PENHA II",
    "Municipio": "Cariacica",
    "CEP": "29157-322",
    "telefone": "(27) 3284-6212",
    "email": "escolamariuza@sedu.es.gov.br",
    "Latitude": -20.255643,
    "Longitude": -40.378984,
    "Numero_professores": null,
    "Numero_alunos": null
  },
  {
    "Nome_escola": "EEEF - PROFESSOR JOSE ZACCHI",
    "Endereco": "AVENIDA NOSSA SENHORA DA PENHA, FLEXAL I",
    "Municipio": "Cariacica",
    "CEP": "29155-599",
    "telefone": "",
    "email": "",
    "Latitude": -20.289669,
    "Longitude": -40.378223,
    "Numero_professores": null,
    "Numero_alunos": null
  },
  {
    "Nome_escola": "EEEF - TIRADENTES",
    "Endereco": "RUA FERRO E ACO, BELA AURORA",
    "Municipio": "Cariacica",
    "CEP": "29141-550",
    "telefone": "(27) 3369-6723",
    "email": "escolatiradentes@sedu.es.gov.br",
    "Latitude": -20.352363,
    "Longitude": -40.366408,
    "Numero_professores": null,
    "Numero_alunos": null
  },
  {
    "Nome_escola": "EEEF ADALBERTO QUEIROZ",
    "Endereco": "RUA SAO LUIZ, SN, MOXUARA",
    "Municipio": "Cariacica",
    "CEP": "29140-010",
    "telefone": "",
    "email": "carol.jpinto@gmail.com",
    "Latitude": -20.328555,
    "Longitude": -40.389674,
    "Numero_professores": 10,
    "Numero_alunos": null
  },
  {
    "Nome_escola": "EEEF ANTONIO ESTEVES",
    "Endereco": "RUA MONTE CASTELO, SN, VERA CRUZ",
    "Municipio": "Cariacica",
    "CEP": "29146-759",
    "telefone": "(27) 3386-8352",
    "email": "carol.jpinto@gmail.com",
    "Latitude": -20.338551,
    "Longitude": -40.373108,
    "Numero_professores": 12,
    "Numero_alunos": null
  },
  {
    "Nome_escola": "EEEF BOA VISTA",
    "Endereco": "AVENIDA MOCHUARA, 333, NOVO BRASIL",
    "Municipio": "Cariacica",
    "CEP": "29158-020",
    "telefone": "(27) 3286-2768",
    "email": "carol.jpinto@gmail.com",
    "Latitude": -20.313428,
    "Longitude": -40.436876,
    "Numero_professores": 11,
    "Numero_alunos": null
  },
  {
    "Nome_escola": "EEEF CASTELO BRANCO",
    "Endereco": "AVENIDA MARIANO FIRME, 77, BANDEIRANTES",
    "Municipio": "Cariacica",
    "CEP": "29142-008",
    "telefone": "(27) 3326-4903",
    "email": "carol.jpinto@gmail.com",
    "Latitude": -20.364822,
    "Longitude": -40.363723,
    "Numero_professores": 13,
    "Numero_alunos": null
  },
  {
    "Nome_escola": "EEEF DR SOUZA ARAUJO",
    "Endereco": "ESPIRITO SANTO, SN, PADRE MATHIAS",
    "Municipio": "Cariacica",
    "CEP": "29157-015",
    "telefone": "",
    "email": "carol.jpinto@gmail.com",
    "Latitude": -20.272978,
    "Longitude": -40.388996,
    "Numero_professores": 13,
    "Numero_alunos": null
  },
  {
    "Nome_escola": "EEEF JOSE MARIA FERREIRA",
    "Endereco": "RUA CACHOEIRO DO ITAPEMIRIM, 173, NOVA BRASILIA",
    "Municipio": "Cariacica",
    "CEP": "29149-424",
    "telefone": "(27) 3114-9653",
    "email": "carol.jpinto@gmail.com",
    "Latitude": -20.32672,
    "Longitude": -40.392274,
    "Numero_professores": 32,
    "Numero_alunos": null
  },
  {
    "Nome_escola": "EEEF PAUTILA RODRIGUES XAVIER",
    "Endereco": "RUA AMAZONAS, SN, JARDIM AMERICA",
    "Municipio": "Cariacica",
    "CEP": "29140-040",
    "telefone": "(27) 3236-0713",
    "email": "carol.jpinto@gmail.com",
    "Latitude": -20.336016,
    "Longitude": -40.358716,
    "Numero_professores": 20,
    "Numero_alunos": null
  },
  {
    "Nome_escola": "EEEF STELLITA RAMOS",
    "Endereco": "DONA CALOCHI, 121, PORTO NOVO",
    "Municipio": "Cariacica",
    "CEP": "29155-447",
    "telefone": "(27) 99287-5022",
    "email": "escolastellita@sedu.es.gov.br",
    "Latitude": -20.300917,
    "Longitude": -40.362543,
    "Numero_professores": 29,
    "Numero_alunos": null
  },
  {
    "Nome_escola": "EEEF VENTINO DA COSTA BRANDAO",
    "Endereco": "RUA AMAZONAS, SN, ROSA DA PENHA",
    "Municipio": "Cariacica",
    "CEP": "29143-320",
    "telefone": "(27) 3090-7857",
    "email": "carol.jpinto@gmail.com",
    "Latitude": -20.354916,
    "Longitude": -40.383316,
    "Numero_professores": 14,
    "Numero_alunos": null
  },
  {
    "Nome_escola": "EEEF WELLINGTON FERREIRA BORGES",
    "Endereco": "RUA UM, 170, ANTONIO FERREIRA BORGES",
    "Municipio": "Cariacica",
    "CEP": "29157-885",
    "telefone": "(27) 3254-2543",
    "email": "carol.jpinto@gmail.com",
    "Latitude": -20.305761,
    "Longitude": -40.386288,
    "Numero_professores": 4,
    "Numero_alunos": null
  },
  {
    "Nome_escola": "EEEFM - EULALIA MOREIRA",
    "Endereco": "RODOVIA JOSE SETTE KM 12, 176, PORTO DE CARIACICA",
    "Municipio": "Cariacica",
    "CEP": "29156-650",
    "telefone": "(27) 3254-2415",
    "email": "escolaeulalia@sedu.es.gov.br",
    "Latitude": -20.247353,
    "Longitude": -40.41857,
    "Numero_professores": null,
    "Numero_alunos": null
  },
  {
    "Nome_escola": "EEEFM - ZAIRA MANHAES DE ANDRADE",
    "Endereco": "RUA QUINZE, NOVA ROSA DA PENHA I",
    "Municipio": "Cariacica",
    "CEP": "29157-413",
    "telefone": "(27) 9803-9066",
    "email": "escolazaira@sedu.es.gov.br",
    "Latitude": -20.263473,
    "Longitude": -40.388729,
    "Numero_professores": null,
    "Numero_alunos": null
  },
  {
    "Nome_escola": "EEEFM ALZIRA RAMOS",
    "Endereco": "RUA PRINCIPAL, SN, RIO MARINHO",
    "Municipio": "Cariacica",
    "CEP": "29142-340",
    "telefone": "(27) 3316-6460",
    "email": "escolaalziraramos@sedu.es.gov.br",
    "Latitude": -20.380666,
    "Longitude": -40.369622,
    "Numero_professores": 50,
    "Numero_alunos": null
  },
  {
    "Nome_escola": "EEEFM ANA LOPES BALESTRERO",
    "Endereco": "RUA LORIVAL DE ALMEIDA, 32, FLEXAL I",
    "Municipio": "Cariacica",
    "CEP": "29155-610",
    "telefone": "(27) 3236-8994",
    "email": "escolaanabalestrero@sedu.es.gov.br",
    "Latitude": -20.289288,
    "Longitude": -40.37809,
    "Numero_professores": 53,
    "Numero_alunos": null
  },
  {
    "Nome_escola": "EEEFM ARY PARREIRAS",
    "Endereco": "RUA FUNDAO, SN, VILA CAPIXABA",
    "Municipio": "Cariacica",
    "CEP": "29148-140",
    "telefone": "(27) 2141-5611",
    "email": "escolaaryparreiras@sedu.es.gov.br",
    "Latitude": -20.337148,
    "Longitude": -40.395571,
    "Numero_professores": 56,
    "Numero_alunos": null
  },
  {
    "Nome_escola": "EEEFM CEL OLIMPIO CUNHA",
    "Endereco": "RUA MARIO ARAUJO, 13, ESCOLA, SANTANA",
    "Municipio": "Cariacica",
    "CEP": "29154-100",
    "telefone": "(27) 3093-0330",
    "email": "escolaolimpiocunha@sedu.es.gov.br",
    "Latitude": -20.311423,
    "Longitude": -40.391196,
    "Numero_professores": 75,
    "Numero_alunos": null
  },
  {
    "Nome_escola": "EEEFM DR AFONSO SCHWAB",
    "Endereco": "RUA SANTO AMARO, SN, JARDIM AMERICA",
    "Municipio": "Cariacica",
    "CEP": "29140-300",
    "telefone": "(27) 3226-1531",
    "email": "odetecescgest@hotmail.com",
    "Latitude": -20.337802,
    "Longitude": -40.365874,
    "Numero_professores": 38,
    "Numero_alunos": null
  },
  {
    "Nome_escola": "EEEFM DR JOSE MOYSES",
    "Endereco": "RUA RIO ITAPEMIRIM, SN, BELA VISTA",
    "Municipio": "Cariacica",
    "CEP": "29142-288",
    "telefone": "(27) 3316-7041",
    "email": "escolajosemoises@sedu.es.gov.br",
    "Latitude": -20.366674,
    "Longitude": -40.374052,
    "Numero_professores": 75,
    "Numero_alunos": null
  },
  {
    "Nome_escola": "EEEFM HUNNEY EVEREST PIOVESAN",
    "Endereco": "RUA CARLOS ROGERIO JESUS GOMES, SN, MORADA DE SANTA FE",
    "Municipio": "Cariacica",
    "CEP": "29143-738",
    "telefone": "(27) 3336-0565",
    "email": "escolahunney@sedu.es.gov.br",
    "Latitude": -20.346972,
    "Longitude": -40.38694,
    "Numero_professores": 84,
    "Numero_alunos": null
  },
  {
    "Nome_escola": "EEEFM JESUS CRISTO REI",
    "Endereco": "RUA PADRE LEANDRO DEL HOMO, SN, ESCOLA, SAO FRANCISCO",
    "Municipio": "Cariacica",
    "CEP": "29145-405",
    "telefone": "(27) 3343-5104",
    "email": "escolajesuscristorei@sedu.es.gov.br",
    "Latitude": -20.349297,
    "Longitude": -40.40635,
    "Numero_professores": 71,
    "Numero_alunos": null
  },
  {
    "Nome_escola": "EEEFM JOAO CRISOSTOMO BELESA",
    "Endereco": "RUA SETOR DA CVRD, 1132, PORTO DE SANTANA",
    "Municipio": "Cariacica",
    "CEP": "29140-010",
    "telefone": "(27) 3112-0033",
    "email": "escolajoacrisostomo@sedu.es.gov.br",
    "Latitude": -20.312697,
    "Longitude": -40.36736,
    "Numero_professores": 52,
    "Numero_alunos": null
  },
  {
    "Nome_escola": "EEEFM JOSE RODRIGUES COUTINHO",
    "Endereco": "AVENIDA SAO PAULO, 696, SANTO ANTONIO",
    "Municipio": "Cariacica",
    "CEP": "29156-805",
    "telefone": "(27) 3396-3673",
    "email": "escolajosecoutinho@sedu.es.gov.br",
    "Latitude": -20.301139,
    "Longitude": -40.405081,
    "Numero_professores": 46,
    "Numero_alunos": null
  },
  {
    "Nome_escola": "EEEFM JOSE VITOR FILHO",
    "Endereco": "RUA EMILIO CHAGAS, SN, VILA INDEPENDENCIA",
    "Municipio": "Cariacica",
    "CEP": "29148-650",
    "telefone": "(27) 3343-6515",
    "email": "escolajosevitorfilho@sedu.es.gov.br",
    "Latitude": -20.33288,
    "Longitude": -40.407923,
    "Numero_professores": 50,
    "Numero_alunos": null
  },
  {
    "Nome_escola": "EEEFM MARIA DE LOURDES POYARES LABUTO",
    "Endereco": "RUA PROFESSOR OSVALDO MENEGUEL, SN, TABAJARA",
    "Municipio": "Cariacica",
    "CEP": "29154-407",
    "telefone": "(27) 3386-1734",
    "email": "escolamariadelourdes@sedu.es.gov.br",
    "Latitude": -20.302642,
    "Longitude": -40.39368,
    "Numero_professores": 59,
    "Numero_alunos": null
  },
  {
    "Nome_escola": "EEEFM MARIANO FIRME DE SOUZA",
    "Endereco": "RUA PEDRO II, 21, BANDEIRANTES",
    "Municipio": "Cariacica",
    "CEP": "29142-100",
    "telefone": "(27) 3316-5610",
    "email": "escolamarianofirme@sedu.es.gov.br",
    "Latitude": -20.362211,
    "Longitude": -40.36764,
    "Numero_professores": 58,
    "Numero_alunos": null
  },
  {
    "Nome_escola": "EEEFM NEA SALLES NUNES PEREIRA",
    "Endereco": "RUA ONZE, SN, MARACANA",
    "Municipio": "Cariacica",
    "CEP": "29142-859",
    "telefone": "(27) 3226-1441",
    "email": "escolaneasalles@sedu.es.gov.br",
    "Latitude": -20.358539,
    "Longitude": -40.373393,
    "Numero_professores": 48,
    "Numero_alunos": null
  },
  {
    "Nome_escola": "EEEFM NOSSA SENHORA APARECIDA",
    "Endereco": "RUA PAULICEIA, 28, ORIENTE",
    "Municipio": "Cariacica",
    "CEP": "29150-550",
    "telefone": "(27) 3295-0343",
    "email": "escolaaparecida@sedu.es.gov.br",
    "Latitude": -20.332693,
    "Longitude": -40.381447,
    "Numero_professores": 31,
    "Numero_alunos": null
  },
  {
    "Nome_escola": "EEEFM PROF AUGUSTO LUCIANO",
    "Endereco": "RUA DUQUE DE CAXIAS, 168, CARIACICA SEDE",
    "Municipio": "Cariacica",
    "CEP": "29156-100",
    "telefone": "(27) 3254-1437",
    "email": "escolaaugusto@sedu.es.gov.br",
    "Latitude": -20.266694,
    "Longitude": -40.418532,
    "Numero_professores": 84,
    "Numero_alunos": null
  },
  {
    "Nome_escola": "EEEFM PROF JOAQUIM BARBOSA QUITIBA",
    "Endereco": "RUA CLARICIO ALVES RIBEIRO, 138, ITANGUA",
    "Municipio": "Cariacica",
    "CEP": "29149-800",
    "telefone": "(27) 3284-1316",
    "email": "escolajoaquimbarbosa@sedu.es.gov.br",
    "Latitude": -20.328731,
    "Longitude": -40.390851,
    "Numero_professores": 57,
    "Numero_alunos": null
  },
  {
    "Nome_escola": "EEEFM PROF MARIA DE LOURDES SANTOS SILVA",
    "Endereco": "RUA SANTA LUCIA, SN, ALTO LAGE",
    "Municipio": "Cariacica",
    "CEP": "29151-085",
    "telefone": "(27) 3226-2140",
    "email": "escolamarialourdes@sedu.es.gov.br",
    "Latitude": -20.329474,
    "Longitude": -40.36825,
    "Numero_professores": 49,
    "Numero_alunos": null
  },
  {
    "Nome_escola": "EEEFM ROSA MARIA REIS",
    "Endereco": "AVENIDA VIRGILIO FRANCISCO SCHWAB, SN, PORTO DE CARIACICA",
    "Municipio": "Cariacica",
    "CEP": "29156-603",
    "telefone": "(27) 3254-4729",
    "email": "escolarosamaria@sedu.es.gov.br",
    "Latitude": -20.268911,
    "Longitude": -40.394382,
    "Numero_professores": 62,
    "Numero_alunos": null
  },
  {
    "Nome_escola": "EEEFM SAO JOAO BATISTA - CARIACICA",
    "Endereco": "RODOVIA JOSE SETTE, SN, SAO JOAO BATISTA",
    "Municipio": "Cariacica",
    "CEP": "29140-010",
    "telefone": "(27) 3254-1519",
    "email": "escolasaojoao@sedu.es.gov.br",
    "Latitude": -20.273746,
    "Longitude": -40.413554,
    "Numero_professores": 57,
    "Numero_alunos": null
  },
  {
    "Nome_escola": "EEEFM SATURNINO RANGEL MAURO",
    "Endereco": "RUA SESSENTA E UM, 58, QD 76, NOVA ROSA DA PENHA I",
    "Municipio": "Cariacica",
    "CEP": "29157-432",
    "telefone": "(27) 3284-3878",
    "email": "escolasaturnino@sedu.es.gov.br",
    "Latitude": -20.262265,
    "Longitude": -40.381915,
    "Numero_professores": 53,
    "Numero_alunos": null
  },
  {
    "Nome_escola": "EEEFM TEOTÔNIO BRANDÃO VILELA",
    "Endereco": "RUA CENTO E OITO, SN, NOVA ROSA DA PENHA II",
    "Municipio": "Cariacica",
    "CEP": "29157-288",
    "telefone": "(27) 3284-5391",
    "email": "escolateotonio@sedu.es.gov.br",
    "Latitude": -20.252311,
    "Longitude": -40.384138,
    "Numero_professores": 73,
    "Numero_alunos": null
  },
  {
    "Nome_escola": "EEEFM THEODOMIRO RIBEIRO COELHO",
    "Endereco": "RUA SAO JOSE, 533, NOVO HORIZONTE",
    "Municipio": "Cariacica",
    "CEP": "29158-105",
    "telefone": "(27) 3226-2107",
    "email": "escolatheodomiro@sedu.es.gov.br",
    "Latitude": -20.335391,
    "Longitude": -40.422968,
    "Numero_professores": 41,
    "Numero_alunos": null
  },
  {
    "Nome_escola": "EEEFMTI ITAGIBA ESCOBAR",
    "Endereco": "RUA LUCILIO CHAGAS, SN, SOTEMA",
    "Municipio": "Cariacica",
    "CEP": "29152-035",
    "telefone": "(27) 3396-0248",
    "email": "escolaitagibaescobar@sedu.es.gov.br",
    "Latitude": -20.321885,
    "Longitude": -40.36649,
    "Numero_professores": 21,
    "Numero_alunos": null
  },
  {
    "Nome_escola": "EEEFMTI PROFESSORA MARCIA SOUZA DA SILVA",
    "Endereco": "ALAMEDA ELCIO ALVARES, S/M, TUCUM",
    "Municipio": "Cariacica",
    "CEP": "29150-413",
    "telefone": "",
    "email": "",
    "Latitude": -20.31441,
    "Longitude": -40.383236,
    "Numero_professores": 42,
    "Numero_alunos": null
  },
  {
    "Nome_escola": "EEPEF - PROFESSORA ILDA MEIRELLES FREIRE",
    "Endereco": "RUA PRINCIPAL, SN, ZONA RURAL",
    "Municipio": "Cariacica",
    "CEP": "29140-100",
    "telefone": "",
    "email": "",
    "Latitude": -20.314764,
    "Longitude": -40.446988,
    "Numero_professores": null,
    "Numero_alunos": null
  },
  {
    "Nome_escola": "EEPEF DE LIMAO",
    "Endereco": "RUA SAO JORGE, SN, LIMAO",
    "Municipio": "Cariacica",
    "CEP": "29140-010",
    "telefone": "",
    "email": "sfcezar@sedu.es.gov.br",
    "Latitude": -20.262928,
    "Longitude": -40.437165,
    "Numero_professores": 1,
    "Numero_alunos": null
  },
  {
    "Nome_escola": "EEPEF RODA DÁGUA",
    "Endereco": "RUA ESTRADA RODA DAGUA, SN, ZONA RURAL",
    "Municipio": "Cariacica",
    "CEP": "29140-100",
    "telefone": "",
    "email": "dentifer@ibest.com.br",
    "Latitude": -20.323697,
    "Longitude": -40.478243,
    "Numero_professores": 1,
    "Numero_alunos": null
  },
  {
    "Nome_escola": "EEUEF - DESTACAMENTO",
    "Endereco": "RUA PROJETADA",
    "Municipio": "Cariacica",
    "CEP": "29140-970",
    "telefone": "",
    "email": "",
    "Latitude": -20.251504,
    "Longitude": -40.379286,
    "Numero_professores": null,
    "Numero_alunos": null
  },
  {
    "Nome_escola": "EEUEF DE CACHOEIRINHA",
    "Endereco": "RUA PRINCIPAL, SN, ZONA RURAL",
    "Municipio": "Cariacica",
    "CEP": "29159-899",
    "telefone": "",
    "email": "carol.jpinto@gmail.com",
    "Latitude": -20.238832,
    "Longitude": -40.459953,
    "Numero_professores": 0,
    "Numero_alunos": null
  },
  {
    "Nome_escola": "PRE ENEM EEEFM MARIA DE LOURDES POYARES LABUTO",
    "Endereco": "RUA PROFESSOR OSVALDO MENEGUEL, SN, TABAJARA",
    "Municipio": "Cariacica",
    "CEP": "29154-407",
    "telefone": "3386-1734",
    "email": "marcelomvelten@gmail.com",
    "Latitude": -20.302679,
    "Longitude": -40.393623,
    "Numero_professores": 1,
    "Numero_alunos": null
  },
  {
    "Nome_escola": "PRE ENEM EEEFM THEODOMIRO RIBEIRO COELHO",
    "Endereco": "RUA SÃO JOSÉ, 533, NOVO HORIZONTE",
    "Municipio": "Cariacica",
    "CEP": "29158-105",
    "telefone": "3226-2107",
    "email": "solcarlini@hotmail.com",
    "Latitude": -20.335398,
    "Longitude": -40.422838,
    "Numero_professores": 3,
    "Numero_alunos": null
  },
  {
    "Nome_escola": "PRÉ ENEM EEEFM SÃO JOÃO BATISTA",
    "Endereco": "RODOVIA JOSE SETTE, SN, SAO JOAO BATISTA",
    "Municipio": "Cariacica",
    "CEP": "29140-010",
    "telefone": "3254-1519",
    "email": "emersonfernandopin@hotmail.com",
    "Latitude": -20.273839,
    "Longitude": -40.413716,
    "Numero_professores": 3,
    "Numero_alunos": null
  },
  {
    "Nome_escola": "PRÉ-ENEM EEEFM HUNNEY EVEREST PIOVESAN",
    "Endereco": "RUA CARLOS ROGERIO JESUS GOMES, SN, MORADA DE SANTA FE",
    "Municipio": "Cariacica",
    "CEP": "29143-738",
    "telefone": "(27) 3336-0565",
    "email": "escolahunney@sedu.es.gov.br",
    "Latitude": -20.34665,
    "Longitude": -40.386765,
    "Numero_professores": 4,
    "Numero_alunos": null
  },
  {
    "Nome_escola": "CEET EMILIO NEMER",
    "Endereco": "RUA BERNARDINO MONTEIRO, 126, CENTRO",
    "Municipio": "Castelo",
    "CEP": "29360-000",
    "telefone": "(28) 3542-5417",
    "email": "ceetemilionemer@secti.es.gov.br",
    "Latitude": -20.603033,
    "Longitude": -41.205155,
    "Numero_professores": 18,
    "Numero_alunos": null
  },
  {
    "Nome_escola": "EEEFM JOAO BLEY",
    "Endereco": "RUA OTTO VIEIRA MACHADO, Nº 150, BAIRRO SAO MIGUEL",
    "Municipio": "Castelo",
    "CEP": "29360-000",
    "telefone": "(28) 3542-1413",
    "email": "escolajoaobley@sedu.es.gov.br",
    "Latitude": -20.61049,
    "Longitude": -41.202822,
    "Numero_professores": 70,
    "Numero_alunos": null
  },
  {
    "Nome_escola": "EEEM - ESTRELA DO NORTE",
    "Endereco": "FAZENDA ESTRELA DO NORTE, CENTRO",
    "Municipio": "Castelo",
    "CEP": "29360-000",
    "telefone": "",
    "email": "",
    "Latitude": -20.583514,
    "Longitude": -41.31382,
    "Numero_professores": null,
    "Numero_alunos": null
  },
  {
    "Nome_escola": "PRÉ-ENEM EEEFM JOAO BLEY",
    "Endereco": "RUA OTTO VIEIRA MACHADO, Nº 150, BAIRRO SAO MIGUEL",
    "Municipio": "Castelo",
    "CEP": "29360-000",
    "telefone": "(28) 3542-1413",
    "email": "escolajoaobley@sedu.es.gov.br",
    "Latitude": -20.609583,
    "Longitude": -41.202898,
    "Numero_professores": 4,
    "Numero_alunos": null
  },
  {
    "Nome_escola": "CEEFMTI CONDE DE LINHARES",
    "Endereco": "RUA ADAMASTOR SALVADOR, 64, CENTRO",
    "Municipio": "Colatina",
    "CEP": "29700-050",
    "telefone": "(27) 3177-7246",
    "email": "ceefmticondelinhares@sedu.es.gov.br",
    "Latitude": -19.53369,
    "Longitude": -40.626882,
    "Numero_professores": 60,
    "Numero_alunos": null
  },
  {
    "Nome_escola": "CEEJA - PEDRO ANTONIO VITALI",
    "Endereco": "AVENIDA PEDRO VITALI, 209, FAZENDA VITALI",
    "Municipio": "Colatina",
    "CEP": "29707-015",
    "telefone": "(27) 3721-1433",
    "email": "centropedrovitali@sedu.es.gov.br",
    "Latitude": -19.542711,
    "Longitude": -40.636978,
    "Numero_professores": 24,
    "Numero_alunos": null
  },
  {
    "Nome_escola": "EE - COMUNITARIA RURAL DE COLATINA",
    "Endereco": "RUA EUCLIDES PRETTI, RETA GRANDE",
    "Municipio": "Colatina",
    "CEP": "29719-430",
    "telefone": "(27) 3743-3185",
    "email": "escolacolatina@sedu.es.gov.br",
    "Latitude": -19.519209,
    "Longitude": -40.642721,
    "Numero_professores": null,
    "Numero_alunos": null
  },
  {
    "Nome_escola": "EE - PSMECOL-PENITENCIÁRIA DE SEGURANÇA MÉDIA COLATINA",
    "Endereco": "RUA CÓRREGO SANTA FÉ, CENTRO",
    "Municipio": "Colatina",
    "CEP": "29700-005",
    "telefone": "(27) 3721-2500",
    "email": "",
    "Latitude": -19.493253,
    "Longitude": -40.59788,
    "Numero_professores": null,
    "Numero_alunos": null
  },
  {
    "Nome_escola": "EECOR DE COLATINA",
    "Endereco": "RUA EUCLIDES PRETTI, SN, RETA GRANDE",
    "Municipio": "Colatina",
    "CEP": "29700-005",
    "telefone": "(27) 9643-4812",
    "email": "escolaruralcolatina@sedu.es.gov.br",
    "Latitude": -19.310127,
    "Longitude": -40.68686,
    "Numero_professores": 9,
    "Numero_alunos": null
  },
  {
    "Nome_escola": "EEEFM - LIONS CLUB DE COLATINA",
    "Endereco": "AVENIDA ROSEIRAS, MOACIR BROTAS",
    "Municipio": "Colatina",
    "CEP": "29701-680",
    "telefone": "(27) 3722-2677",
    "email": "escolalions@sedu.es.gov.br",
    "Latitude": -19.543402,
    "Longitude": -40.628416,
    "Numero_professores": null,
    "Numero_alunos": null
  },
  {
    "Nome_escola": "EEEFM AGUAS DO RIO DOCE",
    "Endereco": "ESTRADA CORREGO SANTA FE, SN",
    "Municipio": "Colatina",
    "CEP": "29700-970",
    "telefone": "",
    "email": "",
    "Latitude": -19.477868,
    "Longitude": -40.602445,
    "Numero_professores": 37,
    "Numero_alunos": null
  },
  {
    "Nome_escola": "EEEFM ARISTIDES FREIRE",
    "Endereco": "PRACA MUNICIPAL, 70, CENTRO",
    "Municipio": "Colatina",
    "CEP": "29700-220",
    "telefone": "(27) 3722-1670",
    "email": "eloiza.comerio1@educador.edu.es.gov.br",
    "Latitude": -19.534526,
    "Longitude": -40.628495,
    "Numero_professores": 48,
    "Numero_alunos": null
  },
  {
    "Nome_escola": "EEEFM GERALDO VARGAS NOGUEIRA",
    "Endereco": "AVENIDA BRASIL, SNº, LACE",
    "Municipio": "Colatina",
    "CEP": "29703-035",
    "telefone": "(27) 3711-6554",
    "email": "escolageraldovargas@sedu.es.gov.br",
    "Latitude": -19.527316,
    "Longitude": -40.631971,
    "Numero_professores": 47,
    "Numero_alunos": null
  },
  {
    "Nome_escola": "EEEFM HONORIO FRAGA",
    "Endereco": "NOSSA SENHORA APARECIDA, 214, SAO SILVANO",
    "Municipio": "Colatina",
    "CEP": "29703-270",
    "telefone": "(27) 3120-5171",
    "email": "escolahonorio@sedu.es.gov.br",
    "Latitude": -19.522519,
    "Longitude": -40.63631,
    "Numero_professores": 42,
    "Numero_alunos": null
  },
  {
    "Nome_escola": "EEEFM PROF CAROLINA PICHLER",
    "Endereco": "RUA LUIZ MARANHAO, 225, ESCOLA, SAO PEDRO",
    "Municipio": "Colatina",
    "CEP": "29706-807",
    "telefone": "(27) 3722-4595",
    "email": "escolacarolina@sedu.es.gov.br",
    "Latitude": -19.519741,
    "Longitude": -40.647407,
    "Numero_professores": 22,
    "Numero_alunos": null
  },
  {
    "Nome_escola": "EEEFM PROFESSORA NEA MONTEIRO COSTA",
    "Endereco": "RUA NOSSA SENHORA DA PENHA, 273, HONORIO FRAGA",
    "Municipio": "Colatina",
    "CEP": "29704-630",
    "telefone": "(27) 3711-9509",
    "email": "escolaneacosta@sedu.es.gov.br",
    "Latitude": -19.527996,
    "Longitude": -40.662437,
    "Numero_professores": 47,
    "Numero_alunos": null
  },
  {
    "Nome_escola": "EEEFM RUBENS RANGEL",
    "Endereco": "RUA PEDRO II, 128, ESPLANADA",
    "Municipio": "Colatina",
    "CEP": "29702-715",
    "telefone": "(27) 3722-0141",
    "email": "escolarubens@sedu.es.gov.br",
    "Latitude": -19.538499,
    "Longitude": -40.634413,
    "Numero_professores": 49,
    "Numero_alunos": null
  },
  {
    "Nome_escola": "EEEM - ANTÔNIO EUGÊNIO ROSA",
    "Endereco": "RUA GALDENCIO SOUZA, 83, ITAPINA",
    "Municipio": "Colatina",
    "CEP": "29714-035",
    "telefone": "(27) 3743-1907",
    "email": "escolaantoniorosa@sedu.es.gov.br",
    "Latitude": -19.533278,
    "Longitude": -40.81369,
    "Numero_professores": null,
    "Numero_alunos": null
  },
  {
    "Nome_escola": "PRE ENEM EEEFM HONORIO FRAGA",
    "Endereco": "RUA NOSSA SENHORA APARECIDA, 214, SAO SILVANO",
    "Municipio": "Colatina",
    "CEP": "29703-270",
    "telefone": "3120-5171",
    "email": "rogerio.costa.reis@hotmail.com",
    "Latitude": -19.522677,
    "Longitude": -40.636274,
    "Numero_professores": 6,
    "Numero_alunos": null
  },
  {
    "Nome_escola": "PRÉ-ENEM EEEFM GERALDO VARGAS NOGUEIRA",
    "Endereco": "AVENIDA BRASIL, SNº, LACE",
    "Municipio": "Colatina",
    "CEP": "29703-035",
    "telefone": "(27) 3711-6554",
    "email": "escolageraldovargas@sedu.es.gov.br",
    "Latitude": -19.527333,
    "Longitude": -40.632008,
    "Numero_professores": 7,
    "Numero_alunos": null
  },
  {
    "Nome_escola": "EEEFM ASSENTAMENTO UNIAO",
    "Endereco": "RUA ASSENTAMENTO PONTAL DO JUNDIA, SN, RUA BRACO DO RIO",
    "Municipio": "Conceição da Barra",
    "CEP": "29967-000",
    "telefone": "(27) 99330-0000",
    "email": "escolauniao@sedu.es.gov.br",
    "Latitude": -18.393438,
    "Longitude": -39.914315,
    "Numero_professores": 12,
    "Numero_alunos": null
  },
  {
    "Nome_escola": "EEEFM AUGUSTO DE OLIVEIRA",
    "Endereco": "AVENIDA WALDEREDO FARIA, 728, RUA BRACO DO RIO",
    "Municipio": "Conceição da Barra",
    "CEP": "29967-000",
    "telefone": "(27) 99608-6566",
    "email": "escolaaugustooli@sedu.es.gov.br",
    "Latitude": -18.434474,
    "Longitude": -39.930631,
    "Numero_professores": 39,
    "Numero_alunos": null
  },
  {
    "Nome_escola": "EEEFM CORREGO DO CEDRO",
    "Endereco": "ASSENTAMENTO PAULO VINHA, SN, ITAUNAS, ZONA RURAL",
    "Municipio": "Conceição da Barra",
    "CEP": "29960-000",
    "telefone": "(27) 3767-7660",
    "email": "escolacorrego@sedu.es.gov.br",
    "Latitude": -18.36591,
    "Longitude": -39.78859,
    "Numero_professores": 19,
    "Numero_alunos": null
  },
  {
    "Nome_escola": "EEEFM JOSE CARLOS CASTRO",
    "Endereco": "AVENIDA GOVERNADOR VALADARES, SN, CENTRO",
    "Municipio": "Conceição da Barra",
    "CEP": "29967-000",
    "telefone": "",
    "email": "escolajosecarlos@sedu.es.gov.br",
    "Latitude": -18.431984,
    "Longitude": -39.930477,
    "Numero_professores": 68,
    "Numero_alunos": null
  },
  {
    "Nome_escola": "EEEFM VALDICIO BARBOSA DOS SANTOS",
    "Endereco": "ASSENTAMENTO VALDICIO BARBOSA DOS SANTOS, SN, ZONA RURAL",
    "Municipio": "Conceição da Barra",
    "CEP": "29965-000",
    "telefone": "",
    "email": "escolavaldisio@sedu.es.gov.br",
    "Latitude": -18.289661,
    "Longitude": -39.871824,
    "Numero_professores": 16,
    "Numero_alunos": null
  },
  {
    "Nome_escola": "EEEM DUNAS DE ITAUNAS",
    "Endereco": "RUA EVANDRO RODRIGUES BARCELOS, SN, ESCOLA, ITAUNAS",
    "Municipio": "Conceição da Barra",
    "CEP": "29965-000",
    "telefone": "(27) 3762-5024",
    "email": "escoladunasdeitaunas@sedu.es.gov.br",
    "Latitude": -18.420191,
    "Longitude": -39.709475,
    "Numero_professores": 11,
    "Numero_alunos": null
  },
  {
    "Nome_escola": "EEEM PROF JOAQUIM FONSECA",
    "Endereco": "RUA SETE DE DEZEMBRO, 31, CENTRO",
    "Municipio": "Conceição da Barra",
    "CEP": "29960-000",
    "telefone": "(27) 9920-0101",
    "email": "escolajoaquimfonseca@sedu.es.gov.br",
    "Latitude": -18.594513,
    "Longitude": -39.730066,
    "Numero_professores": 33,
    "Numero_alunos": null
  },
  {
    "Nome_escola": "EEPEF BOM JESUS DA LAPA",
    "Endereco": "ZONA RURAL",
    "Municipio": "Conceição da Barra",
    "CEP": "29960-000",
    "telefone": "",
    "email": "",
    "Latitude": -18.583168,
    "Longitude": -39.734049,
    "Numero_professores": null,
    "Numero_alunos": null
  },
  {
    "Nome_escola": "EEPEF CORREGO DO ARTHUR",
    "Endereco": "CONCEICAO DA BARRA",
    "Municipio": "Conceição da Barra",
    "CEP": "29960-000",
    "telefone": "",
    "email": "",
    "Latitude": -18.578379,
    "Longitude": -39.735583,
    "Numero_professores": null,
    "Numero_alunos": null
  },
  {
    "Nome_escola": "EEPEF SAO BENEDITO",
    "Endereco": "ASSENTAMENTO RIO PRETOITAUNAS, SN, ZONA RURAL",
    "Municipio": "Conceição da Barra",
    "CEP": "29960-000",
    "telefone": "(27) 9963-7764",
    "email": "escolasaobenedito@sedu.es.gov.br",
    "Latitude": -18.387619,
    "Longitude": -39.801194,
    "Numero_professores": 3,
    "Numero_alunos": null
  },
  {
    "Nome_escola": "EEUEF BOA SORTE",
    "Endereco": "ZONA RURAL",
    "Municipio": "Conceição da Barra",
    "CEP": "29960-000",
    "telefone": "",
    "email": "",
    "Latitude": -18.583168,
    "Longitude": -39.734049,
    "Numero_professores": null,
    "Numero_alunos": null
  },
  {
    "Nome_escola": "EEUEF ITAUNAS",
    "Endereco": "CONCEICAO DA BARRA",
    "Municipio": "Conceição da Barra",
    "CEP": "29960-000",
    "telefone": "",
    "email": "",
    "Latitude": -18.420274,
    "Longitude": -39.709882,
    "Numero_professores": null,
    "Numero_alunos": null
  },
  {
    "Nome_escola": "EEUEF PARAISO",
    "Endereco": "CONCEICAO DA BARRA",
    "Municipio": "Conceição da Barra",
    "CEP": "29960-000",
    "telefone": "",
    "email": "",
    "Latitude": -18.581762,
    "Longitude": -39.737627,
    "Numero_professores": null,
    "Numero_alunos": null
  },
  {
    "Nome_escola": "EEUEF PORTO DOS TOCOS",
    "Endereco": "CONCEICAO DA BARRA",
    "Municipio": "Conceição da Barra",
    "CEP": "29960-000",
    "telefone": "",
    "email": "",
    "Latitude": -18.583168,
    "Longitude": -39.734049,
    "Numero_professores": null,
    "Numero_alunos": null
  },
  {
    "Nome_escola": "CEEFMTI ELISA PAIVA",
    "Endereco": "AVENIDA JOSE GRILLO, 348, PREDIO, CENTRO",
    "Municipio": "Conceição do Castelo",
    "CEP": "29370-000",
    "telefone": "(28) 99271-2472",
    "email": "ceefmtielisapaiva@sedu.es.gov.br",
    "Latitude": -20.35709,
    "Longitude": -41.244763,
    "Numero_professores": 33,
    "Numero_alunos": null
  },
  {
    "Nome_escola": "EEEFM PROF ALDY SOARES MERCON VARGAS",
    "Endereco": "PRACA DA MATRIZ, 9, CENTRO",
    "Municipio": "Conceição do Castelo",
    "CEP": "29370-000",
    "telefone": "(28) 3547-1283",
    "email": "escolaaldy@sedu.es.gov.br",
    "Latitude": -20.356132,
    "Longitude": -41.242083,
    "Numero_professores": 35,
    "Numero_alunos": null
  },
  {
    "Nome_escola": "EEEFM JUVENAL NOLASCO",
    "Endereco": "RUA ADOLFO BATISTA, 83, ESCOLA, CENTRO",
    "Municipio": "Divino de São Lourenço",
    "CEP": "29590-000",
    "telefone": "(28) 3551-1141",
    "email": "escolajuvenal@sedu.es.gov.br",
    "Latitude": -20.622312,
    "Longitude": -41.686618,
    "Numero_professores": 29,
    "Numero_alunos": null
  },
  {
    "Nome_escola": "EEEFM GISELA SALLOKER FAYET",
    "Endereco": "ESTRADA PRINCIPAL, 35, PARAJU",
    "Municipio": "Domingos Martins",
    "CEP": "29273-000",
    "telefone": "(27) 3249-1063",
    "email": "escolagiselasaloker@sedu.es.gov.br",
    "Latitude": -20.316759,
    "Longitude": -40.803764,
    "Numero_professores": 32,
    "Numero_alunos": null
  },
  {
    "Nome_escola": "EEEFM PEDRA AZUL",
    "Endereco": "RUA PETERLE, SN, PEDRA AZUL",
    "Municipio": "Domingos Martins",
    "CEP": "29278-000",
    "telefone": "(27) 3248-1291",
    "email": "escolapedraazul@sedu.es.gov.br",
    "Latitude": -20.381549,
    "Longitude": -41.031815,
    "Numero_professores": 21,
    "Numero_alunos": null
  },
  {
    "Nome_escola": "EEEFM PONTO DO ALTO",
    "Endereco": "RUA REINOLDO KIEFER, 92, PONTO ALTO",
    "Municipio": "Domingos Martins",
    "CEP": "29273-000",
    "telefone": "(27) 3249-5066",
    "email": "escolapontodoalto@sedu.es.gov.br",
    "Latitude": -20.286649,
    "Longitude": -40.816403,
    "Numero_professores": 33,
    "Numero_alunos": null
  },
  {
    "Nome_escola": "EEEFM TEOFILO PAULINO",
    "Endereco": "ALAMEDA DOS PINHAIS, 01, CENTRO",
    "Municipio": "Domingos Martins",
    "CEP": "29260-000",
    "telefone": "(27) 99730-5042",
    "email": "escolateofilo@sedu.es.gov.br",
    "Latitude": -20.368212,
    "Longitude": -40.66285,
    "Numero_professores": 36,
    "Numero_alunos": null
  },
  {
    "Nome_escola": "EEEM - MELGACO",
    "Endereco": "AVENIDA ADELSON PLASTER, KM 30, ZONA RURAL",
    "Municipio": "Domingos Martins",
    "CEP": "29276-000",
    "telefone": "",
    "email": "",
    "Latitude": -20.188202,
    "Longitude": -40.761239,
    "Numero_professores": null,
    "Numero_alunos": null
  },
  {
    "Nome_escola": "EEUEF BERNARDO VALTER",
    "Endereco": "ARACE",
    "Municipio": "Domingos Martins",
    "CEP": "29260-000",
    "telefone": "",
    "email": "",
    "Latitude": -20.392357,
    "Longitude": -41.000089,
    "Numero_professores": null,
    "Numero_alunos": null
  },
  {
    "Nome_escola": "PRÉ-ENEM EEEFM TEOFILO PAULINO",
    "Endereco": "ALAMEDA DOS PINHAIS, 1, CENTRO",
    "Municipio": "Domingos Martins",
    "CEP": "29260-000",
    "telefone": "(27) 99730-5042",
    "email": "escolateofilo@sedu.es.gov.br",
    "Latitude": -20.367745,
    "Longitude": -40.662881,
    "Numero_professores": 7,
    "Numero_alunos": null
  },
  {
    "Nome_escola": "EEEFM PEDRO DE ALCANTARA GALVEAS",
    "Endereco": "AVENIDA FIRMINO DIAS, 360, CENTRO",
    "Municipio": "Dores do Rio Preto",
    "CEP": "29580-000",
    "telefone": "(28) 3559-1586",
    "email": "escolapedrogalveas@sedu.es.gov.br",
    "Latitude": -20.692903,
    "Longitude": -41.848995,
    "Numero_professores": 40,
    "Numero_alunos": null
  },
  {
    "Nome_escola": "EEEFM SAO JOSE - DORES DO RIO PRETO",
    "Endereco": "AVENIDA VEREADOR JOSE MOREIRA DE LACERDA, 10, PEDRA MENINA",
    "Municipio": "Dores do Rio Preto",
    "CEP": "29580-000",
    "telefone": "(28) 3559-3007",
    "email": "escolasaojose@sedu.es.gov.br",
    "Latitude": -20.555189,
    "Longitude": -41.81877,
    "Numero_professores": 21,
    "Numero_alunos": null
  },
  {
    "Nome_escola": "CEEFMTI DANIEL COMBONI",
    "Endereco": "RUA JOAQUIM DE SOUZA LIMA, 260, NOSSA SRA APARECIDA",
    "Municipio": "Ecoporanga",
    "CEP": "29850-000",
    "telefone": "",
    "email": "escoladcomboni@sedu.es.gov.br",
    "Latitude": -18.369001,
    "Longitude": -40.829772,
    "Numero_professores": 39,
    "Numero_alunos": null
  },
  {
    "Nome_escola": "EEEF COTAXE",
    "Endereco": "RUA SANTA CRUZ, 31, PREDIO, COTAXE",
    "Municipio": "Ecoporanga",
    "CEP": "29855-000",
    "telefone": "(27) 3755-5160",
    "email": "escolacotaxe@sedu.es.gov.br",
    "Latitude": -18.182285,
    "Longitude": -40.717105,
    "Numero_professores": 13,
    "Numero_alunos": null
  },
  {
    "Nome_escola": "EEEF PATRIMONIO PRATA DOS BAIANOS",
    "Endereco": "RUA PRINCIPAL, SN, PRATA DOS BAIANOS",
    "Municipio": "Ecoporanga",
    "CEP": "29850-000",
    "telefone": "(27) 3755-7081",
    "email": "escolapatrimonio@sedu.es.gov.br",
    "Latitude": -18.339858,
    "Longitude": -41.005306,
    "Numero_professores": 13,
    "Numero_alunos": null
  },
  {
    "Nome_escola": "EEEF SANTA TEREZINHA",
    "Endereco": "RUA SAO JOSE, SN, CENTRO, SANTA TEREZINHA",
    "Municipio": "Ecoporanga",
    "CEP": "29850-000",
    "telefone": "(27) 99936-7394",
    "email": "escolasantaterezinha@sedu.es.gov.br",
    "Latitude": -18.49256,
    "Longitude": -40.811625,
    "Numero_professores": 13,
    "Numero_alunos": null
  },
  {
    "Nome_escola": "EEEFM DE JOASSUBA SR ANTONIO PATRICIO DE FONTOURA",
    "Endereco": "RUA PRINCIPAL, SN, JOASSUBA",
    "Municipio": "Ecoporanga",
    "CEP": "29850-000",
    "telefone": "(27) 99862-8012",
    "email": "escolajoassuba@sedu.es.gov.br",
    "Latitude": -18.373546,
    "Longitude": -40.832139,
    "Numero_professores": 21,
    "Numero_alunos": null
  },
  {
    "Nome_escola": "EEEFM ECOPORANGA",
    "Endereco": "PRACA TOLENTINO XAVIER RIBEIRO, 586, RUA CANDIDO MIGUEL DE SOUZA",
    "Municipio": "Ecoporanga",
    "CEP": "29850-000",
    "telefone": "(27) 3755-1328",
    "email": "escolaecoporanga@sedu.es.gov.br",
    "Latitude": -18.372488,
    "Longitude": -40.834609,
    "Numero_professores": 51,
    "Numero_alunos": null
  },
  {
    "Nome_escola": "EEEFM JOSE TEIXEIRA FIALHO",
    "Endereco": "RUA PADRE LUIS TONI, SN, IMBURANA",
    "Municipio": "Ecoporanga",
    "CEP": "29850-000",
    "telefone": "(27) 99897-5100",
    "email": "escolajoseteixeira@sedu.es.gov.br",
    "Latitude": -18.283331,
    "Longitude": -40.706274,
    "Numero_professores": 21,
    "Numero_alunos": null
  },
  {
    "Nome_escola": "EEUEF - FAZENDA SANTOS",
    "Endereco": "CORREGO DO JABUTI",
    "Municipio": "Ecoporanga",
    "CEP": "29850-000",
    "telefone": "",
    "email": "",
    "Latitude": -18.370926,
    "Longitude": -40.83285,
    "Numero_professores": null,
    "Numero_alunos": null
  },
  {
    "Nome_escola": "PRÉ-ENEM CEEFMTI DANIEL COMBONI",
    "Endereco": "RUA JOAQUIM DE SOUZA LIMA, 260, NOSSA SRA APARECIDA",
    "Municipio": "Ecoporanga",
    "CEP": "29850-000",
    "telefone": "(27) 3755-1329",
    "email": "escoladcomboni@sedu.es.gov.br",
    "Latitude": -18.369563,
    "Longitude": -40.830312,
    "Numero_professores": 1,
    "Numero_alunos": null
  },
  {
    "Nome_escola": "EEEM - OLIVIO JOAO BUZZO",
    "Endereco": "RUA AMAPA, PRAIA GRANDE",
    "Municipio": "Fundao",
    "CEP": "29185-000",
    "telefone": "",
    "email": "",
    "Latitude": -20.038234,
    "Longitude": -40.182953,
    "Numero_professores": null,
    "Numero_alunos": null
  },
  {
    "Nome_escola": "CEEFMTI NAIR MIRANDA",
    "Endereco": "RUA VICENTE FERNANDES DE OLIVEIRA, 38, CENTRO",
    "Municipio": "Fundão",
    "CEP": "29185-000",
    "telefone": "(27) 3267-1280",
    "email": "ceefmtinairmiranda@sedu.es.gov.br",
    "Latitude": -19.937234,
    "Longitude": -40.403644,
    "Numero_professores": 31,
    "Numero_alunos": null
  },
  {
    "Nome_escola": "EEEFM PROFESSORA MARIA DA PAZ PIMENTEL",
    "Endereco": "RUA JOAO ARCARI, SN, ESCOLA, CENTRO",
    "Municipio": "Fundão",
    "CEP": "29188-000",
    "telefone": "(27) 3277-1127",
    "email": "escolamariadapaz@sedu.es.gov.br",
    "Latitude": -20.001677,
    "Longitude": -40.410458,
    "Numero_professores": 25,
    "Numero_alunos": null
  },
  {
    "Nome_escola": "EEUEF IRUNDI",
    "Endereco": "ZONA RUAL",
    "Municipio": "Fundão",
    "CEP": "29185-000",
    "telefone": "",
    "email": "",
    "Latitude": -19.925013,
    "Longitude": -40.448586,
    "Numero_professores": null,
    "Numero_alunos": null
  },
  {
    "Nome_escola": "PRÉ-ENEM CEEFMTI NAIR MIRANDA",
    "Endereco": "RUA VICENTE FERNANDES DE OLIVEIRA, 38, CENTRO",
    "Municipio": "Fundão",
    "CEP": "29185-000",
    "telefone": "3267-1280",
    "email": "moreira.sebastiao@gmail.com",
    "Latitude": -19.937017,
    "Longitude": -40.403798,
    "Numero_professores": 3,
    "Numero_alunos": null
  },
  {
    "Nome_escola": "EEEF DR MOACIR AVIDOS",
    "Endereco": "AVENIDA SILVINO DE CASTRO, SN, MOACIR AVIDOS",
    "Municipio": "Governador Lindenberg",
    "CEP": "29720-000",
    "telefone": "(27) 99744-4215",
    "email": "escolamoaciravidos@sedu.es.gov.br",
    "Latitude": -19.235817,
    "Longitude": -40.511452,
    "Numero_professores": 13,
    "Numero_alunos": null
  },
  {
    "Nome_escola": "EEEFM IRINEU MORELLO",
    "Endereco": "AVENIDA ANDRE MORELLO, SN, DISTRITO DE MORELLO",
    "Municipio": "Governador Lindenberg",
    "CEP": "29720-000",
    "telefone": "(27) 9697-4900",
    "email": "escolairineu@sedu.es.gov.br",
    "Latitude": -19.141521,
    "Longitude": -40.467083,
    "Numero_professores": 13,
    "Numero_alunos": null
  },
  {
    "Nome_escola": "EEEFM PROF CARLOS MENDES",
    "Endereco": "RUA ALVINO PAULO PEREIRA, 883, NOVO BRASIL",
    "Municipio": "Governador Lindenberg",
    "CEP": "29724-000",
    "telefone": "(27) 3744-3169",
    "email": "escolacarlosmendes@sedu.es.gov.br",
    "Latitude": -19.225013,
    "Longitude": -40.593278,
    "Numero_professores": 14,
    "Numero_alunos": null
  },
  {
    "Nome_escola": "EEEFM PROFESSOR SANTOS PINTO",
    "Endereco": "RUA JOAO DALFIOR, 250, CENTRO",
    "Municipio": "Governador Lindenberg",
    "CEP": "29720-000",
    "telefone": "(27) 3744-5379",
    "email": "escolasantospinto@sedu.es.gov.br",
    "Latitude": -19.252862,
    "Longitude": -40.462485,
    "Numero_professores": 36,
    "Numero_alunos": null
  },
  {
    "Nome_escola": "EEUEF - BARRA DE SÃO JOÃO DO MOACIR",
    "Endereco": "RUA BAIXO MOACIR",
    "Municipio": "Governador Lindenberg",
    "CEP": "29720-000",
    "telefone": "",
    "email": "",
    "Latitude": -19.133335,
    "Longitude": -40.461818,
    "Numero_professores": null,
    "Numero_alunos": null
  },
  {
    "Nome_escola": "EEUEF BOM JESUS DA LAPA",
    "Endereco": "GOVERNADOR LINDENBERG",
    "Municipio": "Governador Lindenberg",
    "CEP": "29720-000",
    "telefone": "",
    "email": "",
    "Latitude": -19.251715,
    "Longitude": -40.462693,
    "Numero_professores": null,
    "Numero_alunos": null
  },