[
  {
    "Nome_escola": "CMEI AMAURY GOMES",
    "Endereco": "AVENIDA IPIRANGA, 357, ESCOLA, 357",
    "Municipio": "Afonso Cláudio",
    "CEP": "29600-000",
    "telefone": "",
    "email": "",
    "Latitude": -20.076134,
    "Longitude": -41.122745,
    "Numero_professores": 9,
    "Numero_alunos": null
  },
  {
    "Nome_escola": "CMEI DIOCLEZIO TOSTA DAS NEVES",
    "Endereco": "RUA FRANCISCO TOSTA, SN, PREDIO, SN",
    "Municipio": "Afonso Cláudio",
    "CEP": "29609-000",
    "telefone": "",
    "email": "",
    "Latitude": -20.212581,
    "Longitude": -41.104456,
    "Numero_professores": 11,
    "Numero_alunos": null
  },
  {
    "Nome_escola": "CMEI ILMA HENRIQUES VIEIRA",
    "Endereco": "RUA WERNER RUCHDESCHEL, SN, VILA PONTOES, SN",
    "Municipio": "Afonso Cláudio",
    "CEP": "29604-000",
    "telefone": "",
    "email": "",
    "Latitude": -20.201893,
    "Longitude": -41.045847,
    "Numero_professores": 12,
    "Numero_alunos": null
  },
  {
    "Nome_escola": "CMEI JAIR GIESTAS",
    "Endereco": "RUA UTE AMELIA GASTIN PADUA, 113, 113",
    "Municipio": "Afonso Cláudio",
    "CEP": "29600-000",
    "telefone": "",
    "email": "",
    "Latitude": -20.075538,
    "Longitude": -41.127564,
    "Numero_professores": 11,
    "Numero_alunos": null
  },
  {
    "Nome_escola": "CMEI JOVELINO AMBROZIM",
    "Endereco": "ESTRADA PRINCIPAL, S/N, SN, CENTRO, PIRACEMA, SN",
    "Municipio": "Afonso Cláudio",
    "CEP": "29607-980",
    "telefone": "",
    "email": "",
    "Latitude": -20.184302,
    "Longitude": -41.192812,
    "Numero_professores": 13,
    "Numero_alunos": null
  },
  {
    "Nome_escola": "CMEI NESTOR PINTO DE AGUIAR",
    "Endereco": "AVENIDA LEVY DIAS DE CARVALHO, 00, 00",
    "Municipio": "Afonso Cláudio",
    "CEP": "29603-000",
    "telefone": "",
    "email": "",
    "Latitude": -20.004048,
    "Longitude": -41.029034,
    "Numero_professores": 12,
    "Numero_alunos": null
  },
  {
    "Nome_escola": "CMEI O SABIDINHO FRANCISCO COSTA",
    "Endereco": "RUA EGBERD BEHREND, 39, 39",
    "Municipio": "Afonso Cláudio",
    "CEP": "29600-000",
    "telefone": "",
    "email": "",
    "Latitude": -20.062875,
    "Longitude": -41.112827,
    "Numero_professores": 10,
    "Numero_alunos": null
  },
  {
    "Nome_escola": "CMEI ROSINELMA BATISTA MOREIRA",
    "Endereco": "RUA JOAO BATISTA DE ARAUJO, 225, RUA, 225",
    "Municipio": "Afonso Cláudio",
    "CEP": "29600-000",
    "telefone": "",
    "email": "",
    "Latitude": -20.085244,
    "Longitude": -41.125609,
    "Numero_professores": 14,
    "Numero_alunos": null
  },
  {
    "Nome_escola": "CMEI SEBASTIAO PEREIRA DE PAULA",
    "Endereco": "RUA ANA ANGELICA CORREA, SN, SN",
    "Municipio": "Afonso Cláudio",
    "CEP": "29600-000",
    "telefone": "",
    "email": "",
    "Latitude": -20.08788,
    "Longitude": -41.11602,
    "Numero_professores": 12,
    "Numero_alunos": null
  },
  {
    "Nome_escola": "EMEF ALTO SANTA JOANA",
    "Endereco": "BR MATA FRIA, SN, SN",
    "Municipio": "Afonso Cláudio",
    "CEP": "29600-000",
    "telefone": "",
    "email": "",
    "Latitude": -20.096605,
    "Longitude": -41.013613,
    "Numero_professores": 3,
    "Numero_alunos": null
  },
  {
    "Nome_escola": "EMEF ALTO TABATINGA",
    "Endereco": "FAZENDA GUANDU, SN, SN",
    "Municipio": "Afonso Cláudio",
    "CEP": "29609-000",
    "telefone": "",
    "email": "",
    "Latitude": -20.211056,
    "Longitude": -41.079997,
    "Numero_professores": 5,
    "Numero_alunos": null
  },
  {
    "Nome_escola": "EMEF ARREPENDIDO",
    "Endereco": "ZONA RURAL, SN, SN",
    "Municipio": "Afonso Cláudio",
    "CEP": "29600-000",
    "telefone": "",
    "email": "",
    "Latitude": -20.069612,
    "Longitude": -41.071616,
    "Numero_professores": 4,
    "Numero_alunos": null
  },
  {
    "Nome_escola": "EMEF AUGUSTA LAMAS DAVILA",
    "Endereco": "AVENIDA PRESIDENTE VARGAS, 35, 35",
    "Municipio": "Afonso Cláudio",
    "CEP": "29600-000",
    "telefone": "",
    "email": "",
    "Latitude": -20.073668,
    "Longitude": -41.123908,
    "Numero_professores": 13,
    "Numero_alunos": null
  },
  {
    "Nome_escola": "EMEF FAZENDA CARLOS HACKBART",
    "Endereco": "CORREGO DAS FLORES, SN, EST SERRA PELADA, SN",
    "Municipio": "Afonso Cláudio",
    "CEP": "29600-000",
    "telefone": "",
    "email": "",
    "Latitude": -20.00119,
    "Longitude": -40.998257,
    "Numero_professores": 3,
    "Numero_alunos": null
  },
  {
    "Nome_escola": "EMEF FAZENDA SANTO ANTONIO",
    "Endereco": "FAZENDA SANTO ANTONIO, SN, SN",
    "Municipio": "Afonso Cláudio",
    "CEP": "29604-000",
    "telefone": "",
    "email": "",
    "Latitude": -20.148994,
    "Longitude": -41.050871,
    "Numero_professores": 5,
    "Numero_alunos": null
  },
  {
    "Nome_escola": "EMEF HILDA CORREA LEMOS",
    "Endereco": "RUA JOSE CORREA DE OLIVEIRA, SN, SN",
    "Municipio": "Afonso Cláudio",
    "CEP": "29600-000",
    "telefone": "",
    "email": "",
    "Latitude": -20.086298,
    "Longitude": -41.121639,
    "Numero_professores": 7,
    "Numero_alunos": null
  },
  {
    "Nome_escola": "EMEF IDOLINO DA FONSECA LAMAS",
    "Endereco": "AVENIDA INACIO LAMAS, 129, 129",
    "Municipio": "Afonso Cláudio",
    "CEP": "29600-000",
    "telefone": "",
    "email": "",
    "Latitude": -20.067276,
    "Longitude": -41.116205,
    "Numero_professores": 11,
    "Numero_alunos": null
  },
  {
    "Nome_escola": "EMEF JOSE JORGE HADDAD",
    "Endereco": "RUA FELICIO PEREIRA DE SOUZA, 704, ESCOLA, SAO VICENTE, 704",
    "Municipio": "Afonso Cláudio",
    "CEP": "29600-000",
    "telefone": "",
    "email": "",
    "Latitude": -20.08144,
    "Longitude": -41.12908,
    "Numero_professores": 24,
    "Numero_alunos": null
  },
  {
    "Nome_escola": "EMEF SAO LUIZ DE BOA SORTE",
    "Endereco": "BR SAO LUIS DE BOA SORTE, SN, SN",
    "Municipio": "Afonso Cláudio",
    "CEP": "29600-000",
    "telefone": "",
    "email": "",
    "Latitude": -20.166443,
    "Longitude": -41.098461,
    "Numero_professores": 4,
    "Numero_alunos": null
  },
  {
    "Nome_escola": "EMEIEF AGRICOLA",
    "Endereco": "PARQUE DE EXPOSICAO DR. JOAO EUTROPIO, SN, PREDIO, SN",
    "Municipio": "Afonso Cláudio",
    "CEP": "29600-000",
    "telefone": "",
    "email": "",
    "Latitude": -20.038416,
    "Longitude": -41.106767,
    "Numero_professores": 26,
    "Numero_alunos": null
  },
  {
    "Nome_escola": "EMEIEF ARCANJO TONOLI SOBRINHO",
    "Endereco": "ESTRADA ALTO LAGOA, SN, SN",
    "Municipio": "Afonso Cláudio",
    "CEP": "29600-000",
    "telefone": "",
    "email": "",
    "Latitude": -20.070372,
    "Longitude": -41.002562,
    "Numero_professores": 5,
    "Numero_alunos": null
  },
  {
    "Nome_escola": "EMEIEF CUSTODIO LOPES DA ROCHA",
    "Endereco": "BR RIBEIRAO DE SAO PEDRO, SN, RIBEIRAO DE SAO PEDRO, SN",
    "Municipio": "Afonso Cláudio",
    "CEP": "29604-000",
    "telefone": "",
    "email": "",
    "Latitude": -20.124854,
    "Longitude": -41.063225,
    "Numero_professores": 6,
    "Numero_alunos": null
  },
  {
    "Nome_escola": "EMEIEF DUAS PEDRAS",
    "Endereco": "CORREGO CORREGO SAO DOMINGOS, 00, MANGUEIRA, 00",
    "Municipio": "Afonso Cláudio",
    "CEP": "29600-000",
    "telefone": "",
    "email": "",
    "Latitude": -19.94045,
    "Longitude": -41.198997,
    "Numero_professores": 4,
    "Numero_alunos": null
  },
  {
    "Nome_escola": "EMEIEF FAZENDA JULIO LITTIG",
    "Endereco": "FAZENDA JULIO LITTIG, SN, FIRME, SN",
    "Municipio": "Afonso Cláudio",
    "CEP": "29600-000",
    "telefone": "",
    "email": "",
    "Latitude": -20.072149,
    "Longitude": -41.174479,
    "Numero_professores": 4,
    "Numero_alunos": null
  },
  {
    "Nome_escola": "EMEIEF FRANZ CARLOS JOAO LEMKE",
    "Endereco": "CORREGO FRANCISCO CORREA, SN, ESCOLA, SN",
    "Municipio": "Afonso Cláudio",
    "CEP": "29600-000",
    "telefone": "",
    "email": "",
    "Latitude": -20.082534,
    "Longitude": -40.977754,
    "Numero_professores": 15,
    "Numero_alunos": null
  },
  {
    "Nome_escola": "EMEIEF GUMERCINDO LACERDA",
    "Endereco": "RUA PEDRO RIBEIRO, 177, 177",
    "Municipio": "Afonso Cláudio",
    "CEP": "29600-000",
    "telefone": "",
    "email": "",
    "Latitude": -19.997491,
    "Longitude": -41.134108,
    "Numero_professores": 13,
    "Numero_alunos": null
  },
  {
    "Nome_escola": "EMEIEF PATRIMONIO DOS GONCALVES",
    "Endereco": "BR IBICABA, SN, SN",
    "Municipio": "Afonso Cláudio",
    "CEP": "29600-000",
    "telefone": "",
    "email": "",
    "Latitude": -20.010419,
    "Longitude": -41.236878,
    "Numero_professores": 5,
    "Numero_alunos": null
  },
  {
    "Nome_escola": "EMEIEFTI ABRAHAO SALEME",
    "Endereco": "RUA ANTONIO SERAFIM, 311, 311",
    "Municipio": "Afonso Cláudio",
    "CEP": "29600-000",
    "telefone": "",
    "email": "",
    "Latitude": -20.072287,
    "Longitude": -41.132473,
    "Numero_professores": 10,
    "Numero_alunos": null
  },
  {
    "Nome_escola": "EMEIEFTI FAZENDA HENRIQUE ZAMBOM",
    "Endereco": "FAZENDA HENRIQUE ZAMBOM, SN, SN",
    "Municipio": "Afonso Cláudio",
    "CEP": "29600-000",
    "telefone": "",
    "email": "",
    "Latitude": -20.213633,
    "Longitude": -41.128046,
    "Numero_professores": 11,
    "Numero_alunos": null
  },
  {
    "Nome_escola": "EMEIEFTI FORTALEZA",
    "Endereco": "FAZENDA FORTALEZA, SN, SN",
    "Municipio": "Afonso Cláudio",
    "CEP": "29600-000",
    "telefone": "",
    "email": "",
    "Latitude": -20.124942,
    "Longitude": -41.155733,
    "Numero_professores": 13,
    "Numero_alunos": null
  },
  {
    "Nome_escola": "CEMEI CARMEM PINTO NOGUEIRA DA GAMA",
    "Endereco": "RUA ANTONIO LEMOS BARBOSA, S/N, S/N",
    "Municipio": "Alegre",
    "CEP": "29500-000",
    "telefone": "",
    "email": "",
    "Latitude": -20.77196,
    "Longitude": -41.53472,
    "Numero_professores": 12,
    "Numero_alunos": null
  },
  {
    "Nome_escola": "CEMEI FATINHA BARBOSA",
    "Endereco": "RUA JOAO BRAVO, S/N, S/N",
    "Municipio": "Alegre",
    "CEP": "29500-000",
    "telefone": "",
    "email": "",
    "Latitude": -20.753433,
    "Longitude": -41.531318,
    "Numero_professores": 10,
    "Numero_alunos": null
  },
  {
    "Nome_escola": "CEMEI MARIA BITTENCOURT DA ROSA",
    "Endereco": "RUA EMPERILIO DE SOUZA MOREIRA, SN, SN",
    "Municipio": "Alegre",
    "CEP": "29510-000",
    "telefone": "",
    "email": "",
    "Latitude": -20.762892,
    "Longitude": -41.59453,
    "Numero_professores": 8,
    "Numero_alunos": null
  },
  {
    "Nome_escola": "CEMEI MARIA GERALDA GUERRA JACCOUD",
    "Endereco": "RUA PEDRO CLEMENTE NOGUEIRA, 210, 210",
    "Municipio": "Alegre",
    "CEP": "29500-000",
    "telefone": "",
    "email": "",
    "Latitude": -20.767635,
    "Longitude": -41.544142,
    "Numero_professores": 13,
    "Numero_alunos": null
  },
  {
    "Nome_escola": "CEMEI PAULO AMOACY BRAGANCA",
    "Endereco": "RUA PEDRO ASSIS",
    "Municipio": "Alegre",
    "CEP": "29535-000",
    "telefone": "",
    "email": "",
    "Latitude": -20.592703,
    "Longitude": -41.55611,
    "Numero_professores": 8,
    "Numero_alunos": null
  },
  {
    "Nome_escola": "CEMEI PROF CANDIDA FILGUEIRAS",
    "Endereco": "RUA JOAO MIRANDA AMORIM, SN, ANUTIBA, SN",
    "Municipio": "Alegre",
    "CEP": "29530-000",
    "telefone": "",
    "email": "",
    "Latitude": -20.611202,
    "Longitude": -41.451112,
    "Numero_professores": 9,
    "Numero_alunos": null
  },
  {
    "Nome_escola": "CEMEI TEREZA FIOREZZI DE OLIVEIRA",
    "Endereco": "ARISTIDES MONTEIRO DA SILVA, SN, SN",
    "Municipio": "Alegre",
    "CEP": "29500-000",
    "telefone": "",
    "email": "",
    "Latitude": -20.763243,
    "Longitude": -41.532717,
    "Numero_professores": 8,
    "Numero_alunos": null
  },
  {
    "Nome_escola": "CEMEI TIO TEOTONIO BARBOSA",
    "Endereco": "RUA SENADOR ROBERT KENNEDY, 52, 52, -",
    "Municipio": "Alegre",
    "CEP": "29500-000",
    "telefone": "",
    "email": "",
    "Latitude": -20.758226,
    "Longitude": -41.539209,
    "Numero_professores": 14,
    "Numero_alunos": null
  },
  {
    "Nome_escola": "CEMEI VANOR DO NASCIMENTO",
    "Endereco": "RUA CARLOS CAIADO BARBOSA",
    "Municipio": "Alegre",
    "CEP": "29520-000",
    "telefone": "",
    "email": "",
    "Latitude": -20.758213,
    "Longitude": -41.459038,
    "Numero_professores": 8,
    "Numero_alunos": null
  },
  {
    "Nome_escola": "CIEC JACI KOBBI RODRIGUES",
    "Endereco": "RUA ACACIO DE OLIVEIRA LEAL, 185, 185",
    "Municipio": "Alegre",
    "CEP": "29510-000",
    "telefone": "",
    "email": "",
    "Latitude": -20.768235,
    "Longitude": -41.593888,
    "Numero_professores": 11,
    "Numero_alunos": null
  },
  {
    "Nome_escola": "EMEF ATHAYDES ALVES DE ASSIS",
    "Endereco": "RUA HUGO FURTADO, S N, S N",
    "Municipio": "Alegre",
    "CEP": "29500-000",
    "telefone": "",
    "email": "",
    "Latitude": -20.761955,
    "Longitude": -41.532017,
    "Numero_professores": 7,
    "Numero_alunos": null
  },
  {
    "Nome_escola": "EMEF CARMELITA MACHADO MORAES",
    "Endereco": "PRACA GOVERNADOR JOSE MORAES, S/Nº, SANTA ANGELICA, S/Nº",
    "Municipio": "Alegre",
    "CEP": "29525-000",
    "telefone": "",
    "email": "",
    "Latitude": -20.691426,
    "Longitude": -41.454802,
    "Numero_professores": 5,
    "Numero_alunos": null
  },
  {
    "Nome_escola": "EMEF PROFESSOR LELLIS",
    "Endereco": "RUA BELO AMORIM, 100, 2º ANDAR, 100",
    "Municipio": "Alegre",
    "CEP": "29500-000",
    "telefone": "",
    "email": "",
    "Latitude": -20.757614,
    "Longitude": -41.536628,
    "Numero_professores": 17,
    "Numero_alunos": null
  },
  {
    "Nome_escola": "EMEIF MARIA DO CARMO TIRADENTES",
    "Endereco": "RUA HOMERO MARTINS THIEBAUT, SN, SN",
    "Municipio": "Alegre",
    "CEP": "29515-000",
    "telefone": "",
    "email": "",
    "Latitude": -20.870975,
    "Longitude": -41.572035,
    "Numero_professores": 9,
    "Numero_alunos": null
  },
  {
    "Nome_escola": "EMEIF PROF DOMINGOS BRAVO REINOSO",
    "Endereco": "RUA ANTONIO LEMOS BARBOSA, SN, SN",
    "Municipio": "Alegre",
    "CEP": "29500-000",
    "telefone": "",
    "email": "",
    "Latitude": -20.772027,
    "Longitude": -41.534372,
    "Numero_professores": 19,
    "Numero_alunos": null
  },
  {
    "Nome_escola": "EMEIF RUTH ALICE",
    "Endereco": "RUA JOSE FELIPE DA SILVA, 205, CENTRO, 205",
    "Municipio": "Alegre",
    "CEP": "29500-000",
    "telefone": "",
    "email": "",
    "Latitude": -20.757555,
    "Longitude": -41.536293,
    "Numero_professores": 24,
    "Numero_alunos": null
  },
  {
    "Nome_escola": "EMFA GEORGE ABREU RANGEL",
    "Endereco": "ROSEIRA",
    "Municipio": "Alegre",
    "CEP": "29500-000",
    "telefone": "",
    "email": "",
    "Latitude": -20.872224,
    "Longitude": -41.532259,
    "Numero_professores": 6,
    "Numero_alunos": null
  },
  {
    "Nome_escola": "EMFA ZIOLITA MARIA DA SILVEIRA",
    "Endereco": "ASSENTAMENTO FLORESTA, S/N, S/N",
    "Municipio": "Alegre",
    "CEP": "29500-000",
    "telefone": "",
    "email": "",
    "Latitude": -20.686927,
    "Longitude": -41.580258,
    "Numero_professores": 1,
    "Numero_alunos": null
  },
  {
    "Nome_escola": "EMUEF FAZENDA BOM VER",
    "Endereco": "FAZENDA BOM VER, S/N, ZONA RURAL, S/N",
    "Municipio": "Alegre",
    "CEP": "29500-000",
    "telefone": "",
    "email": "",
    "Latitude": -20.867408,
    "Longitude": -41.483415,
    "Numero_professores": 1,
    "Numero_alunos": null
  },
  {
    "Nome_escola": "EMUEF FELIZ LEMBRANCA",
    "Endereco": "FELIZ LEMBRANCA, ZONA RURAL",
    "Municipio": "Alegre",
    "CEP": "29500-000",
    "telefone": "",
    "email": "",
    "Latitude": -20.795907,
    "Longitude": -41.507832,
    "Numero_professores": 1,
    "Numero_alunos": null
  },
  {
    "Nome_escola": "EMUEF GUIDO MAURI",
    "Endereco": "LAGOA SECA, ZONA RURAL",
    "Municipio": "Alegre",
    "CEP": "29500-000",
    "telefone": "",
    "email": "",
    "Latitude": -20.87287,
    "Longitude": -41.46567,
    "Numero_professores": 1,
    "Numero_alunos": null
  },
  {
    "Nome_escola": "CMEI INFANCIA FELIZ",
    "Endereco": "RUA JOSE VILELA, 98, SAGRADA FAMILIA, SAGRADA FAMILIA, 98",
    "Municipio": "Alfredo Chaves",
    "CEP": "29240-000",
    "telefone": "",
    "email": "",
    "Latitude": -20.579862,
    "Longitude": -40.699147,
    "Numero_professores": 9,
    "Numero_alunos": null
  },
  {
    "Nome_escola": "CMEI JOSE DE ANCHIETA",
    "Endereco": "RUA JOSE ANTONIO BONELLA, 0, LOTEAMENTO, VILLAGIO, 0",
    "Municipio": "Alfredo Chaves",
    "CEP": "29240-000",
    "telefone": "",
    "email": "",
    "Latitude": -20.637262,
    "Longitude": -40.747408,
    "Numero_professores": 16,
    "Numero_alunos": null
  },
  {
    "Nome_escola": "EMEF CELITA BASTOS GARCIA",
    "Endereco": "NOVA MANTUA, SN, NOVA MANTUA, SAO JOAO DE CRUBIXA, SN",
    "Municipio": "Alfredo Chaves",
    "CEP": "29240-000",
    "telefone": "",
    "email": "",
    "Latitude": -20.645202,
    "Longitude": -40.828314,
    "Numero_professores": 8,
    "Numero_alunos": null
  },
  {
    "Nome_escola": "EMEF ENGANO",
    "Endereco": "IBITIRUI, ALFREDO CHAVES-ES, SN, IBITIRUI, IBITIRUI, SN",
    "Municipio": "Alfredo Chaves",
    "CEP": "29240-000",
    "telefone": "",
    "email": "",
    "Latitude": -20.602952,
    "Longitude": -40.861767,
    "Numero_professores": 10,
    "Numero_alunos": null
  },
  {
    "Nome_escola": "EMEI ALGODAO DOCE",
    "Endereco": "VILA NOVA DE MARAVILHA, S/N, ZONA RURAL, S/N",
    "Municipio": "Alfredo Chaves",
    "CEP": "29240-000",
    "telefone": "",
    "email": "",
    "Latitude": -20.613572,
    "Longitude": -40.885157,
    "Numero_professores": 1,
    "Numero_alunos": null
  },
  {
    "Nome_escola": "EMEI ARCO IRIS",
    "Endereco": "NOVA MANTUA, SN, NOVA MANTUA, SN",
    "Municipio": "Alfredo Chaves",
    "CEP": "29240-000",
    "telefone": "",
    "email": "",
    "Latitude": -20.645195,
    "Longitude": -40.828332,
    "Numero_professores": 3,
    "Numero_alunos": null
  },
  {
    "Nome_escola": "EMEI COMECINHO DE GENTE",
    "Endereco": "AVENIDA DARCY DE PAULA GAIGHER, 195, CACHOEIRINHA, 195",
    "Municipio": "Alfredo Chaves",
    "CEP": "29240-000",
    "telefone": "",
    "email": "",
    "Latitude": -20.630249,
    "Longitude": -40.763085,
    "Numero_professores": 11,
    "Numero_alunos": null
  },
  {
    "Nome_escola": "EMEI GENTE MIUDA",
    "Endereco": "RUA PRINCIPAL,S/N,APARECIDA, S/N, APARECIDA, RIBEIRAO DO CRISTO, S/N",
    "Municipio": "Alfredo Chaves",
    "CEP": "29240-000",
    "telefone": "",
    "email": "",
    "Latitude": -20.451139,
    "Longitude": -40.689652,
    "Numero_professores": 3,
    "Numero_alunos": null
  },
  {
    "Nome_escola": "EMEI PEQUENO POLEGAR",
    "Endereco": "IBITIRUI, SN, IBITIRUI, SN",
    "Municipio": "Alfredo Chaves",
    "CEP": "29240-000",
    "telefone": "",
    "email": "",
    "Latitude": -20.601572,
    "Longitude": -40.860007,
    "Numero_professores": 3,
    "Numero_alunos": null
  },
  {
    "Nome_escola": "EMEI PEQUENO PRINCIPE",
    "Endereco": "SAO BENTO DE URANIA, SN, SAO BENTO DE URANIA, SAO BENTO DE URANIA, SN",
    "Municipio": "Alfredo Chaves",
    "CEP": "29246-000",
    "telefone": "",
    "email": "",
    "Latitude": -20.472378,
    "Longitude": -40.919208,
    "Numero_professores": 3,
    "Numero_alunos": null
  },
  {
    "Nome_escola": "EMEI PEQUERRUCHOS",
    "Endereco": "RUA ANTONIO CLAUDIO GAIGHER, 19, PARQUE RESIDENCIAL DE ALFREDO CHAVES, 19",
    "Municipio": "Alfredo Chaves",
    "CEP": "29240-000",
    "telefone": "",
    "email": "",
    "Latitude": -20.640991,
    "Longitude": -40.750537,
    "Numero_professores": 17,
    "Numero_alunos": null
  },
  {
    "Nome_escola": "EMUEF BOA VISTA",
    "Endereco": "BOA VISTA, S/N, ZONA RURAL, S/N",
    "Municipio": "Alfredo Chaves",
    "CEP": "29240-000",
    "telefone": "",
    "email": "",
    "Latitude": -20.667093,
    "Longitude": -40.787871,
    "Numero_professores": 1,
    "Numero_alunos": null
  },
  {
    "Nome_escola": "ESCOLA MUNICIPAL DE EDUCACAO INFANTIL BAMBINO",
    "Endereco": "RUA PRINCIPAL, S/Nº, CRUBIXA, SAO JOAO DE CRUBIXA, S/Nº",
    "Municipio": "Alfredo Chaves",
    "CEP": "29240-000",
    "telefone": "",
    "email": "",
    "Latitude": -20.641718,
    "Longitude": -40.8672,
    "Numero_professores": 4,
    "Numero_alunos": null
  },
  {
    "Nome_escola": "ESCOLA MUNICIPAL DE ENSINO FUNDAMENTAL ANA ARAUJO",
    "Endereco": "RUA EXPEDICIONARIO OSWALDO SAUDINO, 963, CENTRO, CENTRO, 963",
    "Municipio": "Alfredo Chaves",
    "CEP": "29240-000",
    "telefone": "",
    "email": "",
    "Latitude": -20.635165,
    "Longitude": -40.753121,
    "Numero_professores": 42,
    "Numero_alunos": null
  },
  {
    "Nome_escola": "ESCOLA MUNICIPAL DE ENSINO FUNDAMENTAL CRUBIXA",
    "Endereco": "RUA PRINCIPAL, S/Nº, SAO JOAO, SAO JOAO DE CRUBIXA, S/Nº",
    "Municipio": "Alfredo Chaves",
    "CEP": "29240-000",
    "telefone": "",
    "email": "",
    "Latitude": -20.641693,
    "Longitude": -40.867302,
    "Numero_professores": 11,
    "Numero_alunos": null
  },
  {
    "Nome_escola": "ESCOLA MUNICIPAL DE ENSINO FUNDAMENTAL FAZENDA APARECIDA",
    "Endereco": "RUA PRINCIPAL,S/N, APARECIDA, S/N, RIBEIRAO DO CRISTO, RIBEIRAO DO CRISTO, S/N",
    "Municipio": "Alfredo Chaves",
    "CEP": "29240-000",
    "telefone": "",
    "email": "",
    "Latitude": -20.451185,
    "Longitude": -40.689756,
    "Numero_professores": 12,
    "Numero_alunos": null
  },
  {
    "Nome_escola": "ESCOLA MUNICIPAL DE ENSINO FUNDAMENTAL FELIPE MODOLO",
    "Endereco": "AVENIDA JOSE MARIA CAMILETI, SN, MATILDE, SN",
    "Municipio": "Alfredo Chaves",
    "CEP": "29240-000",
    "telefone": "",
    "email": "",
    "Latitude": -20.553932,
    "Longitude": -40.814903,
    "Numero_professores": 13,
    "Numero_alunos": null
  },
  {
    "Nome_escola": "ESCOLA MUNICIPAL DE ENSINO FUNDAMENTAL SAGRADA FAMILIA",
    "Endereco": "RUA AGOSTINHO BRUSCHI, S/Nº, SAGRADA FAMILIA, SAGRADA FAMILIA, S/Nº",
    "Municipio": "Alfredo Chaves",
    "CEP": "29240-000",
    "telefone": "",
    "email": "",
    "Latitude": -20.579273,
    "Longitude": -40.697733,
    "Numero_professores": 11,
    "Numero_alunos": null
  },
  {
    "Nome_escola": "ESCOLA MUNICIPAL DE ENSINO FUNDAMENTAL SAO BENTO DE URANIA",
    "Endereco": "SAO BENTO DE URANIA, SN, SN",
    "Municipio": "Alfredo Chaves",
    "CEP": "29246-000",
    "telefone": "",
    "email": "",
    "Latitude": -20.472328,
    "Longitude": -40.919128,
    "Numero_professores": 10,
    "Numero_alunos": null
  },
  {
    "Nome_escola": "ESCOLA MUNICIPAL DE ENSINO INFANTIL CHAPEUZINHO VERMELHO",
    "Endereco": "AVENIDA JOSE MARIA CAMILETI, SN, MATILDE, SN",
    "Municipio": "Alfredo Chaves",
    "CEP": "29240-000",
    "telefone": "",
    "email": "",
    "Latitude": -20.554077,
    "Longitude": -40.815083,
    "Numero_professores": 5,
    "Numero_alunos": null
  },
  {
    "Nome_escola": "ESCOLA MUNICIPAL UNIDOCENTE DE ENSINO FUNDAMENTAL QUARTO TERRITORIO",
    "Endereco": "QUARTO TERRITORIO, S/N, ZONA RURAL, QUARTO TERRITORIO, S/N",
    "Municipio": "Alfredo Chaves",
    "CEP": "29240-000",
    "telefone": "",
    "email": "",
    "Latitude": -20.65369,
    "Longitude": -40.808792,
    "Numero_professores": 1,
    "Numero_alunos": null
  },
  {
    "Nome_escola": "ESCOLA MUNICIPAL UNIDOCENTE DE ENSINO FUNDAMENTAL SAO MARTINHO",
    "Endereco": "SAO MARTINHO, S/N, ZONA RURAL, RIBEIRAO DO CRISTO, S/N",
    "Municipio": "Alfredo Chaves",
    "CEP": "29240-000",
    "telefone": "",
    "email": "",
    "Latitude": -20.520539,
    "Longitude": -40.777237,
    "Numero_professores": 2,
    "Numero_alunos": null
  },
  {
    "Nome_escola": "ESCOLA MUNICIPAL UNIDOCENTE DE ENSINO FUNDAMENTAL VILA NOVA DE MARAVILHA",
    "Endereco": "VILA NOVA DE MARAVILHA, S/N, ZONA RURAL, MATILDE, S/N",
    "Municipio": "Alfredo Chaves",
    "CEP": "29240-000",
    "telefone": "",
    "email": "",
    "Latitude": -20.587551,
    "Longitude": -40.949321,
    "Numero_professores": 2,
    "Numero_alunos": null
  },
  {
    "Nome_escola": "ESCOLA MUNICIPAL UNIDOCENTE DE ENSINO FUNDAMENTAL VILA NOVA DO RIBEIRAO",
    "Endereco": "VILA NOVA DO RIBEIRAO, S/N, ZONA RURAL, RIBEIRAO DO CRISTO, S/N",
    "Municipio": "Alfredo Chaves",
    "CEP": "29240-000",
    "telefone": "",
    "email": "",
    "Latitude": -20.566553,
    "Longitude": -40.765728,
    "Numero_professores": 1,
    "Numero_alunos": null
  },
  {
    "Nome_escola": "CMEI GILDA AGGUM CAPETTINI",
    "Endereco": "MONTE CARMELO, RUA PROJETADA",
    "Municipio": "Alto Rio Novo",
    "CEP": "29760-000",
    "telefone": "",
    "email": "",
    "Latitude": -19.068479,
    "Longitude": -40.96738,
    "Numero_professores": 1,
    "Numero_alunos": null
  },
  {
    "Nome_escola": "CMEI MARIA VENANCIO AMORIM",
    "Endereco": "RUA PEDRO LUCILIO EVANGELISTA, 08, 08",
    "Municipio": "Alto Rio Novo",
    "CEP": "29760-000",
    "telefone": "",
    "email": "",
    "Latitude": -19.06018,
    "Longitude": -41.02017,
    "Numero_professores": 13,
    "Numero_alunos": null
  },
  {
    "Nome_escola": "EMEF GUSTAVO AMBRUST",
    "Endereco": "RUA MANOEL CLEMENTE BRUM, 84, 84",
    "Municipio": "Alto Rio Novo",
    "CEP": "29760-000",
    "telefone": "",
    "email": "",
    "Latitude": -19.054678,
    "Longitude": -41.014902,
    "Numero_professores": 13,
    "Numero_alunos": null
  },
  {
    "Nome_escola": "EMEFTI PROFESSOR ARTEME LOPES",
    "Endereco": "RUA PEDRO LUCILIO EVANGELISTA, 79, 79",
    "Municipio": "Alto Rio Novo",
    "CEP": "29760-000",
    "telefone": "",
    "email": "",
    "Latitude": -19.060485,
    "Longitude": -41.02139,
    "Numero_professores": 8,
    "Numero_alunos": null
  },
  {
    "Nome_escola": "EMEI ARMEZINA DO AMARAL RAMOS",
    "Endereco": "RUA MANOEL CLEMENTE BRUM, 45, SANTA BRBARA, 45",
    "Municipio": "Alto Rio Novo",
    "CEP": "29760-000",
    "telefone": "",
    "email": "",
    "Latitude": -19.059491,
    "Longitude": -41.016121,
    "Numero_professores": 5,
    "Numero_alunos": null
  },
  {
    "Nome_escola": "EMEIEF VEREADOR RUBENS RAMIRO DA SILVA",
    "Endereco": "RUA LAURENTINO FRANCISCO DE PAULA, DISTRITO MC",
    "Municipio": "Alto Rio Novo",
    "CEP": "29760-000",
    "telefone": "",
    "email": "",
    "Latitude": -19.069299,
    "Longitude": -40.969037,
    "Numero_professores": 6,
    "Numero_alunos": null
  },
  {
    "Nome_escola": "EMEIEFTI PROFª MARIA RODRIGUES DE FREITAS",
    "Endereco": "RUA JOSE SOUZA NUNES, S/Nº, ESCOLA, S/Nº",
    "Municipio": "Alto Rio Novo",
    "CEP": "29760-000",
    "telefone": "",
    "email": "",
    "Latitude": -18.957387,
    "Longitude": -40.974401,
    "Numero_professores": 7,
    "Numero_alunos": null
  },
  {
    "Nome_escola": "EPMEIEF ALTO CAPIM",
    "Endereco": "CORREGO ALTO CAPIM",
    "Municipio": "Alto Rio Novo",
    "CEP": "29760-000",
    "telefone": "",
    "email": "",
    "Latitude": -18.957631,
    "Longitude": -41.034152,
    "Numero_professores": 3,
    "Numero_alunos": null
  },
  {
    "Nome_escola": "EPMEIEF CORREGO SAO PAULO",
    "Endereco": "CORREGO SAO PAULO",
    "Municipio": "Alto Rio Novo",
    "CEP": "29760-000",
    "telefone": "",
    "email": "",
    "Latitude": -19.031697,
    "Longitude": -41.032066,
    "Numero_professores": 2,
    "Numero_alunos": null
  },
  {
    "Nome_escola": "CEMEI SARA ALMEIDA LIMA",
    "Endereco": "RUA ESPIRITO SANTO",
    "Municipio": "Anchieta",
    "CEP": "29230-000",
    "telefone": "",
    "email": "",
    "Latitude": -20.795177,
    "Longitude": -40.60243,
    "Numero_professores": 21,
    "Numero_alunos": null
  },
  {
    "Nome_escola": "CMEI BELMIRO ALBERTO ALPOIM",
    "Endereco": "RUA DIOGENES COSTA, SN, PREDIO, IRIRI, SN",
    "Municipio": "Anchieta",
    "CEP": "29230-000",
    "telefone": "",
    "email": "",
    "Latitude": -20.829419,
    "Longitude": -40.692702,
    "Numero_professores": 21,
    "Numero_alunos": null
  },
  {
    "Nome_escola": "CMEI ENIDE CORREA GUAITOLINI",
    "Endereco": "RUA HELENA MEDEIROS, S/Nº, S/Nº",
    "Municipio": "Anchieta",
    "CEP": "29230-000",
    "telefone": "",
    "email": "",
    "Latitude": -20.764385,
    "Longitude": -40.575303,
    "Numero_professores": 21,
    "Numero_alunos": null
  },
  {
    "Nome_escola": "CMEI PADRE JOSE DE ANCHIETA",
    "Endereco": "RUA SERGIO CORREA DE JESUS, 84, NOVA JERUSALEM, 84",
    "Municipio": "Anchieta",
    "CEP": "29230-000",
    "telefone": "",
    "email": "",
    "Latitude": -20.79336,
    "Longitude": -40.636661,
    "Numero_professores": 30,
    "Numero_alunos": null
  },
  {
    "Nome_escola": "EMEB ALCIDES CECCON",
    "Endereco": "RUA ACACIO OLIVEIRA, 132/144, PRAIA DOS CASTELHANOS, 132/144",
    "Municipio": "Anchieta",
    "CEP": "29230-000",
    "telefone": "",
    "email": "",
    "Latitude": -20.830784,
    "Longitude": -40.621894,
    "Numero_professores": 18,
    "Numero_alunos": null
  },
  {
    "Nome_escola": "EMEB AMARILIS FERNANDES GARCIA",
    "Endereco": "AV. RAUTA, 1257, ALVORADA, 1257",
    "Municipio": "Anchieta",
    "CEP": "29230-000",
    "telefone": "",
    "email": "",
    "Latitude": -20.808381,
    "Longitude": -40.638769,
    "Numero_professores": 58,
    "Numero_alunos": null
  },
  {
    "Nome_escola": "EMEB DUAS BARRAS",
    "Endereco": "ESTRADA DE SAO MIGUEL, S/N, DUAS BARRAS, S/N",
    "Municipio": "Anchieta",
    "CEP": "29230-000",
    "telefone": "",
    "email": "",
    "Latitude": -20.6251,
    "Longitude": -40.660903,
    "Numero_professores": 15,
    "Numero_alunos": null
  },
  {
    "Nome_escola": "EMEB DULCINEA SILVA LYRIO RUPF",
    "Endereco": "RUA SAO VICENTE, S/N, CASA, PONTA DOS CASTELHANOS, S/N",
    "Municipio": "Anchieta",
    "CEP": "29230-000",
    "telefone": "",
    "email": "",
    "Latitude": -20.81346,
    "Longitude": -40.634023,
    "Numero_professores": 16,
    "Numero_alunos": null
  },
  {
    "Nome_escola": "EMEB JOSEFINA RAMOS NUNES - DONA MULATA",
    "Endereco": "RODOVIA DO SOL - Nº 7.139 - BLOCO 01, Nº 7.139, ESCOLA, NOVO HORIZONTE, Nº 7.139",
    "Municipio": "Anchieta",
    "CEP": "29230-000",
    "telefone": "",
    "email": "",
    "Latitude": -20.807296,
    "Longitude": -40.661696,
    "Numero_professores": 33,
    "Numero_alunos": null
  },
  {
    "Nome_escola": "EMEB LIMEIRA",
    "Endereco": "RUA PROJETADA, S/Nº, LIMEIRA, S/Nº",
    "Municipio": "Anchieta",
    "CEP": "29230-000",
    "telefone": "",
    "email": "",
    "Latitude": -20.696373,
    "Longitude": -40.677376,
    "Numero_professores": 13,
    "Numero_alunos": null
  },
  {
    "Nome_escola": "EMEB MARIANA DA PURIFICACAO SIMOES",
    "Endereco": "ZONA RURAL, S/Nº, BELO HORIZONTE, S/Nº",
    "Municipio": "Anchieta",
    "CEP": "29230-000",
    "telefone": "",
    "email": "",
    "Latitude": -20.74175,
    "Longitude": -40.609346,
    "Numero_professores": 5,
    "Numero_alunos": null
  },
  {
    "Nome_escola": "EMEB PROFESSORA PATRICIA FERNANDES ROFFES",
    "Endereco": "RUA DAS GABIROBAS, 84, NOVA ESPERANCA, 84",
    "Municipio": "Anchieta",
    "CEP": "29230-000",
    "telefone": "",
    "email": "",
    "Latitude": -20.800075,
    "Longitude": -40.641981,
    "Numero_professores": 34,
    "Numero_alunos": null
  },
  {
    "Nome_escola": "EMEB TIA MARLENE PETRI",
    "Endereco": "AVENIDA VIRGILIO LORENCINI, S/Nº, ZONA RURAL, S/Nº",
    "Municipio": "Anchieta",
    "CEP": "29230-000",
    "telefone": "",
    "email": "",
    "Latitude": -20.730309,
    "Longitude": -40.777567,
    "Numero_professores": 15,
    "Numero_alunos": null
  },
  {
    "Nome_escola": "EMEF IRMA TEREZINHA GODOY DE ALMEIDA",
    "Endereco": "AVENIDA VER. PIO SALARINI, S/N, JUSTICA, S/N",
    "Municipio": "Anchieta",
    "CEP": "29230-000",
    "telefone": "",
    "email": "",
    "Latitude": -20.804679,
    "Longitude": -40.651957,
    "Numero_professores": 37,
    "Numero_alunos": null
  },
  {
    "Nome_escola": "EMEF MANOEL DE PAULA SERRAO",
    "Endereco": "RUA JOSE WALDIR TROTTA, 355, IRIRI, 355",
    "Municipio": "Anchieta",
    "CEP": "29230-000",
    "telefone": "",
    "email": "",
    "Latitude": -20.830277,
    "Longitude": -40.694454,
    "Numero_professores": 34,
    "Numero_alunos": null
  },
  {
    "Nome_escola": "EMEF OLIVANIA",
    "Endereco": "ZONA RURAL, S/Nº, OLIVANIA, S/Nº",
    "Municipio": "Anchieta",
    "CEP": "29230-000",
    "telefone": "",
    "email": "",
    "Latitude": -20.580922,
    "Longitude": -40.648387,
    "Numero_professores": 4,
    "Numero_alunos": null
  },
  {
    "Nome_escola": "EMEF PROFESSOR TIO LILIU",
    "Endereco": "PRACA DA BANDEIRA, 115, PROXIMO AO SANTUARIO, 115",
    "Municipio": "Anchieta",
    "CEP": "29230-000",
    "telefone": "",
    "email": "",
    "Latitude": -20.804742,
    "Longitude": -40.65366,
    "Numero_professores": 22,
    "Numero_alunos": null
  },
  {
    "Nome_escola": "EMEIEF ALIPIO PORTO DA SILVA",
    "Endereco": "ZONA RURAL, S/Nº, EMBOACICA, S/Nº",
    "Municipio": "Anchieta",
    "CEP": "29230-000",
    "telefone": "",
    "email": "",
    "Latitude": -20.746573,
    "Longitude": -40.709864,
    "Numero_professores": 3,
    "Numero_alunos": null
  },
  {
    "Nome_escola": "EMEIEF CORREGO DA PRATA",
    "Endereco": "ZONA RURAL, S/Nº, CORREGO DA PRATA, S/Nº",
    "Municipio": "Anchieta",
    "CEP": "29230-000",
    "telefone": "",
    "email": "",
    "Latitude": -20.740156,
    "Longitude": -40.787892,
    "Numero_professores": 7,
    "Numero_alunos": null
  },
  {
    "Nome_escola": "EMEIEF ELSON GARCIA",
    "Endereco": "RUA JOSE RIBEIRO MUQUI, 627, ESCOLA, UBU, 627",
    "Municipio": "Anchieta",
    "CEP": "29230-000",
    "telefone": "",
    "email": "",
    "Latitude": -20.801431,
    "Longitude": -40.588852,
    "Numero_professores": 25,
    "Numero_alunos": null
  },
  {
    "Nome_escola": "EMEIEF ESMERALDA MORACA",
    "Endereco": "RUA DA CURVINA, 84, 84",
    "Municipio": "Anchieta",
    "CEP": "29230-000",
    "telefone": "",
    "email": "",
    "Latitude": -20.818344,
    "Longitude": -40.623869,
    "Numero_professores": 12,
    "Numero_alunos": null
  },
  {
    "Nome_escola": "EMEIEF ESTHER SOARES DA TRINDADE SANTANA",
    "Endereco": "RUA MANOEL MIRANDA GARCIA, SN, PARATI, SN",
    "Municipio": "Anchieta",
    "CEP": "29230-000",
    "telefone": "",
    "email": "",
    "Latitude": -20.804401,
    "Longitude": -40.600536,
    "Numero_professores": 8,
    "Numero_alunos": null
  },
  {
    "Nome_escola": "EMEIEF GOEMBE",
    "Endereco": "ZONA RURAL, S/Nº, GOEMBE, S/Nº",
    "Municipio": "Anchieta",
    "CEP": "29230-000",
    "telefone": "",
    "email": "",
    "Latitude": -20.717665,
    "Longitude": -40.610855,
    "Numero_professores": 6,
    "Numero_alunos": null
  },
  {
    "Nome_escola": "EMEIEF ITAJOBAIA",
    "Endereco": "ZONA RURAL, S/Nº, ITAJOBAIA, S/Nº",
    "Municipio": "Anchieta",
    "CEP": "29230-000",
    "telefone": "",
    "email": "",
    "Latitude": -20.683131,
    "Longitude": -40.628926,
    "Numero_professores": 4,
    "Numero_alunos": null
  },
  {
    "Nome_escola": "EMEIEF ITAPEROROMA BAIXA",
    "Endereco": "ZONA RURAL, S/Nº, ITAPEROROMA BAIXA, S/Nº",
    "Municipio": "Anchieta",
    "CEP": "29230-000",
    "telefone": "",
    "email": "",
    "Latitude": -20.765361,
    "Longitude": -40.759887,
    "Numero_professores": 5,
    "Numero_alunos": null
  },
  {
    "Nome_escola": "EMEIEF LAUROMAR POMPERMAYER PORTO",
    "Endereco": "ZONA RURAL, S/Nº, ITAPEUNA, S/Nº",
    "Municipio": "Anchieta",
    "CEP": "29230-000",
    "telefone": "",
    "email": "",
    "Latitude": -20.777597,
    "Longitude": -40.702125,
    "Numero_professores": 6,
    "Numero_alunos": null
  },
  {
    "Nome_escola": "EMEIEF PROFESSORA ADY LYRIO MARCHEZI",
    "Endereco": "ZONA RURAL, S/Nº, DOIS IRMAOS, S/Nº",
    "Municipio": "Anchieta",
    "CEP": "29230-000",
    "telefone": "",
    "email": "",
    "Latitude": -20.70706,
    "Longitude": -40.75907,
    "Numero_professores": 4,
    "Numero_alunos": null
  },
  {
    "Nome_escola": "EMEIEF PROFESSORA EDMA MARIA MEZADRE MULINARI",
    "Endereco": "RUA PROJETADA, S/Nº, ZONA RURAL, S/Nº",
    "Municipio": "Anchieta",
    "CEP": "29230-000",
    "telefone": "",
    "email": "",
    "Latitude": -20.777988,
    "Longitude": -40.743964,
    "Numero_professores": 13,
    "Numero_alunos": null
  },
  {
    "Nome_escola": "EMEIEF PROFESSORA GENELICE DOS REIS RAMOS HERMES",
    "Endereco": "RUA BAHIA, S/Nº, RECANTO DO SOL, S/Nº",
    "Municipio": "Anchieta",
    "CEP": "29230-000",
    "telefone": "",
    "email": "",
    "Latitude": -20.794995,
    "Longitude": -40.603021,
    "Numero_professores": 8,
    "Numero_alunos": null
  },
  {
    "Nome_escola": "EMEIEF PROFESSORA JOCELINA NOGUEIRA",
    "Endereco": "RUA PAULO DINIZ, 201, ALVORADA, 201",
    "Municipio": "Anchieta",
    "CEP": "29230-000",
    "telefone": "",
    "email": "",
    "Latitude": -20.807297,
    "Longitude": -40.639776,
    "Numero_professores": 35,
    "Numero_alunos": null
  },
  {
    "Nome_escola": "EMEIEF PROFESSORA MARIA LUIZA FLORES",
    "Endereco": "RUA JOSE FREIRE NETO, S/N.º, PREDIO, MAE-BA, S/N.º",
    "Municipio": "Anchieta",
    "CEP": "29230-000",
    "telefone": "",
    "email": "",
    "Latitude": -20.764013,
    "Longitude": -40.575295,
    "Numero_professores": 23,
    "Numero_alunos": null
  },
  {
    "Nome_escola": "EMEIEF ROSALINO SIMOES",
    "Endereco": "ZONA RURAL, S/Nº, CHAPADA DO A, S/Nº",
    "Municipio": "Anchieta",
    "CEP": "29230-000",
    "telefone": "",
    "email": "",
    "Latitude": -20.76783,
    "Longitude": -40.630634,
    "Numero_professores": 6,
    "Numero_alunos": null
  },
  {
    "Nome_escola": "EMEIEF SAO MATEUS",
    "Endereco": "ZONA RURAL, S/Nº, SAO MATEUS, S/Nº",
    "Municipio": "Anchieta",
    "CEP": "29230-000",
    "telefone": "",
    "email": "",
    "Latitude": -20.764226,
    "Longitude": -40.727766,
    "Numero_professores": 6,
    "Numero_alunos": null
  },
  {
    "Nome_escola": "EMEIEF SIMPATIA",
    "Endereco": "AVENIDA ANTERINO SILVA, S/N, SIMPATIA, SIMPATIA, S/N",
    "Municipio": "Anchieta",
    "CEP": "29230-000",
    "telefone": "",
    "email": "",
    "Latitude": -20.715954,
    "Longitude": -40.714921,
    "Numero_professores": 11,
    "Numero_alunos": null
  },
  {
    "Nome_escola": "EMEIEFM PROFª ZULEIKA FLORES DA PURIFICACAO",
    "Endereco": "RUA BEIRA CAMPO, SN, AO LADO DO CAMPO, JABAQUARA, SN",
    "Municipio": "Anchieta",
    "CEP": "29230-000",
    "telefone": "",
    "email": "",
    "Latitude": -20.696478,
    "Longitude": -40.677443,
    "Numero_professores": 14,
    "Numero_alunos": null
  },
  {
    "Nome_escola": "CMEI CASINHA FELIZ",
    "Endereco": "JADER PINTO, 21, 21",
    "Municipio": "Apiacá",
    "CEP": "29450-000",
    "telefone": "",
    "email": "",
    "Latitude": -21.158846,
    "Longitude": -41.565037,
    "Numero_professores": 6,
    "Numero_alunos": null
  },
  {
    "Nome_escola": "CMEI TIA JOANY MIRANDA",
    "Endereco": "RUA JOSE MONTEIRO, SN, SN",
    "Municipio": "Apiacá",
    "CEP": "29450-000",
    "telefone": "",
    "email": "",
    "Latitude": -21.154386,
    "Longitude": -41.567707,
    "Numero_professores": 15,
    "Numero_alunos": null
  },
  {
    "Nome_escola": "EM BONSUCESSO",
    "Endereco": "RUA JOSE PUPPIN",
    "Municipio": "Apiacá",
    "CEP": "29450-000",
    "telefone": "",
    "email": "",
    "Latitude": -20.981949,
    "Longitude": -41.559849,
    "Numero_professores": 14,
    "Numero_alunos": null
  },
  {
    "Nome_escola": "EM MARIA DE LOURDES ALVES",
    "Endereco": "RUA OLIMPIO CORREA DE MIRANDA, S/N, S/N",
    "Municipio": "Apiacá",
    "CEP": "29450-000",
    "telefone": "",
    "email": "",
    "Latitude": -21.152037,
    "Longitude": -41.569333,
    "Numero_professores": 32,
    "Numero_alunos": null
  },
  {
    "Nome_escola": "EM SANTA FE",
    "Endereco": "FAZENDA SANTA FE",
    "Municipio": "Apiacá",
    "CEP": "29450-000",
    "telefone": "",
    "email": "",
    "Latitude": -21.053349,
    "Longitude": -41.551787,
    "Numero_professores": 5,
    "Numero_alunos": null
  },
  {
    "Nome_escola": "EM WALDIR MONTEIRO DE BARROS",
    "Endereco": "BATATAL, FAZENDA SAO PEDRO",
    "Municipio": "Apiacá",
    "CEP": "29450-000",
    "telefone": "",
    "email": "",
    "Latitude": -21.022911,
    "Longitude": -41.570545,
    "Numero_professores": 16,
    "Numero_alunos": null
  },
  {
    "Nome_escola": "CENTRO MUNICIPAL DE EDUCACAO INFANTIL - CMEI PEQUENO PRINCIPE",
    "Endereco": "ZACARIAS DOS SANTOS, S/Nº, SAO JOSE, S/Nº",
    "Municipio": "Aracruz",
    "CEP": "29196-219",
    "telefone": "",
    "email": "",
    "Latitude": -19.599076,
    "Longitude": -40.19972,
    "Numero_professores": 13,
    "Numero_alunos": null
  },
  {
    "Nome_escola": "CENTRO MUNICIPAL DE EDUCACAO INFANTIL CRIANCA FELIZ",
    "Endereco": "VALDIR FORECHI, SN, NOVO JEQUITIBA, SN",
    "Municipio": "Aracruz",
    "CEP": "29193-210",
    "telefone": "",
    "email": "",
    "Latitude": -19.829482,
    "Longitude": -40.280431,
    "Numero_professores": 12,
    "Numero_alunos": null
  },
  {
    "Nome_escola": "CENTRO MUNICIPAL DE EDUCACAO INFANTIL MAE AURELIA",
    "Endereco": "MANOEL FELIPE, S/Nº, PREDIO, VILA DO RIACHO, S/Nº",
    "Municipio": "Aracruz",
    "CEP": "29197-314",
    "telefone": "",
    "email": "",
    "Latitude": -19.74645,
    "Longitude": -40.047033,
    "Numero_professores": 20,
    "Numero_alunos": null
  },
  {
    "Nome_escola": "CMEBTI ESTHER NASCIMENTO DOS SANTOS",
    "Endereco": "RURAL, SN, BAIRRO, AREA RURAL DE ARACRUZ, SN",
    "Municipio": "Aracruz",
    "CEP": "29199-899",
    "telefone": "",
    "email": "",
    "Latitude": -19.928908,
    "Longitude": -40.282168,
    "Numero_professores": 24,
    "Numero_alunos": null
  },
  {
    "Nome_escola": "CMEI ABILIO CORREIA DE AMORIM",
    "Endereco": "PRIMULA, 328, PROXIMO A PADARIA, SÃO MARCOS, 328",
    "Municipio": "Aracruz",
    "CEP": "29190-736",
    "telefone": "",
    "email": "",
    "Latitude": -19.799983,
    "Longitude": -40.27475,
    "Numero_professores": 18,
    "Numero_alunos": null
  },
  {
    "Nome_escola": "CMEI AMALIA COUTINHO",
    "Endereco": "LUIZ CARIACICA DOS SANTOS, 1950, PREDIO, BARRA DO RIACHO, 1950",
    "Municipio": "Aracruz",
    "CEP": "29197-562",
    "telefone": "",
    "email": "",
    "Latitude": -19.825792,
    "Longitude": -40.061607,
    "Numero_professores": 10,
    "Numero_alunos": null
  },
  {
    "Nome_escola": "CMEI BALAO MAGICO",
    "Endereco": "DOS COQUEIROS, 22, ESCOLA, COQUEIRAL, 22",
    "Municipio": "Aracruz",
    "CEP": "29199-054",
    "telefone": "",
    "email": "",
    "Latitude": -19.931162,
    "Longitude": -40.148187,
    "Numero_professores": 12,
    "Numero_alunos": null
  },
  {
    "Nome_escola": "CMEI CHAPEUZINHO VERMELHO",
    "Endereco": "GENERAL ARISTIDES GUARANA, 123, CENTRO, 123",
    "Municipio": "Aracruz",
    "CEP": "29190-050",
    "telefone": "",
    "email": "",
    "Latitude": -19.821329,
    "Longitude": -40.27134,
    "Numero_professores": 9,
    "Numero_alunos": null
  },
  {
    "Nome_escola": "CMEI CINDERELA",
    "Endereco": "AUGUSTO FERREIRA LAMEGO, SN, GUANABARA, SN",
    "Municipio": "Aracruz",
    "CEP": "29194-254",
    "telefone": "",
    "email": "",
    "Latitude": -19.80918,
    "Longitude": -40.27791,
    "Numero_professores": 24,
    "Numero_alunos": null
  },
  {
    "Nome_escola": "CMEI CRESCER",
    "Endereco": "RIO BOM JESUS, 662, FATIMA, 662",
    "Municipio": "Aracruz",
    "CEP": "29192-213",
    "telefone": "",
    "email": "",
    "Latitude": -19.834013,
    "Longitude": -40.265167,
    "Numero_professores": 21,
    "Numero_alunos": null
  },
  {
    "Nome_escola": "CMEI DONATILA COUTINHO",
    "Endereco": "PRAIA DE PAJUCARA, 86, BARRA DO SAHY, 86",
    "Municipio": "Aracruz",
    "CEP": "29198-156",
    "telefone": "",
    "email": "",
    "Latitude": -19.873872,
    "Longitude": -40.08544,
    "Numero_professores": 13,
    "Numero_alunos": null
  },
  {
    "Nome_escola": "CMEI EPIFANIO PONTIN",
    "Endereco": "NAPOLEAO NUNES RIBEIRO DOS SANTOS, S/N, CENTRO, S/N",
    "Municipio": "Aracruz",
    "CEP": "29190-240",
    "telefone": "",
    "email": "",
    "Latitude": -19.81844,
    "Longitude": -40.270874,
    "Numero_professores": 23,
    "Numero_alunos": null
  },
  {
    "Nome_escola": "CMEI FRANCISCA ROCHA RIBEIRO",
    "Endereco": "SILVESTRE BAIOCO, 315, JACUPEMBA, 315",
    "Municipio": "Aracruz",
    "CEP": "29196-131",
    "telefone": "",
    "email": "",
    "Latitude": -19.583155,
    "Longitude": -40.194272,
    "Numero_professores": 17,
    "Numero_alunos": null
  },
  {
    "Nome_escola": "CMEI MARILIA REZENDE SCARTON COUTINHO",
    "Endereco": "CELESTE SCARPARTTI, S/N, ESCOLA, JEQUITIBÁ, S/N",
    "Municipio": "Aracruz",
    "CEP": "29193-145",
    "telefone": "",
    "email": "",
    "Latitude": -19.828124,
    "Longitude": -40.276204,
    "Numero_professores": 10,
    "Numero_alunos": null
  },
  {
    "Nome_escola": "CMEI NARIZINHO",
    "Endereco": "PRESIDENTE GETULIO VARGAS, 16, BELA VISTA, 16",
    "Municipio": "Aracruz",
    "CEP": "29192-024",
    "telefone": "",
    "email": "",
    "Latitude": -19.833432,
    "Longitude": -40.269935,
    "Numero_professores": 16,
    "Numero_alunos": null
  },
  {
    "Nome_escola": "CMEI NOVA COLATINA",
    "Endereco": "LUIZ ROSSATO, 6170, JACUPEMBA, 6170",
    "Municipio": "Aracruz",
    "CEP": "29196-085",
    "telefone": "",
    "email": "",
    "Latitude": -19.576373,
    "Longitude": -40.186907,
    "Numero_professores": 12,
    "Numero_alunos": null
  },
  {
    "Nome_escola": "CMEI NOVO IRAJA",
    "Endereco": "RURAL, S/Nº, ESCOLA, AREA RURAL DE ARACRUZ, S/Nº",
    "Municipio": "Aracruz",
    "CEP": "29199-899",
    "telefone": "",
    "email": "",
    "Latitude": -19.90308,
    "Longitude": -40.232982,
    "Numero_professores": 7,
    "Numero_alunos": null
  },
  {
    "Nome_escola": "CMEI PEQUENO APRENDIZ",
    "Endereco": "MOROBA, S/N, MOROBA, S/N",
    "Municipio": "Aracruz",
    "CEP": "29192-733",
    "telefone": "",
    "email": "",
    "Latitude": -19.824344,
    "Longitude": -40.26021,
    "Numero_professores": 13,
    "Numero_alunos": null
  },
  {
    "Nome_escola": "CMEI PROFESSORA MARIA JOSE GHIDETTI ROCHA",
    "Endereco": "GIOVANI MODENESI, JEQUITIBÁ",
    "Municipio": "Aracruz",
    "CEP": "29193-045",
    "telefone": "",
    "email": "",
    "Latitude": -19.831049,
    "Longitude": -40.273742,
    "Numero_professores": 19,
    "Numero_alunos": null
  },
  {
    "Nome_escola": "CMEI SETE ANOES",
    "Endereco": "VALENTIM MORO, 29, VILA NOVA, 29",
    "Municipio": "Aracruz",
    "CEP": "29194-539",
    "telefone": "",
    "email": "",
    "Latitude": -19.812661,
    "Longitude": -40.270663,
    "Numero_professores": 10,
    "Numero_alunos": null
  },
  {
    "Nome_escola": "CMEI TERESINHA FRIGINI",
    "Endereco": "ERNANDES SPINASSE, S/Nº, GUARANÁ, S/Nº",
    "Municipio": "Aracruz",
    "CEP": "29195-491",
    "telefone": "",
    "email": "",
    "Latitude": -19.83061,
    "Longitude": -40.278935,
    "Numero_professores": 18,
    "Numero_alunos": null
  },
  {
    "Nome_escola": "CMEI TIA ANASTACIA",
    "Endereco": "COSMORAMA, SN, SANTA CRUZ, SN",
    "Municipio": "Aracruz",
    "CEP": "29199-514",
    "telefone": "",
    "email": "",
    "Latitude": -19.960702,
    "Longitude": -40.162246,
    "Numero_professores": 10,
    "Numero_alunos": null
  },
  {
    "Nome_escola": "CMEI VERA LUCIA DEVENS RABELLO",
    "Endereco": "OLINTO DO NASCIMENTO, 170, PROXIMO DA PADARIA, VILA RICA, 170",
    "Municipio": "Aracruz",
    "CEP": "29194-159",
    "telefone": "",
    "email": "",
    "Latitude": -19.81817,
    "Longitude": -40.278391,
    "Numero_professores": 12,
    "Numero_alunos": null
  },
  {
    "Nome_escola": "CMEI VOVO JANDIRA",
    "Endereco": "JOSE COUTINHO DA CONCEICAO, 1530, BARRA DO RIACHO, 1530",
    "Municipio": "Aracruz",
    "CEP": "29197-548",
    "telefone": "",
    "email": "",
    "Latitude": -19.82596,
    "Longitude": -40.060243,
    "Numero_professores": 11,
    "Numero_alunos": null
  },
  {
    "Nome_escola": "CMEII CAEIRAS VELHA",
    "Endereco": "RURAL, S/Nº, ALDEIA, ÁREA RURAL DE ARACRUZ, S/Nº",
    "Municipio": "Aracruz",
    "CEP": "29199-899",
    "telefone": "",
    "email": "",
    "Latitude": -19.922682,
    "Longitude": -40.173696,
    "Numero_professores": 10,
    "Numero_alunos": null
  },
  {
    "Nome_escola": "CMEITI NOVA ESPERANCA",
    "Endereco": "RUA SAO BENEDITO, 391, S/Nº, LOCALIZACAO RURAL, VILA DO RIACHO, S/Nº",
    "Municipio": "Aracruz",
    "CEP": "29197-972",
    "telefone": "",
    "email": "",
    "Latitude": -19.746092,
    "Longitude": -40.046932,
    "Numero_professores": 4,
    "Numero_alunos": null
  },
  {
    "Nome_escola": "EMEF ALVARO SOUZA",
    "Endereco": "MANOEL FELIPE, S/N, VILA DO RIACHO, S/N",
    "Municipio": "Aracruz",
    "CEP": "29197-314",
    "telefone": "",
    "email": "",
    "Latitude": -19.746224,
    "Longitude": -40.046683,
    "Numero_professores": 27,
    "Numero_alunos": null
  },
  {
    "Nome_escola": "EMEF COQUEIRAL",
    "Endereco": "DAS PALMEIRAS, SN, COQUEIRAL, SN",
    "Municipio": "Aracruz",
    "CEP": "29199-135",
    "telefone": "",
    "email": "",
    "Latitude": -19.928093,
    "Longitude": -40.139563,
    "Numero_professores": 14,
    "Numero_alunos": null
  },
  {
    "Nome_escola": "EMEF EZEQUIEL FRAGA ROCHA",
    "Endereco": "DURVAL BARCELLOS RANGEL, 172, BELA VISTA, 172",
    "Municipio": "Aracruz",
    "CEP": "29192-088",
    "telefone": "",
    "email": "",
    "Latitude": -19.837259,
    "Longitude": -40.269388,
    "Numero_professores": 35,
    "Numero_alunos": null
  },
  {
    "Nome_escola": "EMEF INDIGENA CAEIRA VELHA",
    "Endereco": "RURAL, ALDEIA, AREA RURAL DE ARACRUZ",
    "Municipio": "Aracruz",
    "CEP": "29199-899",
    "telefone": "",
    "email": "",
    "Latitude": -19.919275,
    "Longitude": -40.171752,
    "Numero_professores": 25,
    "Numero_alunos": null
  },
  {
    "Nome_escola": "EMEF INDIGENA YBYRAPYTANGA",
    "Endereco": "PAU BRASIL, S/N, ALDEIA PAU BRASIL, BARRA DO RIACHO, S/N",
    "Municipio": "Aracruz",
    "CEP": "29197-670",
    "telefone": "",
    "email": "",
    "Latitude": -19.85308,
    "Longitude": -40.1308,
    "Numero_professores": 9,
    "Numero_alunos": null
  },
  {
    "Nome_escola": "EMEF JOSE MAMBRINI",
    "Endereco": "ANTONIO ARAUJO, 100, PREDIO, SAO JOSE, 100",
    "Municipio": "Aracruz",
    "CEP": "29196-223",
    "telefone": "",
    "email": "",
    "Latitude": -19.599085,
    "Longitude": -40.199853,
    "Numero_professores": 15,
    "Numero_alunos": null
  },
  {
    "Nome_escola": "EMEF JOSE MARCOS RAMPINELLI",
    "Endereco": "PRESIDENTE GETULIO VARGAS, 15, AO LADO DA PRACA, BELA VISTA, 15",
    "Municipio": "Aracruz",
    "CEP": "29192-024",
    "telefone": "",
    "email": "",
    "Latitude": -19.833051,
    "Longitude": -40.270014,
    "Numero_professores": 26,
    "Numero_alunos": null
  },
  {
    "Nome_escola": "EMEF LUIZA SILVINA JARDIM REBUZZI",
    "Endereco": "AMERICO ANTONIO CREVELIN, 370, ESCOLA, JEQUITIBÁ, 370",
    "Municipio": "Aracruz",
    "CEP": "29193-010",
    "telefone": "",
    "email": "",
    "Latitude": -19.830085,
    "Longitude": -40.279462,
    "Numero_professores": 36,
    "Numero_alunos": null
  },
  {
    "Nome_escola": "EMEF MARECHAL COSTA E SILVA",
    "Endereco": "PADRE LUIZ PARENZI, 93, CENTRO, 93",
    "Municipio": "Aracruz",
    "CEP": "29190-058",
    "telefone": "",
    "email": "",
    "Latitude": -19.81858,
    "Longitude": -40.280005,
    "Numero_professores": 10,
    "Numero_alunos": null
  },
  {
    "Nome_escola": "EMEF MARIO LEAL SILVA",
    "Endereco": "ANTONIO DETTOGNI, ESCOLA, GUARANA",
    "Municipio": "Aracruz",
    "CEP": "29195-480",
    "telefone": "",
    "email": "",
    "Latitude": -19.679341,
    "Longitude": -40.25874,
    "Numero_professores": 20,
    "Numero_alunos": null
  },
  {
    "Nome_escola": "EMEF NOVA SANTA CRUZ",
    "Endereco": "FERNANDOPOLIS, ESCOLA, SANTA CRUZ",
    "Municipio": "Aracruz",
    "CEP": "29199-519",
    "telefone": "",
    "email": "",
    "Latitude": -19.960702,
    "Longitude": -40.16083,
    "Numero_professores": 10,
    "Numero_alunos": null
  },
  {
    "Nome_escola": "EMEF NOVO IRAJA",
    "Endereco": "RURAL, AV.DOS MANGUEZAIS, AREA RURAL DE ARACRUZ",
    "Municipio": "Aracruz",
    "CEP": "29199-899",
    "telefone": "",
    "email": "",
    "Latitude": -19.903264,
    "Longitude": -40.233152,
    "Numero_professores": 11,
    "Numero_alunos": null
  },
  {
    "Nome_escola": "EMEF PAULO FREIRE",
    "Endereco": "MARGARIDA, 32, SAO MARCOS, 32",
    "Municipio": "Aracruz",
    "CEP": "29190-757",
    "telefone": "",
    "email": "",
    "Latitude": -19.803726,
    "Longitude": -40.273878,
    "Numero_professores": 41,
    "Numero_alunos": null
  },
  {
    "Nome_escola": "EMEF PLACIDINO PASSOS",
    "Endereco": "LEOPOLDO BARCELLOS RANGEL, 113, POLIVALENTE, 113",
    "Municipio": "Aracruz",
    "CEP": "29190-400",
    "telefone": "",
    "email": "",
    "Latitude": -19.818984,
    "Longitude": -40.271961,
    "Numero_professores": 45,
    "Numero_alunos": null
  },
  {
    "Nome_escola": "EMEF PROF BARULA NEVES DOS SANTOS",
    "Endereco": "DOUTOR ORLINDO BORGES, 0, PREDIO, BARRA DO SAHY, 0",
    "Municipio": "Aracruz",
    "CEP": "29198-013",
    "telefone": "",
    "email": "",
    "Latitude": -19.878034,
    "Longitude": -40.085405,
    "Numero_professores": 12,
    "Numero_alunos": null
  },
  {
    "Nome_escola": "EMEF PROF MARIA INES DELLA VALENTINA",
    "Endereco": "CRISTINA LECCHI FAVALESSA, 385, JACUPEMBA, 385",
    "Municipio": "Aracruz",
    "CEP": "29196-028",
    "telefone": "",
    "email": "",
    "Latitude": -19.586159,
    "Longitude": -40.195154,
    "Numero_professores": 50,
    "Numero_alunos": null
  },
  {
    "Nome_escola": "EMEF SAMOEL COSTA",
    "Endereco": "FLORESTAL, 01, SEGATO, 01",
    "Municipio": "Aracruz",
    "CEP": "29192-154",
    "telefone": "",
    "email": "",
    "Latitude": -19.826905,
    "Longitude": -40.273087,
    "Numero_professores": 16,
    "Numero_alunos": null
  },
  {
    "Nome_escola": "EMEF SANTA CRUZ",
    "Endereco": "PRESIDENTE VARGAS, S/N, SANTA CRUZ, S/N",
    "Municipio": "Aracruz",
    "CEP": "29199-506",
    "telefone": "",
    "email": "",
    "Latitude": -19.954348,
    "Longitude": -40.153362,
    "Numero_professores": 11,
    "Numero_alunos": null
  },
  {
    "Nome_escola": "EMEF ZENILIA VARZEM RIBEIRO",
    "Endereco": "FLORIANO SANTANA, 420, PREDIO, BARRA DO RIACHO, 420",
    "Municipio": "Aracruz",
    "CEP": "29197-539",
    "telefone": "",
    "email": "",
    "Latitude": -19.828588,
    "Longitude": -40.06652,
    "Numero_professores": 26,
    "Numero_alunos": null
  },
  {
    "Nome_escola": "EMEF ZILCA NUNES VIEIRA BERMUDES",
    "Endereco": "PREFEITO AUGUSTO FERREIRA LAMEGO, 10, VILA NOVA, 10",
    "Municipio": "Aracruz",
    "CEP": "29194-518",
    "telefone": "",
    "email": "",
    "Latitude": -19.81001,
    "Longitude": -40.272886,
    "Numero_professores": 36,
    "Numero_alunos": null
  },
  {
    "Nome_escola": "EMEFI ARANDU RETXAKA",
    "Endereco": "RUA AVENCAS, 22, 00, ALD. TRES PALMEIRAS, COQUEIRAL, 00",
    "Municipio": "Aracruz",
    "CEP": "29199-970",
    "telefone": "",
    "email": "",
    "Latitude": -19.946749,
    "Longitude": -40.167437,
    "Numero_professores": 11,
    "Numero_alunos": null
  },
  {
    "Nome_escola": "EMEFI DORVELINA COUTINHO",
    "Endereco": "RESERVA BIOLOGICA DE COMBOIOS, Sº/Nº, TERRA INDIGENA, VILA DO RIACHO, Sº/Nº",
    "Municipio": "Aracruz",
    "CEP": "29197-190",
    "telefone": "",
    "email": "",
    "Latitude": -19.743433,
    "Longitude": -40.007971,
    "Numero_professores": 10,
    "Numero_alunos": null
  },
  {
    "Nome_escola": "EMEFTI ERMELINDA GIACOMIN FARINA",
    "Endereco": "GIOVANI FIOROTI, S/N, SAUE, S/N",
    "Municipio": "Aracruz",
    "CEP": "29198-348",
    "telefone": "",
    "email": "",
    "Latitude": -19.923878,
    "Longitude": -40.117217,
    "Numero_professores": 14,
    "Numero_alunos": null
  },
  {
    "Nome_escola": "EMEFTI EURIPEDES NUNES LOUREIRO",
    "Endereco": "CIDADE DE VITORIA, 39, ITAPUTERA, 39",
    "Municipio": "Aracruz",
    "CEP": "29193-339",
    "telefone": "",
    "email": "",
    "Latitude": -19.83098,
    "Longitude": -40.28383,
    "Numero_professores": 12,
    "Numero_alunos": null
  },
  {
    "Nome_escola": "EMEFTI HONORIO NUNES DE JESUS",
    "Endereco": "PORTUGAL, S/N, MOROBÁ, S/N",
    "Municipio": "Aracruz",
    "CEP": "29192-730",
    "telefone": "",
    "email": "",
    "Latitude": -19.829179,
    "Longitude": -40.256223,
    "Numero_professores": 18,
    "Numero_alunos": null
  },
  {
    "Nome_escola": "EMEFTI ITAPARICA",
    "Endereco": "JOAO MOTTA, S/N, ITAPARICA, S/N",
    "Municipio": "Aracruz",
    "CEP": "29199-640",
    "telefone": "",
    "email": "",
    "Latitude": -19.973517,
    "Longitude": -40.1475,
    "Numero_professores": 10,
    "Numero_alunos": null
  },
  {
    "Nome_escola": "EMEFTI PROFESSORA MARIA LUIZA DEVENS",
    "Endereco": "PRESIDENTE KENNEDY, S/Nº, FÁTIMA, S/Nº",
    "Municipio": "Aracruz",
    "CEP": "29192-278",
    "telefone": "",
    "email": "",
    "Latitude": -19.834324,
    "Longitude": -40.265825,
    "Numero_professores": 21,
    "Numero_alunos": null
  },
  {
    "Nome_escola": "EMP INDIGENA IRAJA",
    "Endereco": "RUA PROJETADA, SN, ALDEIA IRAJA, ALDEIA INDIGENA IRAJA, SN",
    "Municipio": "Aracruz",
    "CEP": "29199-899",
    "telefone": "",
    "email": "",
    "Latitude": -19.898594,
    "Longitude": -40.221673,
    "Numero_professores": 9,
    "Numero_alunos": null
  },
  {
    "Nome_escola": "EMEB ALTO NITEROI",
    "Endereco": "RUA PROJETADA, SN, ALTO NITEROI, SN",
    "Municipio": "Atílio Vivácqua",
    "CEP": "29490-000",
    "telefone": "",
    "email": "",
    "Latitude": -20.920807,
    "Longitude": -41.192627,
    "Numero_professores": 13,
    "Numero_alunos": null
  },
  {
    "Nome_escola": "EMEB AMABILE ROSSETO",
    "Endereco": "LINDA AURORA, ZONA RURAL",
    "Municipio": "Atílio Vivácqua",
    "CEP": "29490-000",
    "telefone": "",
    "email": "",
    "Latitude": -20.953581,
    "Longitude": -41.216691,
    "Numero_professores": 4,
    "Numero_alunos": null
  },
  {
    "Nome_escola": "EMEB ANA BUSATO",
    "Endereco": "RUA CAPITO JOVINO ALVES PEDRA, 38, NITEROI, 38",
    "Municipio": "Atílio Vivácqua",
    "CEP": "29490-000",
    "telefone": "",
    "email": "",
    "Latitude": -20.915493,
    "Longitude": -41.194454,
    "Numero_professores": 34,
    "Numero_alunos": null
  },
  {
    "Nome_escola": "EMEB AVELINDA CARVALHO GAVA",
    "Endereco": "CORREGO DA FAMA, S/Nº, ZONA RURAL, S/Nº",
    "Municipio": "Atílio Vivácqua",
    "CEP": "29490-000",
    "telefone": "",
    "email": "",
    "Latitude": -20.938486,
    "Longitude": -41.221944,
    "Numero_professores": 6,
    "Numero_alunos": null
  },
  {
    "Nome_escola": "EMEB FELIPE ANDRADE COSTA",
    "Endereco": "RUA PROJETADA, 15, 15",
    "Municipio": "Atílio Vivácqua",
    "CEP": "29490-000",
    "telefone": "",
    "email": "",
    "Latitude": -20.920409,
    "Longitude": -41.192162,
    "Numero_professores": 7,
    "Numero_alunos": null
  },
  {
    "Nome_escola": "EMEB FLECHEIRAS",
    "Endereco": "RUA PRINCIPAL - FLECHEIRAS, SN, ZONA RURAL, SN",
    "Municipio": "Atílio Vivácqua",
    "CEP": "29490-000",
    "telefone": "",
    "email": "",
    "Latitude": -21.035511,
    "Longitude": -41.180507,
    "Numero_professores": 12,
    "Numero_alunos": null
  },
  {
    "Nome_escola": "EMEB HERMINIA LEAL JUDICE",
    "Endereco": "AVENIDA CAPITAO JOVINO ALVES PEDRA, 36, CASA, NITEROI, 36",
    "Municipio": "Atílio Vivácqua",
    "CEP": "29490-000",
    "telefone": "",
    "email": "",
    "Latitude": -20.915212,
    "Longitude": -41.194404,
    "Numero_professores": 14,
    "Numero_alunos": null
  },
  {
    "Nome_escola": "EMEB ISABEL COSTA BAPTISTA",
    "Endereco": "AV. NOSSA SENHORA APARECIDA, 348, SAIBREIRA, 348",
    "Municipio": "Atílio Vivácqua",
    "CEP": "29490-000",
    "telefone": "",
    "email": "",
    "Latitude": -20.920531,
    "Longitude": -41.183825,
    "Numero_professores": 13,
    "Numero_alunos": null
  },
  {
    "Nome_escola": "EMEB JOSE CAMPOS NOGUEIRA",
    "Endereco": "ANTAS, ZONA RURAL",
    "Municipio": "Atílio Vivácqua",
    "CEP": "29490-000",
    "telefone": "",
    "email": "",
    "Latitude": -20.915704,
    "Longitude": -41.154164,
    "Numero_professores": 7,
    "Numero_alunos": null
  },
  {
    "Nome_escola": "EMEB LUIZ ALBERTO FARIA MORENO",
    "Endereco": "RUA ADEMAR LUIZ MORENO, 3, 3",
    "Municipio": "Atílio Vivácqua",
    "CEP": "29490-000",
    "telefone": "",
    "email": "",
    "Latitude": -20.913601,
    "Longitude": -41.197428,
    "Numero_professores": 17,
    "Numero_alunos": null
  },
  {
    "Nome_escola": "EMEB TEOTONIO RAFAEL",
    "Endereco": "INDENPENDENCIA, SN, SN",
    "Municipio": "Atílio Vivácqua",
    "CEP": "29490-000",
    "telefone": "",
    "email": "",
    "Latitude": -20.953404,
    "Longitude": -41.125924,
    "Numero_professores": 11,
    "Numero_alunos": null
  },
  {
    "Nome_escola": "EMEB ZULMIRA VENTURY BAPTISTA",
    "Endereco": "AVENIDA NOSSA SENHORA DE FATIMA, SN, ALTO NITEROI, SN",
    "Municipio": "Atílio Vivácqua",
    "CEP": "29490-000",
    "telefone": "",
    "email": "",
    "Latitude": -20.918575,
    "Longitude": -41.195448,
    "Numero_professores": 16,
    "Numero_alunos": null
  },
  {
    "Nome_escola": "EMEBTI ROQUE TELLES GUIMARAES",
    "Endereco": "RODOVIA ES 489, S/N, S/N",
    "Municipio": "Atílio Vivácqua",
    "CEP": "29490-000",
    "telefone": "",
    "email": "",
    "Latitude": -20.927975,
    "Longitude": -41.184573,
    "Numero_professores": 9,
    "Numero_alunos": null
  },
  {
    "Nome_escola": "ESCOLA MUNICIPAL DE EDUCACAO BASICA BENEDITO SAMPAIO",
    "Endereco": "PRACA DO ORIENTE, SN, SN",
    "Municipio": "Atílio Vivácqua",
    "CEP": "29490-000",
    "telefone": "",
    "email": "",
    "Latitude": -20.974763,
    "Longitude": -41.175879,
    "Numero_professores": 11,
    "Numero_alunos": null
  },
  {
    "Nome_escola": "ESCOLA MUNICIPAL DE EDUCACAO BASICA MARIA JOVITA BOECHAT",
    "Endereco": "PRACA DO ORIENTE, SNº, SNº",
    "Municipio": "Atílio Vivácqua",
    "CEP": "29490-000",
    "telefone": "",
    "email": "",
    "Latitude": -20.973333,
    "Longitude": -41.17519,
    "Numero_professores": 5,
    "Numero_alunos": null
  },
  {
    "Nome_escola": "CENTRO MUNICIPAL DE EDUCACAO INFANTIL COSME E DAMIAO",
    "Endereco": "RUA DAS CAMELIAS, BAIRRO SANTA MONICA, S/N, ESCOLA, S/N",
    "Municipio": "Baixo Guandu",
    "CEP": "29730-000",
    "telefone": "",
    "email": "",
    "Latitude": -19.515135,
    "Longitude": -41.002468,
    "Numero_professores": 20,
    "Numero_alunos": null
  },
  {
    "Nome_escola": "CMEI CASINHA FELIZ",
    "Endereco": "RUA ANTONIO HENRIQUE PINHEIRO, S/N, S/N",
    "Municipio": "Baixo Guandu",
    "CEP": "29730-000",
    "telefone": "",
    "email": "",
    "Latitude": -19.506441,
    "Longitude": -40.912505,
    "Numero_professores": 8,
    "Numero_alunos": null
  },
  {
    "Nome_escola": "CMEI DONA CHICA",
    "Endereco": "RUA DAS CAMELIAS, S/N, S/N",
    "Municipio": "Baixo Guandu",
    "CEP": "29730-000",
    "telefone": "",
    "email": "",
    "Latitude": -19.515412,
    "Longitude": -41.002642,
    "Numero_professores": 11,
    "Numero_alunos": null
  },
  {
    "Nome_escola": "CMEI DONA EUFRASIA BALMANN",
    "Endereco": "RUA JOAO JULIO CARDOSO, S/N, S/N",
    "Municipio": "Baixo Guandu",
    "CEP": "29737-000",
    "telefone": "",
    "email": "",
    "Latitude": -19.273674,
    "Longitude": -40.909548,
    "Numero_professores": 11,
    "Numero_alunos": null
  },
  {
    "Nome_escola": "CMEI DONA PAULA",
    "Endereco": "RUA PEDRO ALVARES CABRAL, S/N, S/N",
    "Municipio": "Baixo Guandu",
    "CEP": "29730-000",
    "telefone": "",
    "email": "",
    "Latitude": -19.508266,
    "Longitude": -41.028087,
    "Numero_professores": 19,
    "Numero_alunos": null
  },
  {
    "Nome_escola": "CMEI DONA ROSA",
    "Endereco": "RUA PEDRO ALVARES CABRAL, S/Nº, S/Nº",
    "Municipio": "Baixo Guandu",
    "CEP": "29730-000",
    "telefone": "",
    "email": "",
    "Latitude": -19.515762,
    "Longitude": -41.020542,
    "Numero_professores": 17,
    "Numero_alunos": null
  },
  {
    "Nome_escola": "CMEI FRANCISCO JOAO DA SILVA - NEGUINHO",
    "Endereco": "PRACA AFONSO PENA, S/Nº, S/Nº",
    "Municipio": "Baixo Guandu",
    "CEP": "29730-000",
    "telefone": "",
    "email": "",
    "Latitude": -19.690032,
    "Longitude": -41.019455,
    "Numero_professores": 7,
    "Numero_alunos": null
  },
  {
    "Nome_escola": "CMEI IDA ALBERTINA MARIA ZUMMACK ROEPKE",
    "Endereco": "RUA PRINCIPAL, S/Nº, S/Nº",
    "Municipio": "Baixo Guandu",
    "CEP": "29742-000",
    "telefone": "",
    "email": "",
    "Latitude": -19.512449,
    "Longitude": -41.013787,
    "Numero_professores": 3,
    "Numero_alunos": null
  },
  {
    "Nome_escola": "CMEI PROF IDALIA GOMES DOS SANTOS",
    "Endereco": "RUA SECA, SN, KM 14, SN",
    "Municipio": "Baixo Guandu",
    "CEP": "29730-000",
    "telefone": "",
    "email": "",
    "Latitude": -19.398179,
    "Longitude": -40.904594,
    "Numero_professores": 4,
    "Numero_alunos": null
  },
  {
    "Nome_escola": "CMEI SANTA CARPANINI SOARES",
    "Endereco": "RUA PEDRO ALVARES CABRAL, S/N, ROSARIO II, S/N",
    "Municipio": "Baixo Guandu",
    "CEP": "29730-000",
    "telefone": "",
    "email": "",
    "Latitude": -19.505342,
    "Longitude": -41.031205,
    "Numero_professores": 10,
    "Numero_alunos": null
  },
  {
    "Nome_escola": "CMEI ZILDA CASTIGLIONI ROSA GUZZO",
    "Endereco": "RUA OSVALDO CRUZ, 103, PROXIMO AO MERGULHAO, 103",
    "Municipio": "Baixo Guandu",
    "CEP": "29730-000",
    "telefone": "",
    "email": "",
    "Latitude": -19.508265,
    "Longitude": -41.014696,
    "Numero_professores": 9,
    "Numero_alunos": null
  },
  {
    "Nome_escola": "EMEF FRANCISCO DA CUNHA RAMALDES",
    "Endereco": "JOAO JULIO CARDOSO, S/N, S/N",
    "Municipio": "Baixo Guandu",
    "CEP": "29737-000",
    "telefone": "",
    "email": "",
    "Latitude": -19.275822,
    "Longitude": -40.909266,
    "Numero_professores": 12,
    "Numero_alunos": null
  },
  {
    "Nome_escola": "EMEF OLGA MARTINELLI",
    "Endereco": "RUA ENGENHEIRO MERY, 214, 214",
    "Municipio": "Baixo Guandu",
    "CEP": "29740-000",
    "telefone": "",
    "email": "",
    "Latitude": -19.690631,
    "Longitude": -41.017998,
    "Numero_professores": 11,
    "Numero_alunos": null
  },
  {
    "Nome_escola": "EMEFTI GOVERNADOR LACERDA DE AGUIAR",
    "Endereco": "RUA DOMINGOS MARTINS, 100, 100",
    "Municipio": "Baixo Guandu",
    "CEP": "29730-000",
    "telefone": "",
    "email": "",
    "Latitude": -19.507353,
    "Longitude": -41.025213,
    "Numero_professores": 10,
    "Numero_alunos": null
  },
  {
    "Nome_escola": "EMEIEF ALADIA TRINDADE PAIVA",
    "Endereco": "RUA GETULIO VARGAS, 112, 112",
    "Municipio": "Baixo Guandu",
    "CEP": "29730-000",
    "telefone": "",
    "email": "",
    "Latitude": -19.504546,
    "Longitude": -40.914755,
    "Numero_professores": 11,
    "Numero_alunos": null
  },
  {
    "Nome_escola": "EMEIEF BENEVENUTO CLEMENTINO GOBBO",
    "Endereco": "AVENIDA SANTA TEREZINHA, 236, 236",
    "Municipio": "Baixo Guandu",
    "CEP": "29730-000",
    "telefone": "",
    "email": "",
    "Latitude": -19.518812,
    "Longitude": -41.011449,
    "Numero_professores": 33,
    "Numero_alunos": null
  },
  {
    "Nome_escola": "EMEIEF CARLOS LUIZ FREDERICO",
    "Endereco": "VILA NOVA DE BANANAL, S/N, VILA NOVA DE BANANAL, S/N",
    "Municipio": "Baixo Guandu",
    "CEP": "29742-000",
    "telefone": "",
    "email": "",
    "Latitude": -19.687148,
    "Longitude": -41.125709,
    "Numero_professores": 12,
    "Numero_alunos": null
  },
  {
    "Nome_escola": "EMEIEF DARLENE MAGGIONI FRANQUINI",
    "Endereco": "RUA HENRIQUE COUTINHO, S/Nº, S/Nº",
    "Municipio": "Baixo Guandu",
    "CEP": "29730-000",
    "telefone": "",
    "email": "",
    "Latitude": -19.504221,
    "Longitude": -41.032112,
    "Numero_professores": 15,
    "Numero_alunos": null
  },
  {
    "Nome_escola": "EMEIEF JOAO JULIO CARDOSO",
    "Endereco": "WILSON SANTANNA LOPES FILHO, S/N, S/N",
    "Municipio": "Baixo Guandu",
    "CEP": "29730-000",
    "telefone": "",
    "email": "",
    "Latitude": -19.522944,
    "Longitude": -41.000925,
    "Numero_professores": 20,
    "Numero_alunos": null
  },
  {
    "Nome_escola": "EMEIEF JOAO XXIII",
    "Endereco": "RUA JERONIMO MONTEIRO, S/Nº, PREDIO ESCOLAR, S/Nº",
    "Municipio": "Baixo Guandu",
    "CEP": "29730-000",
    "telefone": "",
    "email": "",
    "Latitude": -19.508227,
    "Longitude": -41.027525,
    "Numero_professores": 28,
    "Numero_alunos": null
  },
  {
    "Nome_escola": "EMEIEF JULIA DE CARVALHO FISCHER",
    "Endereco": "RUA QUINTINO BOCAIUVA, S/N, S/N",
    "Municipio": "Baixo Guandu",
    "CEP": "29730-000",
    "telefone": "",
    "email": "",
    "Latitude": -19.513359,
    "Longitude": -41.022162,
    "Numero_professores": 20,
    "Numero_alunos": null
  },
  {
    "Nome_escola": "EMEIEF PRESIDENTE KENNEDY",
    "Endereco": "R MARECHAL DEODORO DA FONSECA, 695, 695",
    "Municipio": "Baixo Guandu",
    "CEP": "29730-000",
    "telefone": "",
    "email": "",
    "Latitude": -19.515114,
    "Longitude": -41.008548,
    "Numero_professores": 15,
    "Numero_alunos": null
  },
  {
    "Nome_escola": "EMEIEF PROFESSOR JOSE NUNES",
    "Endereco": "RUA DUQUE DE CAXIAS, SN, CENTRO, SN",
    "Municipio": "Baixo Guandu",
    "CEP": "29730-000",
    "telefone": "",
    "email": "",
    "Latitude": -19.513459,
    "Longitude": -41.013687,
    "Numero_professores": 25,
    "Numero_alunos": null
  },
  {
    "Nome_escola": "EMEIEF PROFESSORA LEA HOLZ",
    "Endereco": "RUA SETE DE SETEMBRO, S/N, MAUA, S/N",
    "Municipio": "Baixo Guandu",
    "CEP": "29730-000",
    "telefone": "",
    "email": "",
    "Latitude": -19.508569,
    "Longitude": -41.013245,
    "Numero_professores": 20,
    "Numero_alunos": null
  },
  {
    "Nome_escola": "EMEIEF PROFª ELZA EWALD DE OLIVEIRA",
    "Endereco": "VILA KM 14 DO MUTUM - KM 14 - 29735-000, S/N, KM 14, S/N",
    "Municipio": "Baixo Guandu",
    "CEP": "29735-000",
    "telefone": "",
    "email": "",
    "Latitude": -19.398459,
    "Longitude": -40.905045,
    "Numero_professores": 13,
    "Numero_alunos": null
  },
  {
    "Nome_escola": "EMUEIEF ALTO BATUTA",
    "Endereco": "KM 14",
    "Municipio": "Baixo Guandu",
    "CEP": "29730-000",
    "telefone": "",
    "email": "",
    "Latitude": -19.512449,
    "Longitude": -41.013787,
    "Numero_professores": 2,
    "Numero_alunos": null
  },
  {
    "Nome_escola": "EMUEIEF ALTO PALMITAL",
    "Endereco": "DISTRITO ALTO PALMITAL",
    "Municipio": "Baixo Guandu",
    "CEP": "29730-000",
    "telefone": "",
    "email": "",
    "Latitude": -19.664523,
    "Longitude": -40.958075,
    "Numero_professores": 1,
    "Numero_alunos": null
  },
  {
    "Nome_escola": "EMUEIEF BARRA DE SANTA ROSA",
    "Endereco": "BARRA DE SANTA ROSA",
    "Municipio": "Baixo Guandu",
    "CEP": "29730-000",
    "telefone": "",
    "email": "",
    "Latitude": -19.73094,
    "Longitude": -41.048676,
    "Numero_professores": 1,
    "Numero_alunos": null
  },
  {
    "Nome_escola": "EMUEIEF SANTA ROSA",
    "Endereco": "SANTA ROSA",
    "Municipio": "Baixo Guandu",
    "CEP": "29730-000",
    "telefone": "",
    "email": "",
    "Latitude": -19.776564,
    "Longitude": -41.013402,
    "Numero_professores": 2,
    "Numero_alunos": null
  },
  {
    "Nome_escola": "CMEI BRASILINO MALAQUIAS DE MORAIS",
    "Endereco": "RUA DUQUE DE CAXIAS, 350, ESCOLA, 350",
    "Municipio": "Barra de São Francisco",
    "CEP": "29800-000",
    "telefone": "",
    "email": "",
    "Latitude": -18.762646,
    "Longitude": -40.892786,
    "Numero_professores": 16,
    "Numero_alunos": null
  },
  {
    "Nome_escola": "CMEI DORICO CIPRIANO",
    "Endereco": "RUA BENJAMIN COSTA, 02, PREDIO, 02",
    "Municipio": "Barra de São Francisco",
    "CEP": "29800-000",
    "telefone": "",
    "email": "",
    "Latitude": -18.760377,
    "Longitude": -40.885739,
    "Numero_professores": 16,
    "Numero_alunos": null
  },
  {
    "Nome_escola": "CMEI IRENE RIBEIRO DA SILVA",
    "Endereco": "RUA MELVIN JONES, 67, CRUZEIRO, 67",
    "Municipio": "Barra de São Francisco",
    "CEP": "29800-000",
    "telefone": "",
    "email": "",
    "Latitude": -18.757326,
    "Longitude": -40.894147,
    "Numero_professores": 13,
    "Numero_alunos": null
  },
  {
    "Nome_escola": "CMEI KATHERINE ZANET",
    "Endereco": "RUA SAO MATEUS, 637, 637",
    "Municipio": "Barra de São Francisco",
    "CEP": "29815-000",
    "telefone": "",
    "email": "",
    "Latitude": -18.661568,
    "Longitude": -40.7919,
    "Numero_professores": 14,
    "Numero_alunos": null
  },
  {
    "Nome_escola": "CMEI RAUL GONCALVES NETO - RAUL TREMENDAO",
    "Endereco": "RUA VANDO JOSE DA SILVA, SN, SN",
    "Municipio": "Barra de São Francisco",
    "CEP": "29800-000",
    "telefone": "",
    "email": "",
    "Latitude": -18.755099,
    "Longitude": -40.88796,
    "Numero_professores": 10,
    "Numero_alunos": null
  },
  {
    "Nome_escola": "EM ABEL LOUBACK",
    "Endereco": "RUA JOSE TIAGO, SN, SN",
    "Municipio": "Barra de São Francisco",
    "CEP": "29800-000",
    "telefone": "",
    "email": "",
    "Latitude": -18.585555,
    "Longitude": -40.886913,
    "Numero_professores": 4,
    "Numero_alunos": null
  },
  {
    "Nome_escola": "EM BARRA DE ITAPERUNA",
    "Endereco": "RUA PRINCIPAL, S/N, PREDIO, S/N",
    "Municipio": "Barra de São Francisco",
    "CEP": "29812-000",
    "telefone": "",
    "email": "",
    "Latitude": -18.709111,
    "Longitude": -40.739727,
    "Numero_professores": 8,
    "Numero_alunos": null
  },
  {
    "Nome_escola": "EM CABECEIRA SANTO ANTONIO",
    "Endereco": "CORREGO DO BAGACO",
    "Municipio": "Barra de São Francisco",
    "CEP": "29800-000",
    "telefone": "",
    "email": "",
    "Latitude": -18.808549,
    "Longitude": -40.798053,
    "Numero_professores": 6,
    "Numero_alunos": null
  },
  {
    "Nome_escola": "EM CACHOEIRINHA DO ITAUNAS",
    "Endereco": "RUA NELSON FRAGA PINHEIRO, S/N, ESCOLA, S/N",
    "Municipio": "Barra de São Francisco",
    "CEP": "29805-000",
    "telefone": "",
    "email": "",
    "Latitude": -18.874261,
    "Longitude": -40.930657,
    "Numero_professores": 13,
    "Numero_alunos": null
  },
  {
    "Nome_escola": "EM DANIEL CIRILO DE PAULA",
    "Endereco": "CORREGO SAO JOSE",
    "Municipio": "Barra de São Francisco",
    "CEP": "29800-000",
    "telefone": "",
    "email": "",
    "Latitude": -18.510337,
    "Longitude": -40.773581,
    "Numero_professores": 12,
    "Numero_alunos": null
  },
  {
    "Nome_escola": "EM EVANDRA CHAVES DE OLIVEIRA",
    "Endereco": "ASSENTAMENTO TRES CORACOES, SN, SN",
    "Municipio": "Barra de São Francisco",
    "CEP": "29800-000",
    "telefone": "",
    "email": "",
    "Latitude": -18.52581,
    "Longitude": -40.70236,
    "Numero_professores": 6,
    "Numero_alunos": null
  },
  {
    "Nome_escola": "EM JOAO BASTOS",
    "Endereco": "AVENIDA DONA MINELVINA GARCIA DE LIMA, 218, 218",
    "Municipio": "Barra de São Francisco",
    "CEP": "29800-000",
    "telefone": "",
    "email": "",
    "Latitude": -18.754149,
    "Longitude": -40.890831,
    "Numero_professores": 28,
    "Numero_alunos": null
  },
  {
    "Nome_escola": "EM JOSE FRANCISCO DA FONSECA",
    "Endereco": "RUA BENJAMIM COSTA, 194, 194",
    "Municipio": "Barra de São Francisco",
    "CEP": "29800-000",
    "telefone": "",
    "email": "",
    "Latitude": -18.759403,
    "Longitude": -40.885009,
    "Numero_professores": 18,
    "Numero_alunos": null
  },
  {
    "Nome_escola": "EM LUCIENE MATOS FERREIRA",
    "Endereco": "RODOVIA BARRA DE SAO FRANCISCO A ECOPORANGA KM 03, SN, KM 03, SN",
    "Municipio": "Barra de São Francisco",
    "CEP": "29800-000",
    "telefone": "",
    "email": "",
    "Latitude": -18.73028,
    "Longitude": -40.894255,
    "Numero_professores": 18,
    "Numero_alunos": null
  },
  {
    "Nome_escola": "EM MAC NAIR",
    "Endereco": "RUA SAO SEBASTIAO, S/N, PR. CAMARA MUNICIPAL, S/N",
    "Municipio": "Barra de São Francisco",
    "CEP": "29800-000",
    "telefone": "",
    "email": "",
    "Latitude": -18.75424,
    "Longitude": -40.891175,
    "Numero_professores": 12,
    "Numero_alunos": null
  },
  {
    "Nome_escola": "EM MONTE SENIR",
    "Endereco": "RUA DEPUTADO LUIZ BATISTA",
    "Municipio": "Barra de São Francisco",
    "CEP": "29800-000",
    "telefone": "",
    "email": "",
    "Latitude": -18.837902,
    "Longitude": -40.780519,
    "Numero_professores": 3,
    "Numero_alunos": null
  },
  {
    "Nome_escola": "EM NEUZA FERNANDES DA SILVA",
    "Endereco": "RUA MANOEL SILVA LOPES, S/N, ESCOLA, S/N",
    "Municipio": "Barra de São Francisco",
    "CEP": "29800-000",
    "telefone": "",
    "email": "",
    "Latitude": -18.762621,
    "Longitude": -40.893335,
    "Numero_professores": 12,
    "Numero_alunos": null
  },
  {
    "Nome_escola": "EM OTTO SAAR",
    "Endereco": "CORREGO DO ITA, ZONA RURAL",
    "Municipio": "Barra de São Francisco",
    "CEP": "29800-000",
    "telefone": "",
    "email": "",
    "Latitude": -18.661543,
    "Longitude": -40.866424,
    "Numero_professores": 11,
    "Numero_alunos": null
  },
  {
    "Nome_escola": "EM SANTA ANGELICA",
    "Endereco": "CORREGO SANTA ANGELICA",
    "Municipio": "Barra de São Francisco",
    "CEP": "29800-000",
    "telefone": "",
    "email": "",
    "Latitude": -18.641329,
    "Longitude": -40.888946,
    "Numero_professores": 5,
    "Numero_alunos": null
  },
  {
    "Nome_escola": "EM SEBASTIAO ALBANO",
    "Endereco": "AVENIDA MANOEL ALVES DA FONSECA, 267, ESCOLA, 267",
    "Municipio": "Barra de São Francisco",
    "CEP": "29800-000",
    "telefone": "",
    "email": "",
    "Latitude": -18.753529,
    "Longitude": -40.881826,
    "Numero_professores": 18,
    "Numero_alunos": null
  },
  {
    "Nome_escola": "EM VARGEM ALEGRE",
    "Endereco": "RUA BENEDITO FELIPE FERREIRA, 445, VARGEM ALEGRE, 445",
    "Municipio": "Barra de São Francisco",
    "CEP": "29800-000",
    "telefone": "",
    "email": "",
    "Latitude": -18.807207,
    "Longitude": -40.852494,
    "Numero_professores": 16,
    "Numero_alunos": null
  },
  {
    "Nome_escola": "EM VARGEM GRANDE DE ITAUNAS",
    "Endereco": "CORREGO VARGEM GRANDE DE ITAUNAS",
    "Municipio": "Barra de São Francisco",
    "CEP": "29800-000",
    "telefone": "",
    "email": "",
    "Latitude": -18.843849,
    "Longitude": -40.891021,
    "Numero_professores": 7,
    "Numero_alunos": null
  },
  {
    "Nome_escola": "EM VICENTE AMARO DA SILVA",
    "Endereco": "RUA DONA SAMINA ROSA DOS ANJOS, 220, PREDIO, 220",
    "Municipio": "Barra de São Francisco",
    "CEP": "29800-000",
    "telefone": "",
    "email": "",
    "Latitude": -18.754722,
    "Longitude": -40.897187,
    "Numero_professores": 38,
    "Numero_alunos": null
  },
  {
    "Nome_escola": "EMEFTI OZEIAS REZENDE",
    "Endereco": "ALAMEDA SANTA TEREZINHA, 100, CENTRO, 100",
    "Municipio": "Barra de São Francisco",
    "CEP": "29800-000",
    "telefone": "",
    "email": "",
    "Latitude": -18.76114,
    "Longitude": -40.88954,
    "Numero_professores": 16,
    "Numero_alunos": null
  },
  {
    "Nome_escola": "ESCOLA MUNICIPAL CORREGO DOS FAGUNDES",
    "Endereco": "CORREGO BOA SORTE, S/Nº, S/Nº",
    "Municipio": "Barra de São Francisco",
    "CEP": "29800-000",
    "telefone": "",
    "email": "",
    "Latitude": -18.69196,
    "Longitude": -40.815219,
    "Numero_professores": 5,
    "Numero_alunos": null
  },
  {
    "Nome_escola": "ESCOLA MUNICIPAL DE ENSINO FUNDAMENTAL EM TEMPO INTEGRAL ELIZABETH TRZOSEKI DA SILVA",
    "Endereco": "RUA CAMILO LOPES JUNIOR, 202, PREDIO, 202",
    "Municipio": "Barra de São Francisco",
    "CEP": "29815-000",
    "telefone": "",
    "email": "",
    "Latitude": -18.667695,
    "Longitude": -40.79513,
    "Numero_professores": 14,
    "Numero_alunos": null
  },
  {
    "Nome_escola": "ESCOLA MUNICIPAL FAMILIA AGRICOLA NORMILIA CUNHA DOS SANTOS",
    "Endereco": "CORREGO QUEIXADA, SN, CORREGO QUEIXADA, SN",
    "Municipio": "Barra de São Francisco",
    "CEP": "29800-000",
    "telefone": "",
    "email": "",
    "Latitude": -18.777158,
    "Longitude": -40.822893,
    "Numero_professores": 8,
    "Numero_alunos": null
  },
  {
    "Nome_escola": "ESCOLA MUNICIPAL NICOLA NICOLINI",
    "Endereco": "CORREGO ALTO PAULISTA",
    "Municipio": "Barra de São Francisco",
    "CEP": "29800-000",
    "telefone": "",
    "email": "",
    "Latitude": -18.631841,
    "Longitude": -40.809511,
    "Numero_professores": 7,
    "Numero_alunos": null
  },
  {
    "Nome_escola": "ESCOLA MUNICIPAL PROFESSOR JOAO BATISTA DA SILVA - JOAO MAIA",
    "Endereco": "VILA PORANGA",
    "Municipio": "Barra de São Francisco",
    "CEP": "29800-000",
    "telefone": "",
    "email": "",
    "Latitude": -18.584084,
    "Longitude": -40.862254,
    "Numero_professores": 7,
    "Numero_alunos": null
  },
  {
    "Nome_escola": "ESCOLA MUNICIPAL PROFESSORA MARIA RODRIGUES DE LIMA",
    "Endereco": "CORREGO DO ENGENHO",
    "Municipio": "Barra de São Francisco",
    "CEP": "29800-000",
    "telefone": "",
    "email": "",
    "Latitude": -18.641017,
    "Longitude": -40.833925,
    "Numero_professores": 6,
    "Numero_alunos": null
  },
  {
    "Nome_escola": "ESCOLA MUNICIPAL WILSON FERREIRA",
    "Endereco": "RUA DURVAL DELEPRANI, S/N, DISTRITO, S/N",
    "Municipio": "Barra de São Francisco",
    "CEP": "29800-000",
    "telefone": "",
    "email": "",
    "Latitude": -18.756562,
    "Longitude": -40.805757,
    "Numero_professores": 14,
    "Numero_alunos": null
  },
  {
    "Nome_escola": "CMEI CRIANCA FELIZ",
    "Endereco": "RUA JOSE ALVES THEODORO, 353, 353",
    "Municipio": "Boa Esperança",
    "CEP": "29845-000",
    "telefone": "",
    "email": "",
    "Latitude": -18.434146,
    "Longitude": -40.38918,
    "Numero_professores": 11,
    "Numero_alunos": null
  },
  {
    "Nome_escola": "CMEI PEQUENO POLEGAR",
    "Endereco": "RUA HORIZONTE, 69, PREDIO ESCOLAR, 69",
    "Municipio": "Boa Esperança",
    "CEP": "29845-000",
    "telefone": "",
    "email": "",
    "Latitude": -18.538317,
    "Longitude": -40.285764,
    "Numero_professores": 9,
    "Numero_alunos": null
  },
  {
    "Nome_escola": "CMEI PROFESSORA VERA LUCIA PACANHA VIEIRA",
    "Endereco": "RUA PROFESSORA MARIA LUCAS DUARTE DA SILVA, 142, PREDIO, 142",
    "Municipio": "Boa Esperança",
    "CEP": "29845-000",
    "telefone": "",
    "email": "",
    "Latitude": -18.542493,
    "Longitude": -40.297218,
    "Numero_professores": 23,
    "Numero_alunos": null
  },
  {
    "Nome_escola": "CMEI SONHO ENCANTADO",
    "Endereco": "RUA PROFESSORA IUSA GAVA VALANI, 68, PREDIO, 68",
    "Municipio": "Boa Esperança",
    "CEP": "29845-000",
    "telefone": "",
    "email": "",
    "Latitude": -18.541668,
    "Longitude": -40.289858,
    "Numero_professores": 15,
    "Numero_alunos": null
  },
  {
    "Nome_escola": "EMEF PROF IZAURA DE ALMEIDA SILVA",
    "Endereco": "RUA ANACLETO GAVA, 169, PREDIO, 169",
    "Municipio": "Boa Esperança",
    "CEP": "29845-000",
    "telefone": "",
    "email": "",
    "Latitude": -18.539348,
    "Longitude": -40.288402,
    "Numero_professores": 23,
    "Numero_alunos": null
  },
  {
    "Nome_escola": "EMEF PROFª UBALDINA SANTO AMARO DO AMARAL",
    "Endereco": "AVENIDA SENADOR EURICO REZENDE, 740, PREDIO, 740",
    "Municipio": "Boa Esperança",
    "CEP": "29845-000",
    "telefone": "",
    "email": "",
    "Latitude": -18.539899,
    "Longitude": -40.298024,
    "Numero_professores": 30,
    "Numero_alunos": null
  },
  {
    "Nome_escola": "EMEIEF ANADYR DE ALMEIDA MARCHIORI",
    "Endereco": "PRACA LACIDE RIBEIRO FRANCA, 54, POVOADO BELA VISTA, 54",
    "Municipio": "Boa Esperança",
    "CEP": "29845-000",
    "telefone": "",
    "email": "",
    "Latitude": -18.554395,
    "Longitude": -40.22314,
    "Numero_professores": 22,
    "Numero_alunos": null
  },
  {
    "Nome_escola": "EMEIEF QUILOMETRO VINTE",
    "Endereco": "RUA PALMIRA, S/N, AREA RURAL, S/N",
    "Municipio": "Boa Esperança",
    "CEP": "29845-000",
    "telefone": "",
    "email": "",
    "Latitude": -18.487046,
    "Longitude": -40.398519,
    "Numero_professores": 20,
    "Numero_alunos": null
  },
  {
    "Nome_escola": "EMEIEF SANTO ANTONIO",
    "Endereco": "RUA PRESIDENTE COSTA E SILVA, S/N, PREDIO, S/N",
    "Municipio": "Boa Esperança",
    "CEP": "29845-000",
    "telefone": "",
    "email": "",
    "Latitude": -18.517016,
    "Longitude": -40.352508,
    "Numero_professores": 26,
    "Numero_alunos": null
  },
  {
    "Nome_escola": "CMEI DEPUTADO GIL VELOSO",
    "Endereco": "RUA CANDIDO PERALVA, 263, 263",
    "Municipio": "Bom Jesus do Norte",
    "CEP": "29460-000",
    "telefone": "",
    "email": "",
    "Latitude": -21.12982,
    "Longitude": -41.67442,
    "Numero_professores": 13,
    "Numero_alunos": null
  },
  {
    "Nome_escola": "CMEI MARIA MOREIRA DE SOUZA-TIA COTINHA",
    "Endereco": "RUA ABILIO POUBEL, 187, SILVANA, 187",
    "Municipio": "Bom Jesus do Norte",
    "CEP": "29460-000",
    "telefone": "",
    "email": "",
    "Latitude": -21.1246,
    "Longitude": -41.66676,
    "Numero_professores": 2,
    "Numero_alunos": null
  },
  {
    "Nome_escola": "CMEI PENHA DE FATIMA LOPES BOECHAT",
    "Endereco": "RUA EVALDO TEIXEIRA DA SILVA, SN, SAO SEBASTIAO, SN",
    "Municipio": "Bom Jesus do Norte",
    "CEP": "29460-000",
    "telefone": "",
    "email": "",
    "Latitude": -21.123822,
    "Longitude": -41.672733,
    "Numero_professores": 15,
    "Numero_alunos": null
  },
  {
    "Nome_escola": "EMEIEF CONQUISTA",
    "Endereco": "ASSENTAMENTO SANTA RITA - JARDIM, SN, SN",
    "Municipio": "Bom Jesus do Norte",
    "CEP": "29460-000",
    "telefone": "",
    "email": "",
    "Latitude": -21.03082,
    "Longitude": -41.59394,
    "Numero_professores": 1,
    "Numero_alunos": null
  },
  {
    "Nome_escola": "EMEIEF MINERVINA DA SILVA ARAUJO",
    "Endereco": "RUA ATAULPHO VIRGILIO LOBO, 70, ESCOLA, 70",
    "Municipio": "Bom Jesus do Norte",
    "CEP": "29460-000",
    "telefone": "",
    "email": "",
    "Latitude": -21.126301,
    "Longitude": -41.670428,
    "Numero_professores": 16,
    "Numero_alunos": null
  },
  {
    "Nome_escola": "EMEIEF SAO SEBASTIAO",
    "Endereco": "RUA SIMONIDES ALMEIDA DE SOUZA",
    "Municipio": "Bom Jesus do Norte",
    "CEP": "29460-000",
    "telefone": "",
    "email": "",
    "Latitude": -21.12523,
    "Longitude": -41.67236,
    "Numero_professores": 24,
    "Numero_alunos": null
  },
  {
    "Nome_escola": "CENTRO DE EDUCACAO MUNICIPAL DE ENSINO FUNDAMENTAL OSWALDO RIBEIRO DA SILVA",
    "Endereco": "RUA JOSE OLINTO BADARO, 130, 130",
    "Municipio": "Brejetuba",
    "CEP": "29630-000",
    "telefone": "",
    "email": "",
    "Latitude": -20.148547,
    "Longitude": -41.291148,
    "Numero_professores": 23,
    "Numero_alunos": null
  },
  {
    "Nome_escola": "CENTRO MUNICIPAL DE EDUCACAO INFANTIL CANTINHO FELIZ",
    "Endereco": "AV. JOAQUIM CANDIDO DA SILVA, S/N, PROXIMO A PRACA, S/N, PROXIMO A PRACA.",
    "Municipio": "Brejetuba",
    "CEP": "29635-000",
    "telefone": "",
    "email": "",
    "Latitude": -19.979796,
    "Longitude": -41.28275,
    "Numero_professores": 8,
    "Numero_alunos": null
  },
  {
    "Nome_escola": "CENTRO MUNICIPAL DE EDUCACAO INFANTIL E FUNDAMENTAL SATURNINO LOURENCO",
    "Endereco": "DISTRITO DE SANTA RITA, S/N, S/N",
    "Municipio": "Brejetuba",
    "CEP": "29630-000",
    "telefone": "",
    "email": "",
    "Latitude": -20.13263,
    "Longitude": -41.240899,
    "Numero_professores": 6,
    "Numero_alunos": null
  },
  {
    "Nome_escola": "CENTRO MUNICIPAL DE EDUCACAO INFANTIL PROFª IVONE MARIA DO CARMO BRUM",
    "Endereco": "SEBASTIAO JOAO DIAS, SN, PROXIMO A APAE, BELLARMINO ULYANA, SN",
    "Municipio": "Brejetuba",
    "CEP": "29630-000",
    "telefone": "",
    "email": "",
    "Latitude": -20.140769,
    "Longitude": -41.285211,
    "Numero_professores": 22,
    "Numero_alunos": null
  },
  {
    "Nome_escola": "CENTRO MUNICIPAL DE ENSINO FUNDAMENTAL SAO JORGE",
    "Endereco": "AV. JOAQUIM CANDIDO DA SILVA, 53, PROXIMO A PRACA, 53",
    "Municipio": "Brejetuba",
    "CEP": "29630-000",
    "telefone": "",
    "email": "",
    "Latitude": -19.98008,
    "Longitude": -41.282991,
    "Numero_professores": 12,
    "Numero_alunos": null
  },
  {
    "Nome_escola": "EEFFAB JOAO VICENTE FILHO",
    "Endereco": "CORREGO VARGEM GRANDE, S/N, S/N",
    "Municipio": "Brejetuba",
    "CEP": "29630-000",
    "telefone": "",
    "email": "",
    "Latitude": -20.207856,
    "Longitude": -41.311214,
    "Numero_professores": 8,
    "Numero_alunos": null
  },
  {
    "Nome_escola": "ESCOLA MUNICIPAL DE EDUCACAO INFANTIL E FUNDAMENTAL CORREGO DO CEDRO",
    "Endereco": "CORREGO DO CEDRO, S/N, ZONA RURAL, S/N",
    "Municipio": "Brejetuba",
    "CEP": "29630-000",
    "telefone": "",
    "email": "",
    "Latitude": -20.086335,
    "Longitude": -41.299356,
    "Numero_professores": 12,
    "Numero_alunos": null
  },
  {
    "Nome_escola": "ESCOLA MUNICIPAL DE EDUCACAO INFANTIL E FUNDAMENTAL MARIA DE LURDES AZEREDO",
    "Endereco": "VARGEM ALTA, S/N, S/N",
    "Municipio": "Brejetuba",
    "CEP": "29630-000",
    "telefone": "",
    "email": "",
    "Latitude": -20.087916,
    "Longitude": -41.254846,
    "Numero_professores": 6,
    "Numero_alunos": null
  },
  {
    "Nome_escola": "ESCOLA MUNICIPAL DE EDUCACAO INFANTIL E FUNDAMENTAL PATRIMONIO DAS SILVEIRAS",
    "Endereco": "ALTO SILVEIRA, S/N, ZONA RURAL, S/N",
    "Municipio": "Brejetuba",
    "CEP": "29630-000",
    "telefone": "",
    "email": "",
    "Latitude": -20.203163,
    "Longitude": -41.388095,
    "Numero_professores": 5,
    "Numero_alunos": null
  },
  {
    "Nome_escola": "ESCOLA MUNICIPAL DE EDUCACAO INFANTIL E FUNDAMENTAL PR LIBERALINO DE SOUSA PROEZA",
    "Endereco": "CORREGO SAO DOMINGOS, S/N, S/N",
    "Municipio": "Brejetuba",
    "CEP": "29630-000",
    "telefone": "",
    "email": "",
    "Latitude": -20.139774,
    "Longitude": -41.347112,
    "Numero_professores": 5,
    "Numero_alunos": null
  },
  {
    "Nome_escola": "ESCOLA MUNICIPAL DE EDUCACAO INFANTIL E FUNDAMENTAL SEVERINO VARGAS NETO",
    "Endereco": "CORREGO MARAPE, S/N, S/N",
    "Municipio": "Brejetuba",
    "CEP": "29630-000",
    "telefone": "",
    "email": "",
    "Latitude": -20.184103,
    "Longitude": -41.313281,
    "Numero_professores": 5,
    "Numero_alunos": null
  },
  {
    "Nome_escola": "ESCOLA MUNICIPAL DE EDUCACAO INFANTIL PIERINA COCO BELIZARIO",
    "Endereco": "RUA MARIANO DUTRA CHAVES, S/N, S/N",
    "Municipio": "Brejetuba",
    "CEP": "29630-000",
    "telefone": "",
    "email": "",
    "Latitude": -20.182144,
    "Longitude": -41.266657,
    "Numero_professores": 3,
    "Numero_alunos": null
  },
  {
    "Nome_escola": "ESCOLA MUNICIPAL DE EDUCACAO INFANTIL PROFESSORA JAQUELINE DELA COSTA DE FREITAS",
    "Endereco": "RANCHO DANTAS, S/N, ZONA RURAL, S/N",
    "Municipio": "Brejetuba",
    "CEP": "29630-000",
    "telefone": "",
    "email": "",
    "Latitude": -20.254012,
    "Longitude": -41.235973,
    "Numero_professores": 3,
    "Numero_alunos": null
  },
  {
    "Nome_escola": "ESCOLA MUNICIPAL DE EDUCACAO INFANTIL SAO SEBASTIAO",
    "Endereco": "FAZENDA LEOGILDO, S/N, S/N",
    "Municipio": "Brejetuba",
    "CEP": "29630-000",
    "telefone": "",
    "email": "",
    "Latitude": -20.110311,
    "Longitude": -41.33973,
    "Numero_professores": 3,
    "Numero_alunos": null
  },
  {
    "Nome_escola": "EMEB ABIGAIL DOS SANTOS SIMOES",
    "Endereco": "RUA ANTERO SOARES, S/N, 100, PACOTUBA, 100",
    "Municipio": "Cachoeiro de Itapemirim",
    "CEP": "29323-980",
    "telefone": "",
    "email": "",
    "Latitude": -20.764405,
    "Longitude": -41.273637,
    "Numero_professores": 8,
    "Numero_alunos": null
  },
  {
    "Nome_escola": "EMEB ALAIR TURBAY BAIAO",
    "Endereco": "MILETO LOUZADA, 15, OTTON MARINS, 15",
    "Municipio": "Cachoeiro de Itapemirim",
    "CEP": "29301-807",
    "telefone": "",
    "email": "",
    "Latitude": -20.847423,
    "Longitude": -41.13617,
    "Numero_professores": 11,
    "Numero_alunos": null
  },
  {
    "Nome_escola": "EMEB ALBERTINA MACEDO",
    "Endereco": "MANOEL BELMIRO DOS SANTOS, NOSSA SENHORA DE FÁTIMA, -",
    "Municipio": "Cachoeiro de Itapemirim",
    "CEP": "29308-645",
    "telefone": "",
    "email": "",
    "Latitude": -20.840385,
    "Longitude": -41.108756,
    "Numero_professores": 11,
    "Numero_alunos": null
  },
  {
    "Nome_escola": "EMEB ALBERTO SARTORIO",
    "Endereco": "RUA PROJETADA, SN, SN",
    "Municipio": "Cachoeiro de Itapemirim",
    "CEP": "29324-000",
    "telefone": "",
    "email": "",
    "Latitude": -20.841587,
    "Longitude": -41.037652,
    "Numero_professores": 7,
    "Numero_alunos": null
  },
  {
    "Nome_escola": "EMEB ANACLETO RAMOS",
    "Endereco": "MARIO IMPERIAL, 02, FERROVIARIOS, 02",
    "Municipio": "Cachoeiro de Itapemirim",
    "CEP": "29308-014",
    "telefone": "",
    "email": "",
    "Latitude": -20.844319,
    "Longitude": -41.1128,
    "Numero_professores": 47,
    "Numero_alunos": null
  },
  {
    "Nome_escola": "EMEB ANISIO VIEIRA DE ALMEIDA RAMOS",
    "Endereco": "ANTONIO PEDRO CARLETO, 33, VILA RICA, 33",
    "Municipio": "Cachoeiro de Itapemirim",
    "CEP": "29301-200",
    "telefone": "",
    "email": "",
    "Latitude": -20.841023,
    "Longitude": -41.129311,
    "Numero_professores": 32,
    "Numero_alunos": null
  },
  {
    "Nome_escola": "EMEB AUREA BISPO DEPES",
    "Endereco": "DOUTOR OSIRIS ALMEIDA DE FREITAS, 59, VILA RICA, 59",
    "Municipio": "Cachoeiro de Itapemirim",
    "CEP": "29301-020",
    "telefone": "",
    "email": "",
    "Latitude": -20.839755,
    "Longitude": -41.127484,
    "Numero_professores": 49,
    "Numero_alunos": null
  },
  {
    "Nome_escola": "EMEB BERNARDINO MONTEIRO",
    "Endereco": "FRANCISCO MARTINS, 41, AMARELO, 41",
    "Municipio": "Cachoeiro de Itapemirim",
    "CEP": "29304-615",
    "telefone": "",
    "email": "",
    "Latitude": -20.859548,
    "Longitude": -41.118052,
    "Numero_professores": 18,
    "Numero_alunos": null
  },
  {
    "Nome_escola": "EMEB CARIM TANURE",
    "Endereco": "ALFREDO MARTINS AMARAL, 101, BAIMINAS, 101",
    "Municipio": "Cachoeiro de Itapemirim",
    "CEP": "29305-430",
    "telefone": "",
    "email": "",
    "Latitude": -20.860575,
    "Longitude": -41.102839,
    "Numero_professores": 13,
    "Numero_alunos": null
  },
  {
    "Nome_escola": "EMEB CAROLINA PASSOS GAIGHER",
    "Endereco": "JOSE REBELLO, 96, PREDIO, IBITIQUARA, 96",
    "Municipio": "Cachoeiro de Itapemirim",
    "CEP": "29307-178",
    "telefone": "",
    "email": "",
    "Latitude": -20.844804,
    "Longitude": -41.108859,
    "Numero_professores": 23,
    "Numero_alunos": null
  },
  {
    "Nome_escola": "EMEB CORREGO VERMELHO",
    "Endereco": "RUA JOSE FERNANDES, SN, CORREGO VERMELHO, SN",
    "Municipio": "Cachoeiro de Itapemirim",
    "CEP": "29325-000",
    "telefone": "",
    "email": "",
    "Latitude": -20.718177,
    "Longitude": -41.136541,
    "Numero_professores": 9,
    "Numero_alunos": null
  },
  {
    "Nome_escola": "EMEB DOLORES GONZALEZ VILLA",
    "Endereco": "RUA JULIO CERQUEIRA, S/N, S/N",
    "Municipio": "Cachoeiro de Itapemirim",
    "CEP": "29329-000",
    "telefone": "",
    "email": "",
    "Latitude": -20.674446,
    "Longitude": -41.205517,
    "Numero_professores": 14,
    "Numero_alunos": null
  },
  {
    "Nome_escola": "EMEB DR PEDRO NOLASCO TEIXEIRA REZENDE",
    "Endereco": "EDMUNDO DOS SANTOS, 60, 60, PARAÍSO, 60",
    "Municipio": "Cachoeiro de Itapemirim",
    "CEP": "29304-150",
    "telefone": "",
    "email": "",
    "Latitude": -20.86333,
    "Longitude": -41.123714,
    "Numero_professores": 24,
    "Numero_alunos": null
  },
  {
    "Nome_escola": "EMEB DRª RITA DE CASSIA VIEIRA VEREZA",
    "Endereco": "MARCIONILIO ALVES, 12, DOUTOR GILSON CARONE, 12",
    "Municipio": "Cachoeiro de Itapemirim",
    "CEP": "29310-562",
    "telefone": "",
    "email": "",
    "Latitude": -20.838602,
    "Longitude": -41.146873,
    "Numero_professores": 17,
    "Numero_alunos": null
  },
  {
    "Nome_escola": "EMEB ELISEU LOFEGO",
    "Endereco": "APOSTOLO MATEUS, 23, RUI PINTO BANDEIRA, 23",
    "Municipio": "Cachoeiro de Itapemirim",
    "CEP": "29315-802",
    "telefone": "",
    "email": "",
    "Latitude": -20.8386,
    "Longitude": -41.183016,
    "Numero_professores": 21,
    "Numero_alunos": null
  },
  {
    "Nome_escola": "EMEB GALDINO THEODORO DA SILVA",
    "Endereco": "VINCENZO TEDESCO, 16, ANTIGO PREDIO CAIC, JARDIM ITAPEMIRIM, 16",
    "Municipio": "Cachoeiro de Itapemirim",
    "CEP": "29315-717",
    "telefone": "",
    "email": "",
    "Latitude": -20.8549,
    "Longitude": -41.15301,
    "Numero_professores": 47,
    "Numero_alunos": null
  },
  {
    "Nome_escola": "EMEB GOVERNADOR EURICO VIEIRA DE RESENDE",
    "Endereco": "PROJETADA DOIS, 1, ZUMBI, 1",
    "Municipio": "Cachoeiro de Itapemirim",
    "CEP": "29302-059",
    "telefone": "",
    "email": "",
    "Latitude": -20.852759,
    "Longitude": -41.13067,
    "Numero_professores": 17,
    "Numero_alunos": null
  },
  {
    "Nome_escola": "EMEB HYLSEN DARCY PERIM",
    "Endereco": "RUA FERNANDO DE ABREU SN, 0, DISTRITO, BURARAMA, 0",
    "Municipio": "Cachoeiro de Itapemirim",
    "CEP": "29327-980",
    "telefone": "",
    "email": "",
    "Latitude": -20.680711,
    "Longitude": -41.347776,
    "Numero_professores": 14,
    "Numero_alunos": null
  },
  {
    "Nome_escola": "EMEB IRMA MARGARIDA",
    "Endereco": "LEONARDO MELLO DA SILVA, 15, ATRAS DO SUP, MONTE BELO, 15, ATRAS DO SUP.",
    "Municipio": "Cachoeiro de Itapemirim",
    "CEP": "29314-797",
    "telefone": "",
    "email": "",
    "Latitude": -20.876947,
    "Longitude": -41.103774,
    "Numero_professores": 12,
    "Numero_alunos": null
  },
  {
    "Nome_escola": "EMEB JACOMO SILOTTI",
    "Endereco": "RUA PAULO BABISKI, SNº, SNº",
    "Municipio": "Cachoeiro de Itapemirim",
    "CEP": "29321-000",
    "telefone": "",
    "email": "",
    "Latitude": -20.77111,
    "Longitude": -41.067145,
    "Numero_professores": 21,
    "Numero_alunos": null
  },
  {
    "Nome_escola": "EMEB JENNY GUARDIA",
    "Endereco": "JOAO SASSO, 662, ESCOLA, SAO GERALDO, 662",
    "Municipio": "Cachoeiro de Itapemirim",
    "CEP": "29314-650",
    "telefone": "",
    "email": "",
    "Latitude": -20.877268,
    "Longitude": -41.127501,
    "Numero_professores": 19,
    "Numero_alunos": null
  },
  {
    "Nome_escola": "EMEB JOSE ANTONIO COLOMBINI EGRANPHONTE",
    "Endereco": "CORINTO BARBOSA LIMA, S/N, URBANA, VILLAGE DA LUZ, S/N",
    "Municipio": "Cachoeiro de Itapemirim",
    "CEP": "29309-415",
    "telefone": "",
    "email": "",
    "Latitude": -20.821953,
    "Longitude": -41.119404,
    "Numero_professores": 25,
    "Numero_alunos": null
  },
  {
    "Nome_escola": "EMEB JOSE PINTO",
    "Endereco": "RUA PEDRO VIVACQUA, 0, 0",
    "Municipio": "Cachoeiro de Itapemirim",
    "CEP": "29325-000",
    "telefone": "",
    "email": "",
    "Latitude": -20.730682,
    "Longitude": -41.12923,
    "Numero_professores": 22,
    "Numero_alunos": null
  },