[
  {
    "Nome_escola": "Centro Municipal de Educacao Infantil Amaury Gomes",
    "Endereco": "AVENIDA IPIRANGA, 357, ESCOLA",
    "Municipio": "Afonso Cláudio",
    "CEP": "29600-000",
    "telefone": "",
    "email": "",
    "Latitude": -20.076134,
    "Longitude": -41.122745,
    "Numero_professores": 9,
    "Numero_alunos": 84
  },
  {
    "Nome_escola": "Centro Municipal de Educacao Infantil Dioclezio Tosta das Neves",
    "Endereco": "RUA FRANCISCO TOSTA, SN, PREDIO",
    "Municipio": "Afonso Cláudio",
    "CEP": "29609-000",
    "telefone": "",
    "email": "",
    "Latitude": -20.212581,
    "Longitude": -41.104456,
    "Numero_professores": 11,
    "Numero_alunos": 109
  },
  {
    "Nome_escola": "Centro Municipal de Educacao Infantil Ilma Henriques Vieira",
    "Endereco": "RUA WERNER RUCHDESCHEL, SN, VILA PONTOES",
    "Municipio": "Afonso Cláudio",
    "CEP": "29604-000",
    "telefone": "",
    "email": "",
    "Latitude": -20.201893,
    "Longitude": -41.045847,
    "Numero_professores": 12,
    "Numero_alunos": 87
  },
  {
    "Nome_escola": "Centro Municipal de Educacao Infantil Jair Giestas",
    "Endereco": "RUA UTE AMELIA GASTIN PADUA, 113",
    "Municipio": "Afonso Cláudio",
    "CEP": "29600-000",
    "telefone": "",
    "email": "",
    "Latitude": -20.075538,
    "Longitude": -41.127564,
    "Numero_professores": 11,
    "Numero_alunos": 149
  },
  {
    "Nome_escola": "Centro Municipal de Educacao Infantil Jovelino Ambrozim",
    "Endereco": "ESTRADA PRINCIPAL, S/N, SN, CENTRO, PIRACEMA",
    "Municipio": "Afonso Cláudio",
    "CEP": "29607-980",
    "telefone": "",
    "email": "",
    "Latitude": -20.184302,
    "Longitude": -41.192812,
    "Numero_professores": 13,
    "Numero_alunos": 90
  },
  {
    "Nome_escola": "Centro Municipal de Educacao Infantil Nestor Pinto de Aguiar",
    "Endereco": "AVENIDA LEVY DIAS DE CARVALHO, 00",
    "Municipio": "Afonso Cláudio",
    "CEP": "29603-000",
    "telefone": "",
    "email": "",
    "Latitude": -20.004048,
    "Longitude": -41.029034,
    "Numero_professores": 12,
    "Numero_alunos": 106
  },
  {
    "Nome_escola": "Centro Municipal de Educacao Infantil Rosinelma Batista Moreira",
    "Endereco": "RUA JOAO BATISTA DE ARAUJO, 225, RUA",
    "Municipio": "Afonso Cláudio",
    "CEP": "29600-000",
    "telefone": "",
    "email": "",
    "Latitude": -20.085244,
    "Longitude": -41.125609,
    "Numero_professores": 14,
    "Numero_alunos": 237
  },
  {
    "Nome_escola": "Centro Municipal de Educacao Infantil Sebastiao Pereira de Paula",
    "Endereco": "RUA ANA ANGELICA CORREA, SN",
    "Municipio": "Afonso Cláudio",
    "CEP": "29600-000",
    "telefone": "",
    "email": "",
    "Latitude": -20.08788,
    "Longitude": -41.11602,
    "Numero_professores": 12,
    "Numero_alunos": 161
  },
  {
    "Nome_escola": "Centro Municipal de Educacao Infantil o Sabidinho Francisco Costa",
    "Endereco": "RUA EGBERD BEHREND, 39",
    "Municipio": "Afonso Cláudio",
    "CEP": "29600-000",
    "telefone": "",
    "email": "",
    "Latitude": -20.062875,
    "Longitude": -41.112827,
    "Numero_professores": 10,
    "Numero_alunos": 170
  },
  {
    "Nome_escola": "Emeiefti Abrahao Saleme",
    "Endereco": "RUA ANTONIO SERAFIM, 311",
    "Municipio": "Afonso Cláudio",
    "CEP": "29600-000",
    "telefone": "",
    "email": "",
    "Latitude": -20.072287,
    "Longitude": -41.132473,
    "Numero_professores": 10,
    "Numero_alunos": 115
  },
  {
    "Nome_escola": "Emeiefti Fazenda Henrique Zambom",
    "Endereco": "FAZENDA HENRIQUE ZAMBOM, SN",
    "Municipio": "Afonso Cláudio",
    "CEP": "29600-000",
    "telefone": "",
    "email": "",
    "Latitude": -20.213633,
    "Longitude": -41.128046,
    "Numero_professores": 11,
    "Numero_alunos": 78
  },
  {
    "Nome_escola": "Emeiefti Fortaleza",
    "Endereco": "FAZENDA FORTALEZA, SN",
    "Municipio": "Afonso Cláudio",
    "CEP": "29600-000",
    "telefone": "",
    "email": "",
    "Latitude": -20.124942,
    "Longitude": -41.155733,
    "Numero_professores": 13,
    "Numero_alunos": 88
  },
  {
    "Nome_escola": "Escola Municipal de Educacao Infantil e Ensino Fundamental Agricola",
    "Endereco": "PARQUE DE EXPOSICAO DR. JOAO EUTROPIO, SN, PREDIO",
    "Municipio": "Afonso Cláudio",
    "CEP": "29600-000",
    "telefone": "",
    "email": "",
    "Latitude": -20.038416,
    "Longitude": -41.106767,
    "Numero_professores": 26,
    "Numero_alunos": 489
  },
  {
    "Nome_escola": "Escola Municipal de Educacao Infantil e Ensino Fundamental Arcanjo Tonoli Sobrinho",
    "Endereco": "ESTRADA ALTO LAGOA, SN",
    "Municipio": "Afonso Cláudio",
    "CEP": "29600-000",
    "telefone": "",
    "email": "",
    "Latitude": -20.070372,
    "Longitude": -41.002562,
    "Numero_professores": 5,
    "Numero_alunos": 39
  },
  {
    "Nome_escola": "Escola Municipal de Educacao Infantil e Ensino Fundamental Custodio Lopes da Rocha",
    "Endereco": "BR RIBEIRAO DE SAO PEDRO, SN, RIBEIRAO DE SAO PEDRO",
    "Municipio": "Afonso Cláudio",
    "CEP": "29604-000",
    "telefone": "",
    "email": "",
    "Latitude": -20.124854,
    "Longitude": -41.063225,
    "Numero_professores": 6,
    "Numero_alunos": 33
  },
  {
    "Nome_escola": "Escola Municipal de Educacao Infantil e Ensino Fundamental Duas Pedras",
    "Endereco": "CORREGO CORREGO SAO DOMINGOS, 00, MANGUEIRA",
    "Municipio": "Afonso Cláudio",
    "CEP": "29600-000",
    "telefone": "",
    "email": "",
    "Latitude": -19.94045,
    "Longitude": -41.198997,
    "Numero_professores": 4,
    "Numero_alunos": 18
  },
  {
    "Nome_escola": "Escola Municipal de Educacao Infantil e Ensino Fundamental Fazenda Julio Littig",
    "Endereco": "FAZENDA JULIO LITTIG, SN, FIRME",
    "Municipio": "Afonso Cláudio",
    "CEP": "29600-000",
    "telefone": "",
    "email": "",
    "Latitude": -20.072149,
    "Longitude": -41.174479,
    "Numero_professores": 4,
    "Numero_alunos": 39
  },
  {
    "Nome_escola": "Escola Municipal de Educacao Infantil e Ensino Fundamental Franz Carlos Joao Lemke",
    "Endereco": "CORREGO FRANCISCO CORREA, SN, ESCOLA",
    "Municipio": "Afonso Cláudio",
    "CEP": "29600-000",
    "telefone": "",
    "email": "",
    "Latitude": -20.082534,
    "Longitude": -40.977754,
    "Numero_professores": 15,
    "Numero_alunos": 258
  },
  {
    "Nome_escola": "Escola Municipal de Educacao Infantil e Ensino Fundamental Gumercindo Lacerda",
    "Endereco": "RUA PEDRO RIBEIRO, 177",
    "Municipio": "Afonso Cláudio",
    "CEP": "29600-000",
    "telefone": "",
    "email": "",
    "Latitude": -19.997491,
    "Longitude": -41.134108,
    "Numero_professores": 13,
    "Numero_alunos": 166
  },
  {
    "Nome_escola": "Escola Municipal de Educacao Infantil e Ensino Fundamental Patrimonio dos Goncalves",
    "Endereco": "BR IBICABA, SN",
    "Municipio": "Afonso Cláudio",
    "CEP": "29600-000",
    "telefone": "",
    "email": "",
    "Latitude": -20.010419,
    "Longitude": -41.236878,
    "Numero_professores": 5,
    "Numero_alunos": 33
  },
  {
    "Nome_escola": "Escola Municipal de Ensino Fundamental Alto Santa Joana",
    "Endereco": "BR MATA FRIA, SN",
    "Municipio": "Afonso Cláudio",
    "CEP": "29600-000",
    "telefone": "",
    "email": "",
    "Latitude": -20.096605,
    "Longitude": -41.013613,
    "Numero_professores": 3,
    "Numero_alunos": 18
  },
  {
    "Nome_escola": "Escola Municipal de Ensino Fundamental Alto Tabatinga",
    "Endereco": "FAZENDA GUANDU, SN",
    "Municipio": "Afonso Cláudio",
    "CEP": "29609-000",
    "telefone": "",
    "email": "",
    "Latitude": -20.211056,
    "Longitude": -41.079997,
    "Numero_professores": 5,
    "Numero_alunos": 38
  },
  {
    "Nome_escola": "Escola Municipal de Ensino Fundamental Arrependido",
    "Endereco": "ZONA RURAL, SN",
    "Municipio": "Afonso Cláudio",
    "CEP": "29600-000",
    "telefone": "",
    "email": "",
    "Latitude": -20.069612,
    "Longitude": -41.071616,
    "Numero_professores": 4,
    "Numero_alunos": 38
  },
  {
    "Nome_escola": "Escola Municipal de Ensino Fundamental Augusta Lamas Davila",
    "Endereco": "AVENIDA PRESIDENTE VARGAS, 35",
    "Municipio": "Afonso Cláudio",
    "CEP": "29600-000",
    "telefone": "",
    "email": "",
    "Latitude": -20.073668,
    "Longitude": -41.123908,
    "Numero_professores": 13,
    "Numero_alunos": 285
  },
  {
    "Nome_escola": "Escola Municipal de Ensino Fundamental Fazenda Carlos Hackbart",
    "Endereco": "CORREGO DAS FLORES, SN, EST SERRA PELADA",
    "Municipio": "Afonso Cláudio",
    "CEP": "29600-000",
    "telefone": "",
    "email": "",
    "Latitude": -20.00119,
    "Longitude": -40.998257,
    "Numero_professores": 3,
    "Numero_alunos": 12
  },
  {
    "Nome_escola": "Escola Municipal de Ensino Fundamental Fazenda Santo Antonio",
    "Endereco": "FAZENDA SANTO ANTONIO, SN",
    "Municipio": "Afonso Cláudio",
    "CEP": "29604-000",
    "telefone": "",
    "email": "",
    "Latitude": -20.148994,
    "Longitude": -41.050871,
    "Numero_professores": 5,
    "Numero_alunos": 38
  },
  {
    "Nome_escola": "Escola Municipal de Ensino Fundamental Hilda Correa Lemos",
    "Endereco": "RUA JOSE CORREA DE OLIVEIRA, SN",
    "Municipio": "Afonso Cláudio",
    "CEP": "29600-000",
    "telefone": "",
    "email": "",
    "Latitude": -20.086298,
    "Longitude": -41.121639,
    "Numero_professores": 7,
    "Numero_alunos": 102
  },
  {
    "Nome_escola": "Escola Municipal de Ensino Fundamental Idolino da Fonseca Lamas",
    "Endereco": "AVENIDA INACIO LAMAS, 129",
    "Municipio": "Afonso Cláudio",
    "CEP": "29600-000",
    "telefone": "",
    "email": "",
    "Latitude": -20.067276,
    "Longitude": -41.116205,
    "Numero_professores": 11,
    "Numero_alunos": 191
  },
  {
    "Nome_escola": "Escola Municipal de Ensino Fundamental Jose Jorge Haddad",
    "Endereco": "RUA FELICIO PEREIRA DE SOUZA, 704, ESCOLA, SAO VICENTE",
    "Municipio": "Afonso Cláudio",
    "CEP": "29600-000",
    "telefone": "",
    "email": "",
    "Latitude": -20.08144,
    "Longitude": -41.12908,
    "Numero_professores": 24,
    "Numero_alunos": 401
  },
  {
    "Nome_escola": "Escola Municipal de Ensino Fundamental Sao Luiz de Boa Sorte",
    "Endereco": "BR SAO LUIS DE BOA SORTE, SN",
    "Municipio": "Afonso Cláudio",
    "CEP": "29600-000",
    "telefone": "",
    "email": "",
    "Latitude": -20.166443,
    "Longitude": -41.098461,
    "Numero_professores": 4,
    "Numero_alunos": 10
  },
  {
    "Nome_escola": "Cemei Carmem Pinto Nogueira da Gama",
    "Endereco": "RUA ANTONIO LEMOS BARBOSA, S/N",
    "Municipio": "Alegre",
    "CEP": "29500-000",
    "telefone": "",
    "email": "",
    "Latitude": -20.77196,
    "Longitude": -41.53472,
    "Numero_professores": 12,
    "Numero_alunos": 77
  },
  {
    "Nome_escola": "Cemei Fatinha Barbosa",
    "Endereco": "RUA JOAO BRAVO, S/N",
    "Municipio": "Alegre",
    "CEP": "29500-000",
    "telefone": "",
    "email": "",
    "Latitude": -20.753433,
    "Longitude": -41.531318,
    "Numero_professores": 10,
    "Numero_alunos": 50
  },
  {
    "Nome_escola": "Cemei Maria Bittencourt da Rosa",
    "Endereco": "RUA EMPERILIO DE SOUZA MOREIRA, SN",
    "Municipio": "Alegre",
    "CEP": "29510-000",
    "telefone": "",
    "email": "",
    "Latitude": -20.762892,
    "Longitude": -41.59453,
    "Numero_professores": 8,
    "Numero_alunos": 78
  },
  {
    "Nome_escola": "Cemei Maria Geralda Guerra Jaccoud",
    "Endereco": "RUA PEDRO CLEMENTE NOGUEIRA, 210",
    "Municipio": "Alegre",
    "CEP": "29500-000",
    "telefone": "",
    "email": "",
    "Latitude": -20.767635,
    "Longitude": -41.544142,
    "Numero_professores": 13,
    "Numero_alunos": 66
  },
  {
    "Nome_escola": "Cemei Paulo Amoacy Braganca",
    "Endereco": "RUA PEDRO ASSIS",
    "Municipio": "Alegre",
    "CEP": "29535-000",
    "telefone": "",
    "email": "",
    "Latitude": -20.592703,
    "Longitude": -41.55611,
    "Numero_professores": 8,
    "Numero_alunos": 54
  },
  {
    "Nome_escola": "Cemei Prof Candida Filgueiras",
    "Endereco": "RUA JOAO MIRANDA AMORIM, SN, ANUTIBA",
    "Municipio": "Alegre",
    "CEP": "29530-000",
    "telefone": "",
    "email": "",
    "Latitude": -20.611202,
    "Longitude": -41.451112,
    "Numero_professores": 9,
    "Numero_alunos": 66
  },
  {
    "Nome_escola": "Cemei Tereza Fiorezzi de Oliveira",
    "Endereco": "ARISTIDES MONTEIRO DA SILVA, SN",
    "Municipio": "Alegre",
    "CEP": "29500-000",
    "telefone": "",
    "email": "",
    "Latitude": -20.763243,
    "Longitude": -41.532717,
    "Numero_professores": 8,
    "Numero_alunos": 72
  },
  {
    "Nome_escola": "Cemei Tio Teotonio Barbosa",
    "Endereco": "RUA SENADOR ROBERT KENNEDY, 52, -",
    "Municipio": "Alegre",
    "CEP": "29500-000",
    "telefone": "",
    "email": "",
    "Latitude": -20.758226,
    "Longitude": -41.539209,
    "Numero_professores": 14,
    "Numero_alunos": 91
  },
  {
    "Nome_escola": "Cemei Vanor do Nascimento",
    "Endereco": "RUA CARLOS CAIADO BARBOSA",
    "Municipio": "Alegre",
    "CEP": "29520-000",
    "telefone": "",
    "email": "",
    "Latitude": -20.758213,
    "Longitude": -41.459038,
    "Numero_professores": 8,
    "Numero_alunos": 107
  },
  {
    "Nome_escola": "Ciec Jaci Kobbi Rodrigues",
    "Endereco": "RUA ACACIO DE OLIVEIRA LEAL, 185",
    "Municipio": "Alegre",
    "CEP": "29510-000",
    "telefone": "",
    "email": "",
    "Latitude": -20.768235,
    "Longitude": -41.593888,
    "Numero_professores": 11,
    "Numero_alunos": 270
  },
  {
    "Nome_escola": "Emeif Maria do Carmo Tiradentes",
    "Endereco": "RUA HOMERO MARTINS THIEBAUT, SN",
    "Municipio": "Alegre",
    "CEP": "29515-000",
    "telefone": "",
    "email": "",
    "Latitude": -20.870975,
    "Longitude": -41.572035,
    "Numero_professores": 9,
    "Numero_alunos": 109
  },
  {
    "Nome_escola": "Emeif Prof Domingos Bravo Reinoso",
    "Endereco": "RUA ANTONIO LEMOS BARBOSA, SN",
    "Municipio": "Alegre",
    "CEP": "29500-000",
    "telefone": "",
    "email": "",
    "Latitude": -20.772027,
    "Longitude": -41.534372,
    "Numero_professores": 19,
    "Numero_alunos": 384
  },
  {
    "Nome_escola": "Emeif Ruth Alice",
    "Endereco": "RUA JOSE FELIPE DA SILVA, 205, CENTRO",
    "Municipio": "Alegre",
    "CEP": "29500-000",
    "telefone": "",
    "email": "",
    "Latitude": -20.757555,
    "Longitude": -41.536293,
    "Numero_professores": 24,
    "Numero_alunos": 427
  },
  {
    "Nome_escola": "Emfa George Abreu Rangel",
    "Endereco": "ROSEIRA",
    "Municipio": "Alegre",
    "CEP": "29500-000",
    "telefone": "",
    "email": "",
    "Latitude": -20.872224,
    "Longitude": -41.532259,
    "Numero_professores": 6,
    "Numero_alunos": 53
  },
  {
    "Nome_escola": "Emfa Ziolita Maria da Silveira",
    "Endereco": "ASSENTAMENTO FLORESTA, S/N",
    "Municipio": "Alegre",
    "CEP": "29500-000",
    "telefone": "",
    "email": "",
    "Latitude": -20.686927,
    "Longitude": -41.580258,
    "Numero_professores": 1,
    "Numero_alunos": 19
  },
  {
    "Nome_escola": "Escola Municipal Unidocente de Ensino Fundamental Fazenda Bom Ver",
    "Endereco": "FAZENDA BOM VER, S/N, ZONA RURAL",
    "Municipio": "Alegre",
    "CEP": "29500-000",
    "telefone": "",
    "email": "",
    "Latitude": -20.867408,
    "Longitude": -41.483415,
    "Numero_professores": 1,
    "Numero_alunos": 17
  },
  {
    "Nome_escola": "Escola Municipal Unidocente de Ensino Fundamental Feliz Lembranca",
    "Endereco": "FELIZ LEMBRANCA, ZONA RURAL",
    "Municipio": "Alegre",
    "CEP": "29500-000",
    "telefone": "",
    "email": "",
    "Latitude": -20.795907,
    "Longitude": -41.507832,
    "Numero_professores": 1,
    "Numero_alunos": 11
  },
  {
    "Nome_escola": "Escola Municipal Unidocente de Ensino Fundamental Guido Mauri",
    "Endereco": "LAGOA SECA, ZONA RURAL",
    "Municipio": "Alegre",
    "CEP": "29500-000",
    "telefone": "",
    "email": "",
    "Latitude": -20.87287,
    "Longitude": -41.46567,
    "Numero_professores": 1,
    "Numero_alunos": 16
  },
  {
    "Nome_escola": "Escola Municipal de Ensino Fundamental Athaydes Alves de Assis",
    "Endereco": "RUA HUGO FURTADO, S N",
    "Municipio": "Alegre",
    "CEP": "29500-000",
    "telefone": "",
    "email": "",
    "Latitude": -20.761955,
    "Longitude": -41.532017,
    "Numero_professores": 7,
    "Numero_alunos": 72
  },
  {
    "Nome_escola": "Escola Municipal de Ensino Fundamental Carmelita Machado Moraes",
    "Endereco": "PRACA GOVERNADOR JOSE MORAES, S/Nº, SANTA ANGELICA",
    "Municipio": "Alegre",
    "CEP": "29525-000",
    "telefone": "",
    "email": "",
    "Latitude": -20.691426,
    "Longitude": -41.454802,
    "Numero_professores": 5,
    "Numero_alunos": 67
  },
  {
    "Nome_escola": "Escola Municipal de Ensino Fundamental Professor Lellis",
    "Endereco": "RUA BELO AMORIM, 100, 2º ANDAR",
    "Municipio": "Alegre",
    "CEP": "29500-000",
    "telefone": "",
    "email": "",
    "Latitude": -20.757614,
    "Longitude": -41.536628,
    "Numero_professores": 17,
    "Numero_alunos": 327
  },
  {
    "Nome_escola": "Centro Municipal de Educacao Infantil Infancia Feliz",
    "Endereco": "RUA JOSE VILELA, 98, SAGRADA FAMILIA, SAGRADA FAMILIA",
    "Municipio": "Alfredo Chaves",
    "CEP": "29240-000",
    "telefone": "",
    "email": "",
    "Latitude": -20.579862,
    "Longitude": -40.699147,
    "Numero_professores": 9,
    "Numero_alunos": 38
  },
  {
    "Nome_escola": "Centro Municipal de Educacao Infantil Jose de Anchieta",
    "Endereco": "RUA JOSE ANTONIO BONELLA, 0, LOTEAMENTO, VILLAGIO",
    "Municipio": "Alfredo Chaves",
    "CEP": "29240-000",
    "telefone": "",
    "email": "",
    "Latitude": -20.637262,
    "Longitude": -40.747408,
    "Numero_professores": 16,
    "Numero_alunos": 211
  },
  {
    "Nome_escola": "Escola Municipal Unidocente de Ensino Fundamental Boa Vista",
    "Endereco": "BOA VISTA, S/N, ZONA RURAL",
    "Municipio": "Alfredo Chaves",
    "CEP": "29240-000",
    "telefone": "",
    "email": "",
    "Latitude": -20.667093,
    "Longitude": -40.787871,
    "Numero_professores": 1,
    "Numero_alunos": 8
  },
  {
    "Nome_escola": "Escola Municipal Unidocente de Ensino Fundamental Quarto Territorio",
    "Endereco": "QUARTO TERRITORIO, S/N, ZONA RURAL, QUARTO TERRITORIO",
    "Municipio": "Alfredo Chaves",
    "CEP": "29240-000",
    "telefone": "",
    "email": "",
    "Latitude": -20.65369,
    "Longitude": -40.808792,
    "Numero_professores": 1,
    "Numero_alunos": 5
  },
  {
    "Nome_escola": "Escola Municipal Unidocente de Ensino Fundamental Sao Martinho",
    "Endereco": "SAO MARTINHO, S/N, ZONA RURAL, RIBEIRAO DO CRISTO",
    "Municipio": "Alfredo Chaves",
    "CEP": "29240-000",
    "telefone": "",
    "email": "",
    "Latitude": -20.520539,
    "Longitude": -40.777237,
    "Numero_professores": 2,
    "Numero_alunos": 12
  },
  {
    "Nome_escola": "Escola Municipal Unidocente de Ensino Fundamental Vila Nova de Maravilha",
    "Endereco": "VILA NOVA DE MARAVILHA, S/N, ZONA RURAL, MATILDE",
    "Municipio": "Alfredo Chaves",
    "CEP": "29240-000",
    "telefone": "",
    "email": "",
    "Latitude": -20.587551,
    "Longitude": -40.949321,
    "Numero_professores": 2,
    "Numero_alunos": 24
  },
  {
    "Nome_escola": "Escola Municipal Unidocente de Ensino Fundamental Vila Nova do Ribeirao",
    "Endereco": "VILA NOVA DO RIBEIRAO, S/N, ZONA RURAL, RIBEIRAO DO CRISTO",
    "Municipio": "Alfredo Chaves",
    "CEP": "29240-000",
    "telefone": "",
    "email": "",
    "Latitude": -20.566553,
    "Longitude": -40.765728,
    "Numero_professores": 1,
    "Numero_alunos": 14
  },
  {
    "Nome_escola": "Escola Municipal de Educacao Infantil Algodao Doce",
    "Endereco": "VILA NOVA DE MARAVILHA, S/N, ZONA RURAL",
    "Municipio": "Alfredo Chaves",
    "CEP": "29240-000",
    "telefone": "",
    "email": "",
    "Latitude": -20.613572,
    "Longitude": -40.885157,
    "Numero_professores": 1,
    "Numero_alunos": 13
  },
  {
    "Nome_escola": "Escola Municipal de Educacao Infantil Arco Iris",
    "Endereco": "NOVA MANTUA, SN, NOVA MANTUA",
    "Municipio": "Alfredo Chaves",
    "CEP": "29240-000",
    "telefone": "",
    "email": "",
    "Latitude": -20.645195,
    "Longitude": -40.828332,
    "Numero_professores": 3,
    "Numero_alunos": 11
  },
  {
    "Nome_escola": "Escola Municipal de Educacao Infantil Bambino",
    "Endereco": "RUA PRINCIPAL, S/Nº, CRUBIXA, SAO JOAO DE CRUBIXA",
    "Municipio": "Alfredo Chaves",
    "CEP": "29240-000",
    "telefone": "",
    "email": "",
    "Latitude": -20.641718,
    "Longitude": -40.8672,
    "Numero_professores": 4,
    "Numero_alunos": 18
  },
  {
    "Nome_escola": "Escola Municipal de Educacao Infantil Comecinho de Gente",
    "Endereco": "AVENIDA DARCY DE PAULA GAIGHER, 195, CACHOEIRINHA",
    "Municipio": "Alfredo Chaves",
    "CEP": "29240-000",
    "telefone": "",
    "email": "",
    "Latitude": -20.630249,
    "Longitude": -40.763085,
    "Numero_professores": 11,
    "Numero_alunos": 59
  },
  {
    "Nome_escola": "Escola Municipal de Educacao Infantil Gente Miuda",
    "Endereco": "RUA PRINCIPAL,S/N,APARECIDA, S/N, APARECIDA, RIBEIRAO DO CRISTO",
    "Municipio": "Alfredo Chaves",
    "CEP": "29240-000",
    "telefone": "",
    "email": "",
    "Latitude": -20.451139,
    "Longitude": -40.689652,
    "Numero_professores": 3,
    "Numero_alunos": 15
  },
  {
    "Nome_escola": "Escola Municipal de Educacao Infantil Pequeno Polegar",
    "Endereco": "IBITIRUI, SN, IBITIRUI",
    "Municipio": "Alfredo Chaves",
    "CEP": "29240-000",
    "telefone": "",
    "email": "",
    "Latitude": -20.601572,
    "Longitude": -40.860007,
    "Numero_professores": 3,
    "Numero_alunos": 11
  },
  {
    "Nome_escola": "Escola Municipal de Educacao Infantil Pequeno Principe",
    "Endereco": "SAO BENTO DE URANIA, SN, SAO BENTO DE URANIA, SAO BENTO DE URANIA",
    "Municipio": "Alfredo Chaves",
    "CEP": "29246-000",
    "telefone": "",
    "email": "",
    "Latitude": -20.472378,
    "Longitude": -40.919208,
    "Numero_professores": 3,
    "Numero_alunos": 19
  },
  {
    "Nome_escola": "Escola Municipal de Educacao Infantil Pequerruchos",
    "Endereco": "RUA ANTONIO CLAUDIO GAIGHER, 19, PARQUE RESIDENCIAL DE ALFREDO CHAVES",
    "Municipio": "Alfredo Chaves",
    "CEP": "29240-000",
    "telefone": "",
    "email": "",
    "Latitude": -20.640991,
    "Longitude": -40.750537,
    "Numero_professores": 17,
    "Numero_alunos": 141
  },
  {
    "Nome_escola": "Escola Municipal de Ensino Fundamental Ana Araujo",
    "Endereco": "RUA EXPEDICIONARIO OSWALDO SAUDINO, 963, CENTRO, CENTRO",
    "Municipio": "Alfredo Chaves",
    "CEP": "29240-000",
    "telefone": "",
    "email": "",
    "Latitude": -20.635165,
    "Longitude": -40.753121,
    "Numero_professores": 42,
    "Numero_alunos": 794
  },
  {
    "Nome_escola": "Escola Municipal de Ensino Fundamental Celita Bastos Garcia",
    "Endereco": "NOVA MANTUA, SN, NOVA MANTUA, SAO JOAO DE CRUBIXA",
    "Municipio": "Alfredo Chaves",
    "CEP": "29240-000",
    "telefone": "",
    "email": "",
    "Latitude": -20.645202,
    "Longitude": -40.828314,
    "Numero_professores": 8,
    "Numero_alunos": 20
  },
  {
    "Nome_escola": "Escola Municipal de Ensino Fundamental Crubixa",
    "Endereco": "RUA PRINCIPAL, S/Nº, SAO JOAO, SAO JOAO DE CRUBIXA",
    "Municipio": "Alfredo Chaves",
    "CEP": "29240-000",
    "telefone": "",
    "email": "",
    "Latitude": -20.641693,
    "Longitude": -40.867302,
    "Numero_professores": 11,
    "Numero_alunos": 61
  },
  {
    "Nome_escola": "Escola Municipal de Ensino Fundamental Engano",
    "Endereco": "IBITIRUI, ALFREDO CHAVES-ES, SN, IBITIRUI, IBITIRUI",
    "Municipio": "Alfredo Chaves",
    "CEP": "29240-000",
    "telefone": "",
    "email": "",
    "Latitude": -20.602952,
    "Longitude": -40.861767,
    "Numero_professores": 10,
    "Numero_alunos": 65
  },
  {
    "Nome_escola": "Escola Municipal de Ensino Fundamental Fazenda Aparecida",
    "Endereco": "RUA PRINCIPAL,S/N, APARECIDA, S/N, RIBEIRAO DO CRISTO, RIBEIRAO DO CRISTO",
    "Municipio": "Alfredo Chaves",
    "CEP": "29240-000",
    "telefone": "",
    "email": "",
    "Latitude": -20.451185,
    "Longitude": -40.689756,
    "Numero_professores": 12,
    "Numero_alunos": 91
  },
  {
    "Nome_escola": "Escola Municipal de Ensino Fundamental Felipe Modolo",
    "Endereco": "AVENIDA JOSE MARIA CAMILETI, SN, MATILDE",
    "Municipio": "Alfredo Chaves",
    "CEP": "29240-000",
    "telefone": "",
    "email": "",
    "Latitude": -20.553932,
    "Longitude": -40.814903,
    "Numero_professores": 13,
    "Numero_alunos": 159
  },
  {
    "Nome_escola": "Escola Municipal de Ensino Fundamental Sagrada Familia",
    "Endereco": "RUA AGOSTINHO BRUSCHI, S/Nº, SAGRADA FAMILIA, SAGRADA FAMILIA",
    "Municipio": "Alfredo Chaves",
    "CEP": "29240-000",
    "telefone": "",
    "email": "",
    "Latitude": -20.579273,
    "Longitude": -40.697733,
    "Numero_professores": 11,
    "Numero_alunos": 45
  },
  {
    "Nome_escola": "Escola Municipal de Ensino Fundamental Sao Bento de Urania",
    "Endereco": "SAO BENTO DE URANIA, SN",
    "Municipio": "Alfredo Chaves",
    "CEP": "29246-000",
    "telefone": "",
    "email": "",
    "Latitude": -20.472328,
    "Longitude": -40.919128,
    "Numero_professores": 10,
    "Numero_alunos": 77
  },
  {
    "Nome_escola": "Escola Municipal de Ensino Infantil Chapeuzinho Vermelho",
    "Endereco": "AVENIDA JOSE MARIA CAMILETI, SN, MATILDE",
    "Municipio": "Alfredo Chaves",
    "CEP": "29240-000",
    "telefone": "",
    "email": "",
    "Latitude": -20.554077,
    "Longitude": -40.815083,
    "Numero_professores": 5,
    "Numero_alunos": 35
  },
  {
    "Nome_escola": "Centro Municipal de Educacao Infantil Gilda Aggum Capettini",
    "Endereco": "MONTE CARMELO, RUA PROJETADA",
    "Municipio": "Alto Rio Novo",
    "CEP": "29760-000",
    "telefone": "",
    "email": "",
    "Latitude": -19.068479,
    "Longitude": -40.96738,
    "Numero_professores": 1,
    "Numero_alunos": 11
  },
  {
    "Nome_escola": "Centro Municipal de Educacao Infantil Maria Venancio Amorim",
    "Endereco": "RUA PEDRO LUCILIO EVANGELISTA, 08",
    "Municipio": "Alto Rio Novo",
    "CEP": "29760-000",
    "telefone": "",
    "email": "",
    "Latitude": -19.06018,
    "Longitude": -41.02017,
    "Numero_professores": 13,
    "Numero_alunos": 173
  },
  {
    "Nome_escola": "Emefti Professor Arteme Lopes",
    "Endereco": "RUA PEDRO LUCILIO EVANGELISTA, 79",
    "Municipio": "Alto Rio Novo",
    "CEP": "29760-000",
    "telefone": "",
    "email": "",
    "Latitude": -19.060485,
    "Longitude": -41.02139,
    "Numero_professores": 8,
    "Numero_alunos": 147
  },
  {
    "Nome_escola": "Emeiefti Profª Maria Rodrigues de Freitas",
    "Endereco": "RUA JOSE SOUZA NUNES, S/Nº, ESCOLA",
    "Municipio": "Alto Rio Novo",
    "CEP": "29760-000",
    "telefone": "",
    "email": "",
    "Latitude": -18.957387,
    "Longitude": -40.974401,
    "Numero_professores": 7,
    "Numero_alunos": 106
  },
  {
    "Nome_escola": "Epmeief Alto Capim",
    "Endereco": "CORREGO ALTO CAPIM",
    "Municipio": "Alto Rio Novo",
    "CEP": "29760-000",
    "telefone": "",
    "email": "",
    "Latitude": -18.957631,
    "Longitude": -41.034152,
    "Numero_professores": 3,
    "Numero_alunos": 39
  },
  {
    "Nome_escola": "Epmeief Corrego Sao Paulo",
    "Endereco": "CORREGO SAO PAULO",
    "Municipio": "Alto Rio Novo",
    "CEP": "29760-000",
    "telefone": "",
    "email": "",
    "Latitude": -19.031697,
    "Longitude": -41.032066,
    "Numero_professores": 2,
    "Numero_alunos": 22
  },
  {
    "Nome_escola": "Escola Municipal de Educacao Infantil Armezina do Amaral Ramos",
    "Endereco": "RUA MANOEL CLEMENTE BRUM, 45, SANTA BRBARA",
    "Municipio": "Alto Rio Novo",
    "CEP": "29760-000",
    "telefone": "",
    "email": "",
    "Latitude": -19.059491,
    "Longitude": -41.016121,
    "Numero_professores": 5,
    "Numero_alunos": 99
  },
  {
    "Nome_escola": "Escola Municipal de Educacao Infantil e Ensino Fundamental Vereador Rubens Ramiro da Silva",
    "Endereco": "RUA LAURENTINO FRANCISCO DE PAULA, DISTRITO MC",
    "Municipio": "Alto Rio Novo",
    "CEP": "29760-000",
    "telefone": "",
    "email": "",
    "Latitude": -19.069299,
    "Longitude": -40.969037,
    "Numero_professores": 6,
    "Numero_alunos": 84
  },
  {
    "Nome_escola": "Escola Municipal de Ensino Fundamental Gustavo Ambrust",
    "Endereco": "RUA MANOEL CLEMENTE BRUM, 84",
    "Municipio": "Alto Rio Novo",
    "CEP": "29760-000",
    "telefone": "",
    "email": "",
    "Latitude": -19.054678,
    "Longitude": -41.014902,
    "Numero_professores": 13,
    "Numero_alunos": 257
  },
  {
    "Nome_escola": "Cemei Sara Almeida Lima",
    "Endereco": "RUA ESPIRITO SANTO",
    "Municipio": "Anchieta",
    "CEP": "29230-000",
    "telefone": "",
    "email": "",
    "Latitude": -20.795177,
    "Longitude": -40.60243,
    "Numero_professores": 21,
    "Numero_alunos": 100
  },
  {
    "Nome_escola": "Centro Municipal de Educacao Infantil Belmiro Alberto Alpoim",
    "Endereco": "RUA DIOGENES COSTA, SN, PREDIO, IRIRI",
    "Municipio": "Anchieta",
    "CEP": "29230-000",
    "telefone": "",
    "email": "",
    "Latitude": -20.829419,
    "Longitude": -40.692702,
    "Numero_professores": 21,
    "Numero_alunos": 174
  },
  {
    "Nome_escola": "Centro Municipal de Educacao Infantil Enide Correa Guaitolini",
    "Endereco": "RUA HELENA MEDEIROS, S/Nº",
    "Municipio": "Anchieta",
    "CEP": "29230-000",
    "telefone": "",
    "email": "",
    "Latitude": -20.764385,
    "Longitude": -40.575303,
    "Numero_professores": 21,
    "Numero_alunos": 126
  },
  {
    "Nome_escola": "Centro Municipal de Educacao Infantil Padre Jose de Anchieta",
    "Endereco": "RUA SERGIO CORREA DE JESUS, 84, NOVA JERUSALEM",
    "Municipio": "Anchieta",
    "CEP": "29230-000",
    "telefone": "",
    "email": "",
    "Latitude": -20.79336,
    "Longitude": -40.636661,
    "Numero_professores": 30,
    "Numero_alunos": 182
  },
  {
    "Nome_escola": "Emeb Alcides Ceccon",
    "Endereco": "RUA ACACIO OLIVEIRA, 132/144, PRAIA DOS CASTELHANOS",
    "Municipio": "Anchieta",
    "CEP": "29230-000",
    "telefone": "",
    "email": "",
    "Latitude": -20.830784,
    "Longitude": -40.621894,
    "Numero_professores": 18,
    "Numero_alunos": 204
  },
  {
    "Nome_escola": "Emeb Amarilis Fernandes Garcia",
    "Endereco": "AV. RAUTA, 1257, ALVORADA",
    "Municipio": "Anchieta",
    "CEP": "29230-000",
    "telefone": "",
    "email": "",
    "Latitude": -20.808381,
    "Longitude": -40.638769,
    "Numero_professores": 58,
    "Numero_alunos": 732
  },
  {
    "Nome_escola": "Emeb Duas Barras",
    "Endereco": "ESTRADA DE SAO MIGUEL, S/N, DUAS BARRAS",
    "Municipio": "Anchieta",
    "CEP": "29230-000",
    "telefone": "",
    "email": "",
    "Latitude": -20.6251,
    "Longitude": -40.660903,
    "Numero_professores": 15,
    "Numero_alunos": 101
  },
  {
    "Nome_escola": "Emeb Dulcinea Silva Lyrio Rupf",
    "Endereco": "RUA SAO VICENTE, S/N, CASA, PONTA DOS CASTELHANOS",
    "Municipio": "Anchieta",
    "CEP": "29230-000",
    "telefone": "",
    "email": "",
    "Latitude": -20.81346,
    "Longitude": -40.634023,
    "Numero_professores": 16,
    "Numero_alunos": 59
  },
  {
    "Nome_escola": "Emeb Josefina Ramos Nunes - Dona Mulata",
    "Endereco": "RODOVIA DO SOL - Nº 7.139 - BLOCO 01, Nº 7.139, ESCOLA, NOVO HORIZONTE",
    "Municipio": "Anchieta",
    "CEP": "29230-000",
    "telefone": "",
    "email": "",
    "Latitude": -20.807296,
    "Longitude": -40.661696,
    "Numero_professores": 33,
    "Numero_alunos": 321
  },
  {
    "Nome_escola": "Emeb Limeira",
    "Endereco": "RUA PROJETADA, S/Nº, LIMEIRA",
    "Municipio": "Anchieta",
    "CEP": "29230-000",
    "telefone": "",
    "email": "",
    "Latitude": -20.696373,
    "Longitude": -40.677376,
    "Numero_professores": 13,
    "Numero_alunos": 98
  },
  {
    "Nome_escola": "Emeb Mariana da Purificacao Simoes",
    "Endereco": "ZONA RURAL, S/Nº, BELO HORIZONTE",
    "Municipio": "Anchieta",
    "CEP": "29230-000",
    "telefone": "",
    "email": "",
    "Latitude": -20.74175,
    "Longitude": -40.609346,
    "Numero_professores": 5,
    "Numero_alunos": 36
  },
  {
    "Nome_escola": "Emeb Professora Patricia Fernandes Roffes",
    "Endereco": "RUA DAS GABIROBAS, 84, NOVA ESPERANCA",
    "Municipio": "Anchieta",
    "CEP": "29230-000",
    "telefone": "",
    "email": "",
    "Latitude": -20.800075,
    "Longitude": -40.641981,
    "Numero_professores": 34,
    "Numero_alunos": 403
  },
  {
    "Nome_escola": "Emeb Tia Marlene Petri",
    "Endereco": "AVENIDA VIRGILIO LORENCINI, S/Nº, ZONA RURAL",
    "Municipio": "Anchieta",
    "CEP": "29230-000",
    "telefone": "",
    "email": "",
    "Latitude": -20.730309,
    "Longitude": -40.777567,
    "Numero_professores": 15,
    "Numero_alunos": 154
  },
  {
    "Nome_escola": "Emeiefm Profª Zuleika Flores da Purificacao",
    "Endereco": "RUA BEIRA CAMPO, SN, AO LADO DO CAMPO, JABAQUARA",
    "Municipio": "Anchieta",
    "CEP": "29230-000",
    "telefone": "",
    "email": "",
    "Latitude": -20.696478,
    "Longitude": -40.677443,
    "Numero_professores": 14,
    "Numero_alunos": 149
  },
  {
    "Nome_escola": "Escola Municipal de Educacao Infantil e Ensino Fundamental Alipio Porto da Silva",
    "Endereco": "ZONA RURAL, S/Nº, EMBOACICA",
    "Municipio": "Anchieta",
    "CEP": "29230-000",
    "telefone": "",
    "email": "",
    "Latitude": -20.746573,
    "Longitude": -40.709864,
    "Numero_professores": 3,
    "Numero_alunos": 6
  },
  {
    "Nome_escola": "Escola Municipal de Educacao Infantil e Ensino Fundamental Corrego da Prata",
    "Endereco": "ZONA RURAL, S/Nº, CORREGO DA PRATA",
    "Municipio": "Anchieta",
    "CEP": "29230-000",
    "telefone": "",
    "email": "",
    "Latitude": -20.740156,
    "Longitude": -40.787892,
    "Numero_professores": 7,
    "Numero_alunos": 47
  },
  {
    "Nome_escola": "Escola Municipal de Educacao Infantil e Ensino Fundamental Elson Garcia",
    "Endereco": "RUA JOSE RIBEIRO MUQUI, 627, ESCOLA, UBU",
    "Municipio": "Anchieta",
    "CEP": "29230-000",
    "telefone": "",
    "email": "",
    "Latitude": -20.801431,
    "Longitude": -40.588852,
    "Numero_professores": 25,
    "Numero_alunos": 178
  },
  {
    "Nome_escola": "Escola Municipal de Educacao Infantil e Ensino Fundamental Esmeralda Moraca",
    "Endereco": "RUA DA CURVINA, 84",
    "Municipio": "Anchieta",
    "CEP": "29230-000",
    "telefone": "",
    "email": "",
    "Latitude": -20.818344,
    "Longitude": -40.623869,
    "Numero_professores": 12,
    "Numero_alunos": 95
  },
  {
    "Nome_escola": "Escola Municipal de Educacao Infantil e Ensino Fundamental Esther Soares da Trindade Santana",
    "Endereco": "RUA MANOEL MIRANDA GARCIA, SN, PARATI",
    "Municipio": "Anchieta",
    "CEP": "29230-000",
    "telefone": "",
    "email": "",
    "Latitude": -20.804401,
    "Longitude": -40.600536,
    "Numero_professores": 8,
    "Numero_alunos": 74
  },
  {
    "Nome_escola": "Escola Municipal de Educacao Infantil e Ensino Fundamental Goembe",
    "Endereco": "ZONA RURAL, S/Nº, GOEMBE",
    "Municipio": "Anchieta",
    "CEP": "29230-000",
    "telefone": "",
    "email": "",
    "Latitude": -20.717665,
    "Longitude": -40.610855,
    "Numero_professores": 6,
    "Numero_alunos": 55
  },
  {
    "Nome_escola": "Escola Municipal de Educacao Infantil e Ensino Fundamental Itajobaia",
    "Endereco": "ZONA RURAL, S/Nº, ITAJOBAIA",
    "Municipio": "Anchieta",
    "CEP": "29230-000",
    "telefone": "",
    "email": "",
    "Latitude": -20.683131,
    "Longitude": -40.628926,
    "Numero_professores": 4,
    "Numero_alunos": 11
  },
  {
    "Nome_escola": "Escola Municipal de Educacao Infantil e Ensino Fundamental Itaperoroma Baixa",
    "Endereco": "ZONA RURAL, S/Nº, ITAPEROROMA BAIXA",
    "Municipio": "Anchieta",
    "CEP": "29230-000",
    "telefone": "",
    "email": "",
    "Latitude": -20.765361,
    "Longitude": -40.759887,
    "Numero_professores": 5,
    "Numero_alunos": 23
  },
  {
    "Nome_escola": "Escola Municipal de Educacao Infantil e Ensino Fundamental Lauromar Pompermayer Porto",
    "Endereco": "ZONA RURAL, S/Nº, ITAPEUNA",
    "Municipio": "Anchieta",
    "CEP": "29230-000",
    "telefone": "",
    "email": "",
    "Latitude": -20.777597,
    "Longitude": -40.702125,
    "Numero_professores": 6,
    "Numero_alunos": 28
  },
  {
    "Nome_escola": "Escola Municipal de Educacao Infantil e Ensino Fundamental Professora Ady Lyrio Marchezi",
    "Endereco": "ZONA RURAL, S/Nº, DOIS IRMAOS",
    "Municipio": "Anchieta",
    "CEP": "29230-000",
    "telefone": "",
    "email": "",
    "Latitude": -20.70706,
    "Longitude": -40.75907,
    "Numero_professores": 4,
    "Numero_alunos": 16
  },
  {
    "Nome_escola": "Escola Municipal de Educacao Infantil e Ensino Fundamental Professora Edma Maria Mezadre Mulinari",
    "Endereco": "RUA PROJETADA, S/Nº, ZONA RURAL",
    "Municipio": "Anchieta",
    "CEP": "29230-000",
    "telefone": "",
    "email": "",
    "Latitude": -20.777988,
    "Longitude": -40.743964,
    "Numero_professores": 13,
    "Numero_alunos": 107
  },
  {
    "Nome_escola": "Escola Municipal de Educacao Infantil e Ensino Fundamental Professora Genelice dos Reis Ramos Hermes",
    "Endereco": "RUA BAHIA, S/Nº, RECANTO DO SOL",
    "Municipio": "Anchieta",
    "CEP": "29230-000",
    "telefone": "",
    "email": "",
    "Latitude": -20.794995,
    "Longitude": -40.603021,
    "Numero_professores": 8,
    "Numero_alunos": 88
  },
  {
    "Nome_escola": "Escola Municipal de Educacao Infantil e Ensino Fundamental Professora Jocelina Nogueira",
    "Endereco": "RUA PAULO DINIZ, 201, ALVORADA",
    "Municipio": "Anchieta",
    "CEP": "29230-000",
    "telefone": "",
    "email": "",
    "Latitude": -20.807297,
    "Longitude": -40.639776,
    "Numero_professores": 35,
    "Numero_alunos": 466
  },
  {
    "Nome_escola": "Escola Municipal de Educacao Infantil e Ensino Fundamental Professora Maria Luiza Flores",
    "Endereco": "RUA JOSE FREIRE NETO, S/N.º, PREDIO, MAE-BA",
    "Municipio": "Anchieta",
    "CEP": "29230-000",
    "telefone": "",
    "email": "",
    "Latitude": -20.764013,
    "Longitude": -40.575295,
    "Numero_professores": 23,
    "Numero_alunos": 229
  },
  {
    "Nome_escola": "Escola Municipal de Educacao Infantil e Ensino Fundamental Rosalino Simoes",
    "Endereco": "ZONA RURAL, S/Nº, CHAPADA DO A",
    "Municipio": "Anchieta",
    "CEP": "29230-000",
    "telefone": "",
    "email": "",
    "Latitude": -20.76783,
    "Longitude": -40.630634,
    "Numero_professores": 6,
    "Numero_alunos": 28
  },
  {
    "Nome_escola": "Escola Municipal de Educacao Infantil e Ensino Fundamental Sao Mateus",
    "Endereco": "ZONA RURAL, S/Nº, SAO MATEUS",
    "Municipio": "Anchieta",
    "CEP": "29230-000",
    "telefone": "",
    "email": "",
    "Latitude": -20.764226,
    "Longitude": -40.727766,
    "Numero_professores": 6,
    "Numero_alunos": 35
  },
  {
    "Nome_escola": "Escola Municipal de Educacao Infantil e Ensino Fundamental Simpatia",
    "Endereco": "AVENIDA ANTERINO SILVA, S/N, SIMPATIA, SIMPATIA",
    "Municipio": "Anchieta",
    "CEP": "29230-000",
    "telefone": "",
    "email": "",
    "Latitude": -20.715954,
    "Longitude": -40.714921,
    "Numero_professores": 11,
    "Numero_alunos": 59
  },
  {
    "Nome_escola": "Escola Municipal de Ensino Fundamental Irma Terezinha Godoy de Almeida",
    "Endereco": "AVENIDA VER. PIO SALARINI, S/N, JUSTICA",
    "Municipio": "Anchieta",
    "CEP": "29230-000",
    "telefone": "",
    "email": "",
    "Latitude": -20.804679,
    "Longitude": -40.651957,
    "Numero_professores": 37,
    "Numero_alunos": 600
  },
  {
    "Nome_escola": "Escola Municipal de Ensino Fundamental Manoel de Paula Serrao",
    "Endereco": "RUA JOSE WALDIR TROTTA, 355, IRIRI",
    "Municipio": "Anchieta",
    "CEP": "29230-000",
    "telefone": "",
    "email": "",
    "Latitude": -20.830277,
    "Longitude": -40.694454,
    "Numero_professores": 34,
    "Numero_alunos": 458
  },
  {
    "Nome_escola": "Escola Municipal de Ensino Fundamental Olivania",
    "Endereco": "ZONA RURAL, S/Nº, OLIVANIA",
    "Municipio": "Anchieta",
    "CEP": "29230-000",
    "telefone": "",
    "email": "",
    "Latitude": -20.580922,
    "Longitude": -40.648387,
    "Numero_professores": 4,
    "Numero_alunos": 22
  },
  {
    "Nome_escola": "Escola Municipal de Ensino Fundamental Professor Tio Liliu",
    "Endereco": "PRACA DA BANDEIRA, 115, PROXIMO AO SANTUARIO",
    "Municipio": "Anchieta",
    "CEP": "29230-000",
    "telefone": "",
    "email": "",
    "Latitude": -20.804742,
    "Longitude": -40.65366,
    "Numero_professores": 22,
    "Numero_alunos": 319
  },
  {
    "Nome_escola": "Centro Municipal de Educacao Infantil Casinha Feliz",
    "Endereco": "JADER PINTO, 21",
    "Municipio": "Apiacá",
    "CEP": "29450-000",
    "telefone": "",
    "email": "",
    "Latitude": -21.158846,
    "Longitude": -41.565037,
    "Numero_professores": 6,
    "Numero_alunos": 108
  },
  {
    "Nome_escola": "Centro Municipal de Educacao Infantil Tia Joany Miranda",
    "Endereco": "RUA JOSE MONTEIRO, SN",
    "Municipio": "Apiacá",
    "CEP": "29450-000",
    "telefone": "",
    "email": "",
    "Latitude": -21.154386,
    "Longitude": -41.567707,
    "Numero_professores": 15,
    "Numero_alunos": 125
  },
  {
    "Nome_escola": "Em Bonsucesso",
    "Endereco": "RUA JOSE PUPPIN",
    "Municipio": "Apiacá",
    "CEP": "29450-000",
    "telefone": "",
    "email": "",
    "Latitude": -20.981949,
    "Longitude": -41.559849,
    "Numero_professores": 14,
    "Numero_alunos": 99
  },
  {
    "Nome_escola": "Em Maria de Lourdes Alves",
    "Endereco": "RUA OLIMPIO CORREA DE MIRANDA, S/N",
    "Municipio": "Apiacá",
    "CEP": "29450-000",
    "telefone": "",
    "email": "",
    "Latitude": -21.152037,
    "Longitude": -41.569333,
    "Numero_professores": 32,
    "Numero_alunos": 476
  },
  {
    "Nome_escola": "Em Santa Fe",
    "Endereco": "FAZENDA SANTA FE",
    "Municipio": "Apiacá",
    "CEP": "29450-000",
    "telefone": "",
    "email": "",
    "Latitude": -21.053349,
    "Longitude": -41.551787,
    "Numero_professores": 5,
    "Numero_alunos": 22
  },
  {
    "Nome_escola": "Em Waldir Monteiro de Barros",
    "Endereco": "BATATAL, FAZENDA SAO PEDRO",
    "Municipio": "Apiacá",
    "CEP": "29450-000",
    "telefone": "",
    "email": "",
    "Latitude": -21.022911,
    "Longitude": -41.570545,
    "Numero_professores": 16,
    "Numero_alunos": 120
  },
  {
    "Nome_escola": "Centro Municipal de Educacao Infantil - CMEI Pequeno Principe",
    "Endereco": "ZACARIAS DOS SANTOS, S/Nº, SAO JOSE",
    "Municipio": "Aracruz",
    "CEP": "29196-219",
    "telefone": "",
    "email": "",
    "Latitude": -19.599076,
    "Longitude": -40.19972,
    "Numero_professores": 13,
    "Numero_alunos": 194
  },
  {
    "Nome_escola": "Centro Municipal de Educacao Infantil Abilio Correia de Amorim",
    "Endereco": "PRIMULA, 328, PROXIMO A PADARIA, SÃO MARCOS",
    "Municipio": "Aracruz",
    "CEP": "29190-736",
    "telefone": "",
    "email": "",
    "Latitude": -19.799983,
    "Longitude": -40.27475,
    "Numero_professores": 18,
    "Numero_alunos": 296
  },
  {
    "Nome_escola": "Centro Municipal de Educacao Infantil Amalia Coutinho",
    "Endereco": "LUIZ CARIACICA DOS SANTOS, 1950, PREDIO, BARRA DO RIACHO",
    "Municipio": "Aracruz",
    "CEP": "29197-562",
    "telefone": "",
    "email": "",
    "Latitude": -19.825792,
    "Longitude": -40.061607,
    "Numero_professores": 10,
    "Numero_alunos": 201
  },
  {
    "Nome_escola": "Centro Municipal de Educacao Infantil Balao Magico",
    "Endereco": "DOS COQUEIROS, 22, ESCOLA, COQUEIRAL",
    "Municipio": "Aracruz",
    "CEP": "29199-054",
    "telefone": "",
    "email": "",
    "Latitude": -19.931162,
    "Longitude": -40.148187,
    "Numero_professores": 12,
    "Numero_alunos": 142
  },
  {
    "Nome_escola": "Centro Municipal de Educacao Infantil Chapeuzinho Vermelho",
    "Endereco": "GENERAL ARISTIDES GUARANA, 123, CENTRO",
    "Municipio": "Aracruz",
    "CEP": "29190-050",
    "telefone": "",
    "email": "",
    "Latitude": -19.821329,
    "Longitude": -40.27134,
    "Numero_professores": 9,
    "Numero_alunos": 164
  },
  {
    "Nome_escola": "Centro Municipal de Educacao Infantil Cinderela",
    "Endereco": "AUGUSTO FERREIRA LAMEGO, SN, GUANABARA",
    "Municipio": "Aracruz",
    "CEP": "29194-254",
    "telefone": "",
    "email": "",
    "Latitude": -19.80918,
    "Longitude": -40.27791,
    "Numero_professores": 24,
    "Numero_alunos": 360
  },
  {
    "Nome_escola": "Centro Municipal de Educacao Infantil Crescer",
    "Endereco": "RIO BOM JESUS, 662, FATIMA",
    "Municipio": "Aracruz",
    "CEP": "29192-213",
    "telefone": "",
    "email": "",
    "Latitude": -19.834013,
    "Longitude": -40.265167,
    "Numero_professores": 21,
    "Numero_alunos": 335
  },
  {
    "Nome_escola": "Centro Municipal de Educacao Infantil Crianca Feliz",
    "Endereco": "VALDIR FORECHI, SN, NOVO JEQUITIBA",
    "Municipio": "Aracruz",
    "CEP": "29193-210",
    "telefone": "",
    "email": "",
    "Latitude": -19.829482,
    "Longitude": -40.280431,
    "Numero_professores": 12,
    "Numero_alunos": 138
  },
  {
    "Nome_escola": "Centro Municipal de Educacao Infantil Donatila Coutinho",
    "Endereco": "PRAIA DE PAJUCARA, 86, BARRA DO SAHY",
    "Municipio": "Aracruz",
    "CEP": "29198-156",
    "telefone": "",
    "email": "",
    "Latitude": -19.873872,
    "Longitude": -40.08544,
    "Numero_professores": 13,
    "Numero_alunos": 182
  },
  {
    "Nome_escola": "Centro Municipal de Educacao Infantil Epifanio Pontin",
    "Endereco": "NAPOLEAO NUNES RIBEIRO DOS SANTOS, S/N, CENTRO",
    "Municipio": "Aracruz",
    "CEP": "29190-240",
    "telefone": "",
    "email": "",
    "Latitude": -19.81844,
    "Longitude": -40.270874,
    "Numero_professores": 23,
    "Numero_alunos": 352
  },
  {
    "Nome_escola": "Centro Municipal de Educacao Infantil Francisca Rocha Ribeiro",
    "Endereco": "SILVESTRE BAIOCO, 315, JACUPEMBA",
    "Municipio": "Aracruz",
    "CEP": "29196-131",
    "telefone": "",
    "email": "",
    "Latitude": -19.583155,
    "Longitude": -40.194272,
    "Numero_professores": 17,
    "Numero_alunos": 255
  },
  {
    "Nome_escola": "Centro Municipal de Educacao Infantil Mae Aurelia",
    "Endereco": "MANOEL FELIPE, S/Nº, PREDIO, VILA DO RIACHO",
    "Municipio": "Aracruz",
    "CEP": "29197-314",
    "telefone": "",
    "email": "",
    "Latitude": -19.74645,
    "Longitude": -40.047033,
    "Numero_professores": 20,
    "Numero_alunos": 376
  },
  {
    "Nome_escola": "Centro Municipal de Educacao Infantil Marilia Rezende Scarton Coutinho",
    "Endereco": "CELESTE SCARPARTTI, S/N, ESCOLA, JEQUITIBÁ",
    "Municipio": "Aracruz",
    "CEP": "29193-145",
    "telefone": "",
    "email": "",
    "Latitude": -19.828124,
    "Longitude": -40.276204,
    "Numero_professores": 10,
    "Numero_alunos": 189
  },
  {
    "Nome_escola": "Centro Municipal de Educacao Infantil Narizinho",
    "Endereco": "PRESIDENTE GETULIO VARGAS, 16, BELA VISTA",
    "Municipio": "Aracruz",
    "CEP": "29192-024",
    "telefone": "",
    "email": "",
    "Latitude": -19.833432,
    "Longitude": -40.269935,
    "Numero_professores": 16,
    "Numero_alunos": 271
  },
  {
    "Nome_escola": "Centro Municipal de Educacao Infantil Nova Colatina",
    "Endereco": "LUIZ ROSSATO, 6170, JACUPEMBA",
    "Municipio": "Aracruz",
    "CEP": "29196-085",
    "telefone": "",
    "email": "",
    "Latitude": -19.576373,
    "Longitude": -40.186907,
    "Numero_professores": 12,
    "Numero_alunos": 125
  },
  {
    "Nome_escola": "Centro Municipal de Educacao Infantil Novo Iraja",
    "Endereco": "RURAL, S/Nº, ESCOLA, AREA RURAL DE ARACRUZ",
    "Municipio": "Aracruz",
    "CEP": "29199-899",
    "telefone": "",
    "email": "",
    "Latitude": -19.90308,
    "Longitude": -40.232982,
    "Numero_professores": 7,
    "Numero_alunos": 113
  },
  {
    "Nome_escola": "Centro Municipal de Educacao Infantil Pequeno Aprendiz",
    "Endereco": "MOROBA, S/N, MOROBA",
    "Municipio": "Aracruz",
    "CEP": "29192-733",
    "telefone": "",
    "email": "",
    "Latitude": -19.824344,
    "Longitude": -40.26021,
    "Numero_professores": 13,
    "Numero_alunos": 178
  },
  {
    "Nome_escola": "Centro Municipal de Educacao Infantil Professora Maria Jose Ghidetti Rocha",
    "Endereco": "GIOVANI MODENESI, JEQUITIBÁ",
    "Municipio": "Aracruz",
    "CEP": "29193-045",
    "telefone": "",
    "email": "",
    "Latitude": -19.831049,
    "Longitude": -40.273742,
    "Numero_professores": 19,
    "Numero_alunos": 277
  },
  {
    "Nome_escola": "Centro Municipal de Educacao Infantil Sete Anoes",
    "Endereco": "VALENTIM MORO, 29, VILA NOVA",
    "Municipio": "Aracruz",
    "CEP": "29194-539",
    "telefone": "",
    "email": "",
    "Latitude": -19.812661,
    "Longitude": -40.270663,
    "Numero_professores": 10,
    "Numero_alunos": 161
  },
  {
    "Nome_escola": "Centro Municipal de Educacao Infantil Teresinha Frigini",
    "Endereco": "ERNANDES SPINASSE, S/Nº, GUARANÁ",
    "Municipio": "Aracruz",
    "CEP": "29195-491",
    "telefone": "",
    "email": "",
    "Latitude": -19.83061,
    "Longitude": -40.278935,
    "Numero_professores": 18,
    "Numero_alunos": 255
  },
  {
    "Nome_escola": "Centro Municipal de Educacao Infantil Tia Anastacia",
    "Endereco": "COSMORAMA, SN, SANTA CRUZ",
    "Municipio": "Aracruz",
    "CEP": "29199-514",
    "telefone": "",
    "email": "",
    "Latitude": -19.960702,
    "Longitude": -40.162246,
    "Numero_professores": 10,
    "Numero_alunos": 118
  },
  {
    "Nome_escola": "Centro Municipal de Educacao Infantil Vera Lucia Devens Rabello",
    "Endereco": "OLINTO DO NASCIMENTO, 170, PROXIMO DA PADARIA, VILA RICA",
    "Municipio": "Aracruz",
    "CEP": "29194-159",
    "telefone": "",
    "email": "",
    "Latitude": -19.81817,
    "Longitude": -40.278391,
    "Numero_professores": 12,
    "Numero_alunos": 175
  },
  {
    "Nome_escola": "Centro Municipal de Educacao Infantil Vovo Jandira",
    "Endereco": "JOSE COUTINHO DA CONCEICAO, 1530, BARRA DO RIACHO",
    "Municipio": "Aracruz",
    "CEP": "29197-548",
    "telefone": "",
    "email": "",
    "Latitude": -19.82596,
    "Longitude": -40.060243,
    "Numero_professores": 11,
    "Numero_alunos": 173
  },
  {
    "Nome_escola": "Cmebti Esther Nascimento dos Santos",
    "Endereco": "RURAL, SN, BAIRRO, AREA RURAL DE ARACRUZ",
    "Municipio": "Aracruz",
    "CEP": "29199-899",
    "telefone": "",
    "email": "",
    "Latitude": -19.928908,
    "Longitude": -40.282168,
    "Numero_professores": 24,
    "Numero_alunos": 272
  },
  {
    "Nome_escola": "Cmeii Caeiras Velha",
    "Endereco": "RURAL, S/Nº, ALDEIA, ÁREA RURAL DE ARACRUZ",
    "Municipio": "Aracruz",
    "CEP": "29199-899",
    "telefone": "",
    "email": "",
    "Latitude": -19.922682,
    "Longitude": -40.173696,
    "Numero_professores": 10,
    "Numero_alunos": 134
  },
  {
    "Nome_escola": "Cmeiti Nova Esperanca",
    "Endereco": "RUA SAO BENEDITO, 391, S/Nº, LOCALIZACAO RURAL, VILA DO RIACHO",
    "Municipio": "Aracruz",
    "CEP": "29197-972",
    "telefone": "",
    "email": "",
    "Latitude": -19.746092,
    "Longitude": -40.046932,
    "Numero_professores": 4,
    "Numero_alunos": 36
  },
  {
    "Nome_escola": "Emefi Arandu Retxaka",
    "Endereco": "RUA AVENCAS, 22, 00, ALD. TRES PALMEIRAS, COQUEIRAL",
    "Municipio": "Aracruz",
    "CEP": "29199-970",
    "telefone": "",
    "email": "",
    "Latitude": -19.946749,
    "Longitude": -40.167437,
    "Numero_professores": 11,
    "Numero_alunos": 120
  },
  {
    "Nome_escola": "Emefi Dorvelina Coutinho",
    "Endereco": "RESERVA BIOLOGICA DE COMBOIOS, Sº/Nº, TERRA INDIGENA, VILA DO RIACHO",
    "Municipio": "Aracruz",
    "CEP": "29197-190",
    "telefone": "",
    "email": "",
    "Latitude": -19.743433,
    "Longitude": -40.007971,
    "Numero_professores": 10,
    "Numero_alunos": 94
  },
  {
    "Nome_escola": "Emefti Ermelinda Giacomin Farina",
    "Endereco": "GIOVANI FIOROTI, S/N, SAUE",
    "Municipio": "Aracruz",
    "CEP": "29198-348",
    "telefone": "",
    "email": "",
    "Latitude": -19.923878,
    "Longitude": -40.117217,
    "Numero_professores": 14,
    "Numero_alunos": 162
  },
  {
    "Nome_escola": "Emefti Euripedes Nunes Loureiro",
    "Endereco": "CIDADE DE VITORIA, 39, ITAPUTERA",
    "Municipio": "Aracruz",
    "CEP": "29193-339",
    "telefone": "",
    "email": "",
    "Latitude": -19.83098,
    "Longitude": -40.28383,
    "Numero_professores": 12,
    "Numero_alunos": 170
  },
  {
    "Nome_escola": "Emefti Honorio Nunes de Jesus",
    "Endereco": "PORTUGAL, S/N, MOROBÁ",
    "Municipio": "Aracruz",
    "CEP": "29192-730",
    "telefone": "",
    "email": "",
    "Latitude": -19.829179,
    "Longitude": -40.256223,
    "Numero_professores": 18,
    "Numero_alunos": 183
  },
  {
    "Nome_escola": "Emefti Itaparica",
    "Endereco": "JOAO MOTTA, S/N, ITAPARICA",
    "Municipio": "Aracruz",
    "CEP": "29199-640",
    "telefone": "",
    "email": "",
    "Latitude": -19.973517,
    "Longitude": -40.1475,
    "Numero_professores": 10,
    "Numero_alunos": 143
  },
  {
    "Nome_escola": "Emefti Professora Maria Luiza Devens",
    "Endereco": "PRESIDENTE KENNEDY, S/Nº, FÁTIMA",
    "Municipio": "Aracruz",
    "CEP": "29192-278",
    "telefone": "",
    "email": "",
    "Latitude": -19.834324,
    "Longitude": -40.265825,
    "Numero_professores": 21,
    "Numero_alunos": 342
  },
  {
    "Nome_escola": "Emp Indigena Iraja",
    "Endereco": "RUA PROJETADA, SN, ALDEIA IRAJA, ALDEIA INDIGENA IRAJA",
    "Municipio": "Aracruz",
    "CEP": "29199-899",
    "telefone": "",
    "email": "",
    "Latitude": -19.898594,
    "Longitude": -40.221673,
    "Numero_professores": 9,
    "Numero_alunos": 130
  },
  {
    "Nome_escola": "Escola Municipal de Ensino Fundamental Alvaro Souza",
    "Endereco": "MANOEL FELIPE, S/N, VILA DO RIACHO",
    "Municipio": "Aracruz",
    "CEP": "29197-314",
    "telefone": "",
    "email": "",
    "Latitude": -19.746224,
    "Longitude": -40.046683,
    "Numero_professores": 27,
    "Numero_alunos": 499
  },
  {
    "Nome_escola": "Escola Municipal de Ensino Fundamental Coqueiral",
    "Endereco": "DAS PALMEIRAS, SN, COQUEIRAL",
    "Municipio": "Aracruz",
    "CEP": "29199-135",
    "telefone": "",
    "email": "",
    "Latitude": -19.928093,
    "Longitude": -40.139563,
    "Numero_professores": 14,
    "Numero_alunos": 184
  },
  {
    "Nome_escola": "Escola Municipal de Ensino Fundamental Ezequiel Fraga Rocha",
    "Endereco": "DURVAL BARCELLOS RANGEL, 172, BELA VISTA",
    "Municipio": "Aracruz",
    "CEP": "29192-088",
    "telefone": "",
    "email": "",
    "Latitude": -19.837259,
    "Longitude": -40.269388,
    "Numero_professores": 35,
    "Numero_alunos": 776
  },
  {
    "Nome_escola": "Escola Municipal de Ensino Fundamental Indigena Caeira Velha",
    "Endereco": "RURAL, ALDEIA, AREA RURAL DE ARACRUZ",
    "Municipio": "Aracruz",
    "CEP": "29199-899",
    "telefone": "",
    "email": "",
    "Latitude": -19.919275,
    "Longitude": -40.171752,
    "Numero_professores": 25,
    "Numero_alunos": 384
  },
  {
    "Nome_escola": "Escola Municipal de Ensino Fundamental Indigena Ybyrapytanga",
    "Endereco": "PAU BRASIL, S/N, ALDEIA PAU BRASIL, BARRA DO RIACHO",
    "Municipio": "Aracruz",
    "CEP": "29197-670",
    "telefone": "",
    "email": "",
    "Latitude": -19.85308,
    "Longitude": -40.1308,
    "Numero_professores": 9,
    "Numero_alunos": 125
  },
  {
    "Nome_escola": "Escola Municipal de Ensino Fundamental Jose Mambrini",
    "Endereco": "ANTONIO ARAUJO, 100, PREDIO, SAO JOSE",
    "Municipio": "Aracruz",
    "CEP": "29196-223",
    "telefone": "",
    "email": "",
    "Latitude": -19.599085,
    "Longitude": -40.199853,
    "Numero_professores": 15,
    "Numero_alunos": 268
  },
  {
    "Nome_escola": "Escola Municipal de Ensino Fundamental Jose Marcos Rampinelli",
    "Endereco": "PRESIDENTE GETULIO VARGAS, 15, AO LADO DA PRACA, BELA VISTA",
    "Municipio": "Aracruz",
    "CEP": "29192-024",
    "telefone": "",
    "email": "",
    "Latitude": -19.833051,
    "Longitude": -40.270014,
    "Numero_professores": 26,
    "Numero_alunos": 561
  },
  {
    "Nome_escola": "Escola Municipal de Ensino Fundamental Luiza Silvina Jardim Rebuzzi",
    "Endereco": "AMERICO ANTONIO CREVELIN, 370, ESCOLA, JEQUITIBÁ",
    "Municipio": "Aracruz",
    "CEP": "29193-010",
    "telefone": "",
    "email": "",
    "Latitude": -19.830085,
    "Longitude": -40.279462,
    "Numero_professores": 36,
    "Numero_alunos": 756
  },
  {
    "Nome_escola": "Escola Municipal de Ensino Fundamental Marechal Costa e Silva",
    "Endereco": "PADRE LUIZ PARENZI, 93, CENTRO",
    "Municipio": "Aracruz",
    "CEP": "29190-058",
    "telefone": "",
    "email": "",
    "Latitude": -19.81858,
    "Longitude": -40.280005,
    "Numero_professores": 10,
    "Numero_alunos": 239
  },
  {
    "Nome_escola": "Escola Municipal de Ensino Fundamental Mario Leal Silva",
    "Endereco": "ANTONIO DETTOGNI, ESCOLA, GUARANA",
    "Municipio": "Aracruz",
    "CEP": "29195-480",
    "telefone": "",
    "email": "",
    "Latitude": -19.679341,
    "Longitude": -40.25874,
    "Numero_professores": 20,
    "Numero_alunos": 341
  },
  {
    "Nome_escola": "Escola Municipal de Ensino Fundamental Nova Santa Cruz",
    "Endereco": "FERNANDOPOLIS, ESCOLA, SANTA CRUZ",
    "Municipio": "Aracruz",
    "CEP": "29199-519",
    "telefone": "",
    "email": "",
    "Latitude": -19.960702,
    "Longitude": -40.16083,
    "Numero_professores": 10,
    "Numero_alunos": 153
  },
  {
    "Nome_escola": "Escola Municipal de Ensino Fundamental Novo Iraja",
    "Endereco": "RURAL, AV.DOS MANGUEZAIS, AREA RURAL DE ARACRUZ",
    "Municipio": "Aracruz",
    "CEP": "29199-899",
    "telefone": "",
    "email": "",
    "Latitude": -19.903264,
    "Longitude": -40.233152,
    "Numero_professores": 11,
    "Numero_alunos": 142
  },
  {
    "Nome_escola": "Escola Municipal de Ensino Fundamental Paulo Freire",
    "Endereco": "MARGARIDA, 32, SAO MARCOS",
    "Municipio": "Aracruz",
    "CEP": "29190-757",
    "telefone": "",
    "email": "",
    "Latitude": -19.803726,
    "Longitude": -40.273878,
    "Numero_professores": 41,
    "Numero_alunos": 919
  },
  {
    "Nome_escola": "Escola Municipal de Ensino Fundamental Placidino Passos",
    "Endereco": "LEOPOLDO BARCELLOS RANGEL, 113, POLIVALENTE",
    "Municipio": "Aracruz",
    "CEP": "29190-400",
    "telefone": "",
    "email": "",
    "Latitude": -19.818984,
    "Longitude": -40.271961,
    "Numero_professores": 45,
    "Numero_alunos": 846
  },
  {
    "Nome_escola": "Escola Municipal de Ensino Fundamental Prof Barula Neves dos Santos",
    "Endereco": "DOUTOR ORLINDO BORGES, 0, PREDIO, BARRA DO SAHY",
    "Municipio": "Aracruz",
    "CEP": "29198-013",
    "telefone": "",
    "email": "",
    "Latitude": -19.878034,
    "Longitude": -40.085405,
    "Numero_professores": 12,
    "Numero_alunos": 241
  },
  {
    "Nome_escola": "Escola Municipal de Ensino Fundamental Prof Maria Ines Della Valentina",
    "Endereco": "CRISTINA LECCHI FAVALESSA, 385, JACUPEMBA",
    "Municipio": "Aracruz",
    "CEP": "29196-028",
    "telefone": "",
    "email": "",
    "Latitude": -19.586159,
    "Longitude": -40.195154,
    "Numero_professores": 50,
    "Numero_alunos": 1014
  },
  {
    "Nome_escola": "Escola Municipal de Ensino Fundamental Samoel Costa",
    "Endereco": "FLORESTAL, 01, SEGATO",
    "Municipio": "Aracruz",
    "CEP": "29192-154",
    "telefone": "",
    "email": "",
    "Latitude": -19.826905,
    "Longitude": -40.273087,
    "Numero_professores": 16,
    "Numero_alunos": 236
  },
  {
    "Nome_escola": "Escola Municipal de Ensino Fundamental Santa Cruz",
    "Endereco": "PRESIDENTE VARGAS, S/N, SANTA CRUZ",
    "Municipio": "Aracruz",
    "CEP": "29199-506",
    "telefone": "",
    "email": "",
    "Latitude": -19.954348,
    "Longitude": -40.153362,
    "Numero_professores": 11,
    "Numero_alunos": 254
  },
  {
    "Nome_escola": "Escola Municipal de Ensino Fundamental Zenilia Varzem Ribeiro",
    "Endereco": "FLORIANO SANTANA, 420, PREDIO, BARRA DO RIACHO",
    "Municipio": "Aracruz",
    "CEP": "29197-539",
    "telefone": "",
    "email": "",
    "Latitude": -19.828588,
    "Longitude": -40.06652,
    "Numero_professores": 26,
    "Numero_alunos": 535
  },
  {
    "Nome_escola": "Escola Municipal de Ensino Fundamental Zilca Nunes Vieira Bermudes",
    "Endereco": "PREFEITO AUGUSTO FERREIRA LAMEGO, 10, VILA NOVA",
    "Municipio": "Aracruz",
    "CEP": "29194-518",
    "telefone": "",
    "email": "",
    "Latitude": -19.81001,
    "Longitude": -40.272886,
    "Numero_professores": 36,
    "Numero_alunos": 767
  },
  {
    "Nome_escola": "Emeb Alto Niteroi",
    "Endereco": "RUA PROJETADA, SN, ALTO NITEROI",
    "Municipio": "Atílio Vivácqua",
    "CEP": "29490-000",
    "telefone": "",
    "email": "",
    "Latitude": -20.920807,
    "Longitude": -41.192627,
    "Numero_professores": 13,
    "Numero_alunos": 87
  },
  {
    "Nome_escola": "Emeb Amabile Rosseto",
    "Endereco": "LINDA AURORA, ZONA RURAL",
    "Municipio": "Atílio Vivácqua",
    "CEP": "29490-000",
    "telefone": "",
    "email": "",
    "Latitude": -20.953581,
    "Longitude": -41.216691,
    "Numero_professores": 4,
    "Numero_alunos": 35
  },
  {
    "Nome_escola": "Emeb Ana Busato",
    "Endereco": "RUA CAPITO JOVINO ALVES PEDRA, 38, NITEROI",
    "Municipio": "Atílio Vivácqua",
    "CEP": "29490-000",
    "telefone": "",
    "email": "",
    "Latitude": -20.915493,
    "Longitude": -41.194454,
    "Numero_professores": 34,
    "Numero_alunos": 569
  },
  {
    "Nome_escola": "Emeb Avelinda Carvalho Gava",
    "Endereco": "CORREGO DA FAMA, S/Nº, ZONA RURAL",
    "Municipio": "Atílio Vivácqua",
    "CEP": "29490-000",
    "telefone": "",
    "email": "",
    "Latitude": -20.938486,
    "Longitude": -41.221944,
    "Numero_professores": 6,
    "Numero_alunos": 49
  },
  {
    "Nome_escola": "Emeb Felipe Andrade Costa",
    "Endereco": "RUA PROJETADA, 15",
    "Municipio": "Atílio Vivácqua",
    "CEP": "29490-000",
    "telefone": "",
    "email": "",
    "Latitude": -20.920409,
    "Longitude": -41.192162,
    "Numero_professores": 7,
    "Numero_alunos": 63
  },
  {
    "Nome_escola": "Emeb Flecheiras",
    "Endereco": "RUA PRINCIPAL - FLECHEIRAS, SN, ZONA RURAL",
    "Municipio": "Atílio Vivácqua",
    "CEP": "29490-000",
    "telefone": "",
    "email": "",
    "Latitude": -21.035511,
    "Longitude": -41.180507,
    "Numero_professores": 12,
    "Numero_alunos": 122
  },
  {
    "Nome_escola": "Emeb Herminia Leal Judice",
    "Endereco": "AVENIDA CAPITAO JOVINO ALVES PEDRA, 36, CASA, NITEROI",
    "Municipio": "Atílio Vivácqua",
    "CEP": "29490-000",
    "telefone": "",
    "email": "",
    "Latitude": -20.915212,
    "Longitude": -41.194404,
    "Numero_professores": 14,
    "Numero_alunos": 142
  },
  {
    "Nome_escola": "Emeb Isabel Costa Baptista",
    "Endereco": "AV. NOSSA SENHORA APARECIDA, 348, SAIBREIRA",
    "Municipio": "Atílio Vivácqua",
    "CEP": "29490-000",
    "telefone": "",
    "email": "",
    "Latitude": -20.920531,
    "Longitude": -41.183825,
    "Numero_professores": 13,
    "Numero_alunos": 127
  },
  {
    "Nome_escola": "Emeb Jose Campos Nogueira",
    "Endereco": "ANTAS, ZONA RURAL",
    "Municipio": "Atílio Vivácqua",
    "CEP": "29490-000",
    "telefone": "",
    "email": "",
    "Latitude": -20.915704,
    "Longitude": -41.154164,
    "Numero_professores": 7,
    "Numero_alunos": 34
  },
  {
    "Nome_escola": "Emeb Luiz Alberto Faria Moreno",
    "Endereco": "RUA ADEMAR LUIZ MORENO, 3",
    "Municipio": "Atílio Vivácqua",
    "CEP": "29490-000",
    "telefone": "",
    "email": "",
    "Latitude": -20.913601,
    "Longitude": -41.197428,
    "Numero_professores": 17,
    "Numero_alunos": 180
  },
  {
    "Nome_escola": "Emeb Teotonio Rafael",
    "Endereco": "INDENPENDENCIA, SN",
    "Municipio": "Atílio Vivácqua",
    "CEP": "29490-000",
    "telefone": "",
    "email": "",
    "Latitude": -20.953404,
    "Longitude": -41.125924,
    "Numero_professores": 11,
    "Numero_alunos": 107
  },
  {
    "Nome_escola": "Emeb Zulmira Ventury Baptista",
    "Endereco": "AVENIDA NOSSA SENHORA DE FATIMA, SN, ALTO NITEROI",
    "Municipio": "Atílio Vivácqua",
    "CEP": "29490-000",
    "telefone": "",
    "email": "",
    "Latitude": -20.918575,
    "Longitude": -41.195448,
    "Numero_professores": 16,
    "Numero_alunos": 215
  },
  {
    "Nome_escola": "Emebti Roque Telles Guimaraes",
    "Endereco": "RODOVIA ES 489, S/N",
    "Municipio": "Atílio Vivácqua",
    "CEP": "29490-000",
    "telefone": "",
    "email": "",
    "Latitude": -20.927975,
    "Longitude": -41.184573,
    "Numero_professores": 9,
    "Numero_alunos": 138
  },
  {
    "Nome_escola": "Escola Municipal de Educacao Basica Benedito Sampaio",
    "Endereco": "PRACA DO ORIENTE, SN",
    "Municipio": "Atílio Vivácqua",
    "CEP": "29490-000",
    "telefone": "",
    "email": "",
    "Latitude": -20.974763,
    "Longitude": -41.175879,
    "Numero_professores": 11,
    "Numero_alunos": 140
  },
  {
    "Nome_escola": "Escola Municipal de Educacao Basica Maria Jovita Boechat",
    "Endereco": "PRACA DO ORIENTE, SNº",
    "Municipio": "Atílio Vivácqua",
    "CEP": "29490-000",
    "telefone": "",
    "email": "",
    "Latitude": -20.973333,
    "Longitude": -41.17519,
    "Numero_professores": 5,
    "Numero_alunos": 24
  },
  {
    "Nome_escola": "Centro Municipal de Educacao Infantil Casinha Feliz",
    "Endereco": "RUA ANTONIO HENRIQUE PINHEIRO, S/N",
    "Municipio": "Baixo Guandu",
    "CEP": "29730-000",
    "telefone": "",
    "email": "",
    "Latitude": -19.506441,
    "Longitude": -40.912505,
    "Numero_professores": 8,
    "Numero_alunos": 54
  },
  {
    "Nome_escola": "Centro Municipal de Educacao Infantil Cosme e Damiao",
    "Endereco": "RUA DAS CAMELIAS, BAIRRO SANTA MONICA, S/N, ESCOLA",
    "Municipio": "Baixo Guandu",
    "CEP": "29730-000",
    "telefone": "",
    "email": "",
    "Latitude": -19.515135,
    "Longitude": -41.002468,
    "Numero_professores": 20,
    "Numero_alunos": 175
  },
  {
    "Nome_escola": "Centro Municipal de Educacao Infantil Dona Chica",
    "Endereco": "RUA DAS CAMELIAS, S/N",
    "Municipio": "Baixo Guandu",
    "CEP": "29730-000",
    "telefone": "",
    "email": "",
    "Latitude": -19.515412,
    "Longitude": -41.002642,
    "Numero_professores": 11,
    "Numero_alunos": 79
  },
  {
    "Nome_escola": "Centro Municipal de Educacao Infantil Dona Eufrasia Balmann",
    "Endereco": "RUA JOAO JULIO CARDOSO, S/N",
    "Municipio": "Baixo Guandu",
    "CEP": "29737-000",
    "telefone": "",
    "email": "",
    "Latitude": -19.273674,
    "Longitude": -40.909548,
    "Numero_professores": 11,
    "Numero_alunos": 83
  },
  {
    "Nome_escola": "Centro Municipal de Educacao Infantil Dona Paula",
    "Endereco": "RUA PEDRO ALVARES CABRAL, S/N",
    "Municipio": "Baixo Guandu",
    "CEP": "29730-000",
    "telefone": "",
    "email": "",
    "Latitude": -19.508266,
    "Longitude": -41.028087,
    "Numero_professores": 19,
    "Numero_alunos": 146
  },
  {
    "Nome_escola": "Centro Municipal de Educacao Infantil Dona Rosa",
    "Endereco": "RUA PEDRO ALVARES CABRAL, S/Nº",
    "Municipio": "Baixo Guandu",
    "CEP": "29730-000",
    "telefone": "",
    "email": "",
    "Latitude": -19.515762,
    "Longitude": -41.020542,
    "Numero_professores": 17,
    "Numero_alunos": 145
  },
  {
    "Nome_escola": "Centro Municipal de Educacao Infantil Francisco Joao da Silva - Neguinho",
    "Endereco": "PRACA AFONSO PENA, S/Nº",
    "Municipio": "Baixo Guandu",
    "CEP": "29730-000",
    "telefone": "",
    "email": "",
    "Latitude": -19.690032,
    "Longitude": -41.019455,
    "Numero_professores": 7,
    "Numero_alunos": 42
  },
  {
    "Nome_escola": "Centro Municipal de Educacao Infantil Ida Albertina Maria Zummack Roepke",
    "Endereco": "RUA PRINCIPAL, S/Nº",
    "Municipio": "Baixo Guandu",
    "CEP": "29742-000",
    "telefone": "",
    "email": "",
    "Latitude": -19.512449,
    "Longitude": -41.013787,
    "Numero_professores": 3,
    "Numero_alunos": 18
  },
  {
    "Nome_escola": "Centro Municipal de Educacao Infantil Prof Idalia Gomes dos Santos",
    "Endereco": "RUA SECA, SN, KM 14",
    "Municipio": "Baixo Guandu",
    "CEP": "29730-000",
    "telefone": "",
    "email": "",
    "Latitude": -19.398179,
    "Longitude": -40.904594,
    "Numero_professores": 4,
    "Numero_alunos": 20
  },
  {
    "Nome_escola": "Centro Municipal de Educacao Infantil Santa Carpanini Soares",
    "Endereco": "RUA PEDRO ALVARES CABRAL, S/N, ROSARIO II",
    "Municipio": "Baixo Guandu",
    "CEP": "29730-000",
    "telefone": "",
    "email": "",
    "Latitude": -19.505342,
    "Longitude": -41.031205,
    "Numero_professores": 10,
    "Numero_alunos": 135
  },
  {
    "Nome_escola": "Centro Municipal de Educacao Infantil Zilda Castiglioni Rosa Guzzo",
    "Endereco": "RUA OSVALDO CRUZ, 103, PROXIMO AO MERGULHAO",
    "Municipio": "Baixo Guandu",
    "CEP": "29730-000",
    "telefone": "",
    "email": "",
    "Latitude": -19.508265,
    "Longitude": -41.014696,
    "Numero_professores": 9,
    "Numero_alunos": 68
  },
  {
    "Nome_escola": "Emefti Governador Lacerda de Aguiar",
    "Endereco": "RUA DOMINGOS MARTINS, 100",
    "Municipio": "Baixo Guandu",
    "CEP": "29730-000",
    "telefone": "",
    "email": "",
    "Latitude": -19.507353,
    "Longitude": -41.025213,
    "Numero_professores": 10,
    "Numero_alunos": 177
  },
  {
    "Nome_escola": "Emueief Alto Batuta",
    "Endereco": "KM 14",
    "Municipio": "Baixo Guandu",
    "CEP": "29730-000",
    "telefone": "",
    "email": "",
    "Latitude": -19.512449,
    "Longitude": -41.013787,
    "Numero_professores": 2,
    "Numero_alunos": 44
  },
  {
    "Nome_escola": "Emueief Alto Palmital",
    "Endereco": "DISTRITO ALTO PALMITAL",
    "Municipio": "Baixo Guandu",
    "CEP": "29730-000",
    "telefone": "",
    "email": "",
    "Latitude": -19.664523,
    "Longitude": -40.958075,
    "Numero_professores": 1,
    "Numero_alunos": 11
  },
  {
    "Nome_escola": "Emueief Barra de Santa Rosa",
    "Endereco": "BARRA DE SANTA ROSA",
    "Municipio": "Baixo Guandu",
    "CEP": "29730-000",
    "telefone": "",
    "email": "",
    "Latitude": -19.73094,
    "Longitude": -41.048676,
    "Numero_professores": 1,
    "Numero_alunos": 17
  },
  {
    "Nome_escola": "Emueief Santa Rosa",
    "Endereco": "SANTA ROSA",
    "Municipio": "Baixo Guandu",
    "CEP": "29730-000",
    "telefone": "",
    "email": "",
    "Latitude": -19.776564,
    "Longitude": -41.013402,
    "Numero_professores": 2,
    "Numero_alunos": 20
  },
  {
    "Nome_escola": "Escola Municipal de Educacao Infantil e Ensino Fundamental Aladia Trindade Paiva",
    "Endereco": "RUA GETULIO VARGAS, 112",
    "Municipio": "Baixo Guandu",
    "CEP": "29730-000",
    "telefone": "",
    "email": "",
    "Latitude": -19.504546,
    "Longitude": -40.914755,
    "Numero_professores": 11,
    "Numero_alunos": 104
  },
  {
    "Nome_escola": "Escola Municipal de Educacao Infantil e Ensino Fundamental Benevenuto Clementino Gobbo",
    "Endereco": "AVENIDA SANTA TEREZINHA, 236",
    "Municipio": "Baixo Guandu",
    "CEP": "29730-000",
    "telefone": "",
    "email": "",
    "Latitude": -19.518812,
    "Longitude": -41.011449,
    "Numero_professores": 33,
    "Numero_alunos": 498
  },
  {
    "Nome_escola": "Escola Municipal de Educacao Infantil e Ensino Fundamental Carlos Luiz Frederico",
    "Endereco": "VILA NOVA DE BANANAL, S/N, VILA NOVA DE BANANAL",
    "Municipio": "Baixo Guandu",
    "CEP": "29742-000",
    "telefone": "",
    "email": "",
    "Latitude": -19.687148,
    "Longitude": -41.125709,
    "Numero_professores": 12,
    "Numero_alunos": 97
  },
  {
    "Nome_escola": "Escola Municipal de Educacao Infantil e Ensino Fundamental Darlene Maggioni Franquini",
    "Endereco": "RUA HENRIQUE COUTINHO, S/Nº",
    "Municipio": "Baixo Guandu",
    "CEP": "29730-000",
    "telefone": "",
    "email": "",
    "Latitude": -19.504221,
    "Longitude": -41.032112,
    "Numero_professores": 15,
    "Numero_alunos": 185
  },
  {
    "Nome_escola": "Escola Municipal de Educacao Infantil e Ensino Fundamental Joao Julio Cardoso",
    "Endereco": "WILSON SANTANNA LOPES FILHO, S/N",
    "Municipio": "Baixo Guandu",
    "CEP": "29730-000",
    "telefone": "",
    "email": "",
    "Latitude": -19.522944,
    "Longitude": -41.000925,
    "Numero_professores": 20,
    "Numero_alunos": 317
  },
  {
    "Nome_escola": "Escola Municipal de Educacao Infantil e Ensino Fundamental Joao XXIII",
    "Endereco": "RUA JERONIMO MONTEIRO, S/Nº, PREDIO ESCOLAR",
    "Municipio": "Baixo Guandu",
    "CEP": "29730-000",
    "telefone": "",
    "email": "",
    "Latitude": -19.508227,
    "Longitude": -41.027525,
    "Numero_professores": 28,
    "Numero_alunos": 226
  },
  {
    "Nome_escola": "Escola Municipal de Educacao Infantil e Ensino Fundamental Julia de Carvalho Fischer",
    "Endereco": "RUA QUINTINO BOCAIUVA, S/N",
    "Municipio": "Baixo Guandu",
    "CEP": "29730-000",
    "telefone": "",
    "email": "",
    "Latitude": -19.513359,
    "Longitude": -41.022162,
    "Numero_professores": 20,
    "Numero_alunos": 277
  },
  {
    "Nome_escola": "Escola Municipal de Educacao Infantil e Ensino Fundamental Presidente Kennedy",
    "Endereco": "R MARECHAL DEODORO DA FONSECA, 695",
    "Municipio": "Baixo Guandu",
    "CEP": "29730-000",
    "telefone": "",
    "email": "",
    "Latitude": -19.515114,
    "Longitude": -41.008548,
    "Numero_professores": 15,
    "Numero_alunos": 142
  },
  {
    "Nome_escola": "Escola Municipal de Educacao Infantil e Ensino Fundamental Professor Jose Nunes",
    "Endereco": "RUA DUQUE DE CAXIAS, SN, CENTRO",
    "Municipio": "Baixo Guandu",
    "CEP": "29730-000",
    "telefone": "",
    "email": "",
    "Latitude": -19.513459,
    "Longitude": -41.013687,
    "Numero_professores": 25,
    "Numero_alunos": 316
  },
  {
    "Nome_escola": "Escola Municipal de Educacao Infantil e Ensino Fundamental Professora Lea Holz",
    "Endereco": "RUA SETE DE SETEMBRO, S/N, MAUA",
    "Municipio": "Baixo Guandu",
    "CEP": "29730-000",
    "telefone": "",
    "email": "",
    "Latitude": -19.508569,
    "Longitude": -41.013245,
    "Numero_professores": 20,
    "Numero_alunos": 260
  },
  {
    "Nome_escola": "Escola Municipal de Educacao Infantil e Ensino Fundamental Profª Elza Ewald de Oliveira",
    "Endereco": "VILA KM 14 DO MUTUM - KM 14 - 29735-000, S/N, KM 14",
    "Municipio": "Baixo Guandu",
    "CEP": "29735-000",
    "telefone": "",
    "email": "",
    "Latitude": -19.398459,
    "Longitude": -40.905045,
    "Numero_professores": 13,
    "Numero_alunos": 144
  },
  {
    "Nome_escola": "Escola Municipal de Ensino Fundamental Francisco da Cunha Ramaldes",
    "Endereco": "JOAO JULIO CARDOSO, S/N",
    "Municipio": "Baixo Guandu",
    "CEP": "29737-000",
    "telefone": "",
    "email": "",
    "Latitude": -19.275822,
    "Longitude": -40.909266,
    "Numero_professores": 12,
    "Numero_alunos": 134
  },
  {
    "Nome_escola": "Escola Municipal de Ensino Fundamental Olga Martinelli",
    "Endereco": "RUA ENGENHEIRO MERY, 214",
    "Municipio": "Baixo Guandu",
    "CEP": "29740-000",
    "telefone": "",
    "email": "",
    "Latitude": -19.690631,
    "Longitude": -41.017998,
    "Numero_professores": 11,
    "Numero_alunos": 100
  },
  {
    "Nome_escola": "Centro Municipal de Educacao Infantil Brasilino Malaquias de Morais",
    "Endereco": "RUA DUQUE DE CAXIAS, 350, ESCOLA",
    "Municipio": "Barra de São Francisco",
    "CEP": "29800-000",
    "telefone": "",
    "email": "",
    "Latitude": -18.762646,
    "Longitude": -40.892786,
    "Numero_professores": 16,
    "Numero_alunos": 126
  },
  {
    "Nome_escola": "Centro Municipal de Educacao Infantil Dorico Cipriano",
    "Endereco": "RUA BENJAMIN COSTA, 02, PREDIO",
    "Municipio": "Barra de São Francisco",
    "CEP": "29800-000",
    "telefone": "",
    "email": "",
    "Latitude": -18.760377,
    "Longitude": -40.885739,
    "Numero_professores": 16,
    "Numero_alunos": 230
  },
  {
    "Nome_escola": "Centro Municipal de Educacao Infantil Irene Ribeiro da Silva",
    "Endereco": "RUA MELVIN JONES, 67, CRUZEIRO",
    "Municipio": "Barra de São Francisco",
    "CEP": "29800-000",
    "telefone": "",
    "email": "",
    "Latitude": -18.757326,
    "Longitude": -40.894147,
    "Numero_professores": 13,
    "Numero_alunos": 186
  },
  {
    "Nome_escola": "Centro Municipal de Educacao Infantil Katherine Zanet",
    "Endereco": "RUA SAO MATEUS, 637",
    "Municipio": "Barra de São Francisco",
    "CEP": "29815-000",
    "telefone": "",
    "email": "",
    "Latitude": -18.661568,
    "Longitude": -40.7919,
    "Numero_professores": 14,
    "Numero_alunos": 119
  },
  {
    "Nome_escola": "Centro Municipal de Educacao Infantil Raul Goncalves Neto - Raul Tremendao",
    "Endereco": "RUA VANDO JOSE DA SILVA, SN",
    "Municipio": "Barra de São Francisco",
    "CEP": "29800-000",
    "telefone": "",
    "email": "",
    "Latitude": -18.755099,
    "Longitude": -40.88796,
    "Numero_professores": 10,
    "Numero_alunos": 75
  },
  {
    "Nome_escola": "Em Abel Louback",
    "Endereco": "RUA JOSE TIAGO, SN",
    "Municipio": "Barra de São Francisco",
    "CEP": "29800-000",
    "telefone": "",
    "email": "",
    "Latitude": -18.585555,
    "Longitude": -40.886913,
    "Numero_professores": 4,
    "Numero_alunos": 32
  },
  {
    "Nome_escola": "Em Barra de Itaperuna",
    "Endereco": "RUA PRINCIPAL, S/N, PREDIO",
    "Municipio": "Barra de São Francisco",
    "CEP": "29812-000",
    "telefone": "",
    "email": "",
    "Latitude": -18.709111,
    "Longitude": -40.739727,
    "Numero_professores": 8,
    "Numero_alunos": 107
  },
  {
    "Nome_escola": "Em Cabeceira Santo Antonio",
    "Endereco": "CORREGO DO BAGACO",
    "Municipio": "Barra de São Francisco",
    "CEP": "29800-000",
    "telefone": "",
    "email": "",
    "Latitude": -18.808549,
    "Longitude": -40.798053,
    "Numero_professores": 6,
    "Numero_alunos": 34
  },
  {
    "Nome_escola": "Em Cachoeirinha do Itaunas",
    "Endereco": "RUA NELSON FRAGA PINHEIRO, S/N, ESCOLA",
    "Municipio": "Barra de São Francisco",
    "CEP": "29805-000",
    "telefone": "",
    "email": "",
    "Latitude": -18.874261,
    "Longitude": -40.930657,
    "Numero_professores": 13,
    "Numero_alunos": 165
  },
  {
    "Nome_escola": "Em Daniel Cirilo de Paula",
    "Endereco": "CORREGO SAO JOSE",
    "Municipio": "Barra de São Francisco",
    "CEP": "29800-000",
    "telefone": "",
    "email": "",
    "Latitude": -18.510337,
    "Longitude": -40.773581,
    "Numero_professores": 12,
    "Numero_alunos": 104
  },
  {
    "Nome_escola": "Em Evandra Chaves de Oliveira",
    "Endereco": "ASSENTAMENTO TRES CORACOES, SN",
    "Municipio": "Barra de São Francisco",
    "CEP": "29800-000",
    "telefone": "",
    "email": "",
    "Latitude": -18.52581,
    "Longitude": -40.70236,
    "Numero_professores": 6,
    "Numero_alunos": 51
  },
  {
    "Nome_escola": "Em Joao Bastos",
    "Endereco": "AVENIDA DONA MINELVINA GARCIA DE LIMA, 218",
    "Municipio": "Barra de São Francisco",
    "CEP": "29800-000",
    "telefone": "",
    "email": "",
    "Latitude": -18.754149,
    "Longitude": -40.890831,
    "Numero_professores": 28,
    "Numero_alunos": 642
  },
  {
    "Nome_escola": "Em Jose Francisco da Fonseca",
    "Endereco": "RUA BENJAMIM COSTA, 194",
    "Municipio": "Barra de São Francisco",
    "CEP": "29800-000",
    "telefone": "",
    "email": "",
    "Latitude": -18.759403,
    "Longitude": -40.885009,
    "Numero_professores": 18,
    "Numero_alunos": 321
  },
  {
    "Nome_escola": "Em Luciene Matos Ferreira",
    "Endereco": "RODOVIA BARRA DE SAO FRANCISCO A ECOPORANGA KM 03, SN, KM 03",
    "Municipio": "Barra de São Francisco",
    "CEP": "29800-000",
    "telefone": "",
    "email": "",
    "Latitude": -18.73028,
    "Longitude": -40.894255,
    "Numero_professores": 18,
    "Numero_alunos": 264
  },
  {
    "Nome_escola": "Em Mac Nair",
    "Endereco": "RUA SAO SEBASTIAO, S/N, PR. CAMARA MUNICIPAL",
    "Municipio": "Barra de São Francisco",
    "CEP": "29800-000",
    "telefone": "",
    "email": "",
    "Latitude": -18.75424,
    "Longitude": -40.891175,
    "Numero_professores": 12,
    "Numero_alunos": 200
  },
  {
    "Nome_escola": "Em Monte Senir",
    "Endereco": "RUA DEPUTADO LUIZ BATISTA",
    "Municipio": "Barra de São Francisco",
    "CEP": "29800-000",
    "telefone": "",
    "email": "",
    "Latitude": -18.837902,
    "Longitude": -40.780519,
    "Numero_professores": 3,
    "Numero_alunos": 18
  },
  {
    "Nome_escola": "Em Neuza Fernandes da Silva",
    "Endereco": "RUA MANOEL SILVA LOPES, S/N, ESCOLA",
    "Municipio": "Barra de São Francisco",
    "CEP": "29800-000",
    "telefone": "",
    "email": "",
    "Latitude": -18.762621,
    "Longitude": -40.893335,
    "Numero_professores": 12,
    "Numero_alunos": 200
  },
  {
    "Nome_escola": "Em Otto Saar",
    "Endereco": "CORREGO DO ITA, ZONA RURAL",
    "Municipio": "Barra de São Francisco",
    "CEP": "29800-000",
    "telefone": "",
    "email": "",
    "Latitude": -18.661543,
    "Longitude": -40.866424,
    "Numero_professores": 11,
    "Numero_alunos": 137
  },
  {
    "Nome_escola": "Em Santa Angelica",
    "Endereco": "CORREGO SANTA ANGELICA",
    "Municipio": "Barra de São Francisco",
    "CEP": "29800-000",
    "telefone": "",
    "email": "",
    "Latitude": -18.641329,
    "Longitude": -40.888946,
    "Numero_professores": 5,
    "Numero_alunos": 39
  },
  {
    "Nome_escola": "Em Sebastiao Albano",
    "Endereco": "AVENIDA MANOEL ALVES DA FONSECA, 267, ESCOLA",
    "Municipio": "Barra de São Francisco",
    "CEP": "29800-000",
    "telefone": "",
    "email": "",
    "Latitude": -18.753529,
    "Longitude": -40.881826,
    "Numero_professores": 18,
    "Numero_alunos": 315
  },
  {
    "Nome_escola": "Em Vargem Alegre",
    "Endereco": "RUA BENEDITO FELIPE FERREIRA, 445, VARGEM ALEGRE",
    "Municipio": "Barra de São Francisco",
    "CEP": "29800-000",
    "telefone": "",
    "email": "",
    "Latitude": -18.807207,
    "Longitude": -40.852494,
    "Numero_professores": 16,
    "Numero_alunos": 189
  },
  {
    "Nome_escola": "Em Vargem Grande de Itaunas",
    "Endereco": "CORREGO VARGEM GRANDE DE ITAUNAS",
    "Municipio": "Barra de São Francisco",
    "CEP": "29800-000",
    "telefone": "",
    "email": "",
    "Latitude": -18.843849,
    "Longitude": -40.891021,
    "Numero_professores": 7,
    "Numero_alunos": 64
  },
  {
    "Nome_escola": "Em Vicente Amaro da Silva",
    "Endereco": "RUA DONA SAMINA ROSA DOS ANJOS, 220, PREDIO",
    "Municipio": "Barra de São Francisco",
    "CEP": "29800-000",
    "telefone": "",
    "email": "",
    "Latitude": -18.754722,
    "Longitude": -40.897187,
    "Numero_professores": 38,
    "Numero_alunos": 678
  },
  {
    "Nome_escola": "Emefti Ozeias Rezende",
    "Endereco": "ALAMEDA SANTA TEREZINHA, 100, CENTRO",
    "Municipio": "Barra de São Francisco",
    "CEP": "29800-000",
    "telefone": "",
    "email": "",
    "Latitude": -18.76114,
    "Longitude": -40.88954,
    "Numero_professores": 16,
    "Numero_alunos": 254
  },
  {
    "Nome_escola": "Escola Municipal Corrego dos Fagundes",
    "Endereco": "CORREGO BOA SORTE, S/Nº",
    "Municipio": "Barra de São Francisco",
    "CEP": "29800-000",
    "telefone": "",
    "email": "",
    "Latitude": -18.69196,
    "Longitude": -40.815219,
    "Numero_professores": 5,
    "Numero_alunos": 31
  },
  {
    "Nome_escola": "Escola Municipal Familia Agricola Normilia Cunha dos Santos",
    "Endereco": "CORREGO QUEIXADA, SN, CORREGO QUEIXADA",
    "Municipio": "Barra de São Francisco",
    "CEP": "29800-000",
    "telefone": "",
    "email": "",
    "Latitude": -18.777158,
    "Longitude": -40.822893,
    "Numero_professores": 8,
    "Numero_alunos": 204
  },
  {
    "Nome_escola": "Escola Municipal Nicola Nicolini",
    "Endereco": "CORREGO ALTO PAULISTA",
    "Municipio": "Barra de São Francisco",
    "CEP": "29800-000",
    "telefone": "",
    "email": "",
    "Latitude": -18.631841,
    "Longitude": -40.809511,
    "Numero_professores": 7,
    "Numero_alunos": 71
  },
  {
    "Nome_escola": "Escola Municipal Professor Joao Batista da Silva - Joao Maia",
    "Endereco": "VILA PORANGA",
    "Municipio": "Barra de São Francisco",
    "CEP": "29800-000",
    "telefone": "",
    "email": "",
    "Latitude": -18.584084,
    "Longitude": -40.862254,
    "Numero_professores": 7,
    "Numero_alunos": 55
  },
  {
    "Nome_escola": "Escola Municipal Professora Maria Rodrigues de Lima",
    "Endereco": "CORREGO DO ENGENHO",
    "Municipio": "Barra de São Francisco",
    "CEP": "29800-000",
    "telefone": "",
    "email": "",
    "Latitude": -18.641017,
    "Longitude": -40.833925,
    "Numero_professores": 6,
    "Numero_alunos": 45
  },
  {
    "Nome_escola": "Escola Municipal Wilson Ferreira",
    "Endereco": "RUA DURVAL DELEPRANI, S/N, DISTRITO",
    "Municipio": "Barra de São Francisco",
    "CEP": "29800-000",
    "telefone": "",
    "email": "",
    "Latitude": -18.756562,
    "Longitude": -40.805757,
    "Numero_professores": 14,
    "Numero_alunos": 166
  },
  {
    "Nome_escola": "Escola Municipal de Ensino Fundamental em Tempo Integral Elizabeth Trzoseki da Silva",
    "Endereco": "RUA CAMILO LOPES JUNIOR, 202, PREDIO",
    "Municipio": "Barra de São Francisco",
    "CEP": "29815-000",
    "telefone": "",
    "email": "",
    "Latitude": -18.667695,
    "Longitude": -40.79513,
    "Numero_professores": 14,
    "Numero_alunos": 173
  },
  {
    "Nome_escola": "Centro Municipal de Educacao Infantil Crianca Feliz",
    "Endereco": "RUA JOSE ALVES THEODORO, 353",
    "Municipio": "Boa Esperança",
    "CEP": "29845-000",
    "telefone": "",
    "email": "",
    "Latitude": -18.434146,
    "Longitude": -40.38918,
    "Numero_professores": 11,
    "Numero_alunos": 102
  },
  {
    "Nome_escola": "Centro Municipal de Educacao Infantil Pequeno Polegar",
    "Endereco": "RUA HORIZONTE, 69, PREDIO ESCOLAR",
    "Municipio": "Boa Esperança",
    "CEP": "29845-000",
    "telefone": "",
    "email": "",
    "Latitude": -18.538317,
    "Longitude": -40.285764,
    "Numero_professores": 9,
    "Numero_alunos": 91
  },
  {
    "Nome_escola": "Centro Municipal de Educacao Infantil Professora Vera Lucia Pacanha Vieira",
    "Endereco": "RUA PROFESSORA MARIA LUCAS DUARTE DA SILVA, 142, PREDIO",
    "Municipio": "Boa Esperança",
    "CEP": "29845-000",
    "telefone": "",
    "email": "",
    "Latitude": -18.542493,
    "Longitude": -40.297218,
    "Numero_professores": 23,
    "Numero_alunos": 255
  },
  {
    "Nome_escola": "Centro Municipal de Educacao Infantil Sonho Encantado",
    "Endereco": "RUA PROFESSORA IUSA GAVA VALANI, 68, PREDIO",
    "Municipio": "Boa Esperança",
    "CEP": "29845-000",
    "telefone": "",
    "email": "",
    "Latitude": -18.541668,
    "Longitude": -40.289858,
    "Numero_professores": 15,
    "Numero_alunos": 128
  },
  {
    "Nome_escola": "Escola Municipal de Educacao Infantil e Ensino Fundamental Anadyr de Almeida Marchiori",
    "Endereco": "PRACA LACIDE RIBEIRO FRANCA, 54, POVOADO BELA VISTA",
    "Municipio": "Boa Esperança",
    "CEP": "29845-000",
    "telefone": "",
    "email": "",
    "Latitude": -18.554395,
    "Longitude": -40.22314,
    "Numero_professores": 22,
    "Numero_alunos": 233
  },
  {
    "Nome_escola": "Escola Municipal de Educacao Infantil e Ensino Fundamental Quilometro Vinte",
    "Endereco": "RUA PALMIRA, S/N, AREA RURAL",
    "Municipio": "Boa Esperança",
    "CEP": "29845-000",
    "telefone": "",
    "email": "",
    "Latitude": -18.487046,
    "Longitude": -40.398519,
    "Numero_professores": 20,
    "Numero_alunos": 157
  },
  {
    "Nome_escola": "Escola Municipal de Educacao Infantil e Ensino Fundamental Santo Antonio",
    "Endereco": "RUA PRESIDENTE COSTA E SILVA, S/N, PREDIO",
    "Municipio": "Boa Esperança",
    "CEP": "29845-000",
    "telefone": "",
    "email": "",
    "Latitude": -18.517016,
    "Longitude": -40.352508,
    "Numero_professores": 26,
    "Numero_alunos": 198
  },
  {
    "Nome_escola": "Escola Municipal de Ensino Fundamental Prof Izaura de Almeida Silva",
    "Endereco": "RUA ANACLETO GAVA, 169, PREDIO",
    "Municipio": "Boa Esperança",
    "CEP": "29845-000",
    "telefone": "",
    "email": "",
    "Latitude": -18.539348,
    "Longitude": -40.288402,
    "Numero_professores": 23,
    "Numero_alunos": 343
  },
  {
    "Nome_escola": "Escola Municipal de Ensino Fundamental Profª Ubaldina Santo Amaro do Amaral",
    "Endereco": "AVENIDA SENADOR EURICO REZENDE, 740, PREDIO",
    "Municipio": "Boa Esperança",
    "CEP": "29845-000",
    "telefone": "",
    "email": "",
    "Latitude": -18.539899,
    "Longitude": -40.298024,
    "Numero_professores": 30,
    "Numero_alunos": 464
  },
  {
    "Nome_escola": "Centro Municipal de Educacao Infantil Deputado Gil Veloso",
    "Endereco": "RUA CANDIDO PERALVA, 263",
    "Municipio": "Bom Jesus do Norte",
    "CEP": "29460-000",
    "telefone": "",
    "email": "",
    "Latitude": -21.12982,
    "Longitude": -41.67442,
    "Numero_professores": 13,
    "Numero_alunos": 229
  },
  {
    "Nome_escola": "Centro Municipal de Educacao Infantil Maria Moreira de Souza - Tia Cotinha",
    "Endereco": "RUA ABILIO POUBEL, 187, SILVANA",
    "Municipio": "Bom Jesus do Norte",
    "CEP": "29460-000",
    "telefone": "",
    "email": "",
    "Latitude": -21.1246,
    "Longitude": -41.66676,
    "Numero_professores": 2,
    "Numero_alunos": 45
  },
  {
    "Nome_escola": "Centro Municipal de Educacao Infantil Penha de Fatima Lopes Boechat",
    "Endereco": "RUA EVALDO TEIXEIRA DA SILVA, SN, SAO SEBASTIAO",
    "Municipio": "Bom Jesus do Norte",
    "CEP": "29460-000",
    "telefone": "",
    "email": "",
    "Latitude": -21.123822,
    "Longitude": -41.672733,
    "Numero_professores": 15,
    "Numero_alunos": 234
  },
  {
    "Nome_escola": "Escola Municipal de Educacao Infantil e Ensino Fundamental Conquista",
    "Endereco": "ASSENTAMENTO SANTA RITA - JARDIM, SN",
    "Municipio": "Bom Jesus do Norte",
    "CEP": "29460-000",
    "telefone": "",
    "email": "",
    "Latitude": -21.03082,
    "Longitude": -41.59394,
    "Numero_professores": 1,
    "Numero_alunos": 16
  },
  {
    "Nome_escola": "Escola Municipal de Educacao Infantil e Ensino Fundamental Minervina da Silva Araujo",
    "Endereco": "RUA ATAULPHO VIRGILIO LOBO, 70, ESCOLA",
    "Municipio": "Bom Jesus do Norte",
    "CEP": "29460-000",
    "telefone": "",
    "email": "",
    "Latitude": -21.126301,
    "Longitude": -41.670428,
    "Numero_professores": 16,
    "Numero_alunos": 247
  },
  {
    "Nome_escola": "Escola Municipal de Educacao Infantil e Ensino Fundamental Sao Sebastiao",
    "Endereco": "RUA SIMONIDES ALMEIDA DE SOUZA",
    "Municipio": "Bom Jesus do Norte",
    "CEP": "29460-000",
    "telefone": "",
    "email": "",
    "Latitude": -21.12523,
    "Longitude": -41.67236,
    "Numero_professores": 24,
    "Numero_alunos": 324
  },
  {
    "Nome_escola": "Centro Municipal de Educacao Infantil Cantinho Feliz",
    "Endereco": "AV. JOAQUIM CANDIDO DA SILVA, S/N, PROXIMO A PRACA, PROXIMO A PRACA.",
    "Municipio": "Brejetuba",
    "CEP": "29635-000",
    "telefone": "",
    "email": "",
    "Latitude": -19.979796,
    "Longitude": -41.28275,
    "Numero_professores": 8,
    "Numero_alunos": 101
  },
  {
    "Nome_escola": "Centro Municipal de Educacao Infantil Profª Ivone Maria do Carmo Brum",
    "Endereco": "SEBASTIAO JOAO DIAS, SN, PROXIMO A APAE, BELLARMINO ULYANA",
    "Municipio": "Brejetuba",
    "CEP": "29630-000",
    "telefone": "",
    "email": "",
    "Latitude": -20.140769,
    "Longitude": -41.285211,
    "Numero_professores": 22,
    "Numero_alunos": 303
  },
  {
    "Nome_escola": "Centro Municipal de Educacao Infantil e Fundamental Saturnino Lourenco",
    "Endereco": "DISTRITO DE SANTA RITA, S/N",
    "Municipio": "Brejetuba",
    "CEP": "29630-000",
    "telefone": "",
    "email": "",
    "Latitude": -20.13263,
    "Longitude": -41.240899,
    "Numero_professores": 6,
    "Numero_alunos": 48
  },
  {
    "Nome_escola": "Centro Municipal de Ensino Fundamental Sao Jorge",
    "Endereco": "AV. JOAQUIM CANDIDO DA SILVA, 53, PROXIMO A PRACA",
    "Municipio": "Brejetuba",
    "CEP": "29630-000",
    "telefone": "",
    "email": "",
    "Latitude": -19.98008,
    "Longitude": -41.282991,
    "Numero_professores": 12,
    "Numero_alunos": 192
  },
  {
    "Nome_escola": "Centro de Educacao Municipal de Ensino Fundamental Oswaldo Ribeiro da Silva",
    "Endereco": "RUA JOSE OLINTO BADARO, 130",
    "Municipio": "Brejetuba",
    "CEP": "29630-000",
    "telefone": "",
    "email": "",
    "Latitude": -20.148547,
    "Longitude": -41.291148,
    "Numero_professores": 23,
    "Numero_alunos": 428
  },
  {
    "Nome_escola": "Eeffab Joao Vicente Filho",
    "Endereco": "CORREGO VARGEM GRANDE, S/N",
    "Municipio": "Brejetuba",
    "CEP": "29630-000",
    "telefone": "",
    "email": "",
    "Latitude": -20.207856,
    "Longitude": -41.311214,
    "Numero_professores": 8,
    "Numero_alunos": 110
  },
  {
    "Nome_escola": "Escola Municipal de Educacao Infantil Pierina Coco Belizario",
    "Endereco": "RUA MARIANO DUTRA CHAVES, S/N",
    "Municipio": "Brejetuba",
    "CEP": "29630-000",
    "telefone": "",
    "email": "",
    "Latitude": -20.182144,
    "Longitude": -41.266657,
    "Numero_professores": 3,
    "Numero_alunos": 34
  },
  {
    "Nome_escola": "Escola Municipal de Educacao Infantil Professora Jaqueline Dela Costa de Freitas",
    "Endereco": "RANCHO DANTAS, S/N, ZONA RURAL",
    "Municipio": "Brejetuba",
    "CEP": "29630-000",
    "telefone": "",
    "email": "",
    "Latitude": -20.254012,
    "Longitude": -41.235973,
    "Numero_professores": 3,
    "Numero_alunos": 27
  },
  {
    "Nome_escola": "Escola Municipal de Educacao Infantil Sao Sebastiao",
    "Endereco": "FAZENDA LEOGILDO, S/N",
    "Municipio": "Brejetuba",
    "CEP": "29630-000",
    "telefone": "",
    "email": "",
    "Latitude": -20.110311,
    "Longitude": -41.33973,
    "Numero_professores": 3,
    "Numero_alunos": 50
  },
  {
    "Nome_escola": "Escola Municipal de Educacao Infantil e Fundamental Corrego do Cedro",
    "Endereco": "CORREGO DO CEDRO, S/N, ZONA RURAL",
    "Municipio": "Brejetuba",
    "CEP": "29630-000",
    "telefone": "",
    "email": "",
    "Latitude": -20.086335,
    "Longitude": -41.299356,
    "Numero_professores": 12,
    "Numero_alunos": 115
  },
  {
    "Nome_escola": "Escola Municipal de Educacao Infantil e Fundamental Maria de Lurdes Azeredo",
    "Endereco": "VARGEM ALTA, S/N",
    "Municipio": "Brejetuba",
    "CEP": "29630-000",
    "telefone": "",
    "email": "",
    "Latitude": -20.087916,
    "Longitude": -41.254846,
    "Numero_professores": 6,
    "Numero_alunos": 60
  },
  {
    "Nome_escola": "Escola Municipal de Educacao Infantil e Fundamental Patrimonio das Silveiras",
    "Endereco": "ALTO SILVEIRA, S/N, ZONA RURAL",
    "Municipio": "Brejetuba",
    "CEP": "29630-000",
    "telefone": "",
    "email": "",
    "Latitude": -20.203163,
    "Longitude": -41.388095,
    "Numero_professores": 5,
    "Numero_alunos": 59
  },
  {
    "Nome_escola": "Escola Municipal de Educacao Infantil e Fundamental Pr Liberalino de Sousa Proeza",
    "Endereco": "CORREGO SAO DOMINGOS, S/N",
    "Municipio": "Brejetuba",
    "CEP": "29630-000",
    "telefone": "",
    "email": "",
    "Latitude": -20.139774,
    "Longitude": -41.347112,
    "Numero_professores": 5,
    "Numero_alunos": 70
  },
  {
    "Nome_escola": "Escola Municipal de Educacao Infantil e Fundamental Severino Vargas Neto",
    "Endereco": "CORREGO MARAPE, S/N",
    "Municipio": "Brejetuba",
    "CEP": "29630-000",
    "telefone": "",
    "email": "",
    "Latitude": -20.184103,
    "Longitude": -41.313281,
    "Numero_professores": 5,
    "Numero_alunos": 65
  },
  {
    "Nome_escola": "Emeb Abigail dos Santos Simoes",
    "Endereco": "RUA ANTERO SOARES, S/N, 100, PACOTUBA",
    "Municipio": "Cachoeiro de Itapemirim",
    "CEP": "29323-980",
    "telefone": "",
    "email": "",
    "Latitude": -20.764405,
    "Longitude": -41.273637,
    "Numero_professores": 8,
    "Numero_alunos": 91
  },
  {
    "Nome_escola": "Emeb Alair Turbay Baiao",
    "Endereco": "MILETO LOUZADA, 15, OTTON MARINS",
    "Municipio": "Cachoeiro de Itapemirim",
    "CEP": "29301-807",
    "telefone": "",
    "email": "",
    "Latitude": -20.847423,
    "Longitude": -41.13617,
    "Numero_professores": 11,
    "Numero_alunos": 201
  },
  {
    "Nome_escola": "Emeb Albertina Macedo",
    "Endereco": "MANOEL BELMIRO DOS SANTOS, NOSSA SENHORA DE FÁTIMA, -",
    "Municipio": "Cachoeiro de Itapemirim",
    "CEP": "29308-645",
    "telefone": "",
    "email": "",
    "Latitude": -20.840385,
    "Longitude": -41.108756,
    "Numero_professores": 11,
    "Numero_alunos": 123
  },
  {
    "Nome_escola": "Emeb Alberto Sartorio",
    "Endereco": "RUA PROJETADA, SN",
    "Municipio": "Cachoeiro de Itapemirim",
    "CEP": "29324-000",
    "telefone": "",
    "email": "",
    "Latitude": -20.841587,
    "Longitude": -41.037652,
    "Numero_professores": 7,
    "Numero_alunos": 70
  },
  {
    "Nome_escola": "Emeb Anacleto Ramos",
    "Endereco": "MARIO IMPERIAL, 02, FERROVIARIOS",
    "Municipio": "Cachoeiro de Itapemirim",
    "CEP": "29308-014",
    "telefone": "",
    "email": "",
    "Latitude": -20.844319,
    "Longitude": -41.1128,
    "Numero_professores": 47,
    "Numero_alunos": 866
  },
  {
    "Nome_escola": "Emeb Anisio Vieira de Almeida Ramos",
    "Endereco": "ANTONIO PEDRO CARLETO, 33, VILA RICA",
    "Municipio": "Cachoeiro de Itapemirim",
    "CEP": "29301-200",
    "telefone": "",
    "email": "",
    "Latitude": -20.841023,
    "Longitude": -41.129311,
    "Numero_professores": 32,
    "Numero_alunos": 486
  },
  {
    "Nome_escola": "Emeb Aurea Bispo Depes",
    "Endereco": "DOUTOR OSIRIS ALMEIDA DE FREITAS, 59, VILA RICA",
    "Municipio": "Cachoeiro de Itapemirim",
    "CEP": "29301-020",
    "telefone": "",
    "email": "",
    "Latitude": -20.839755,
    "Longitude": -41.127484,
    "Numero_professores": 49,
    "Numero_alunos": 431
  },
  {
    "Nome_escola": "Emeb Bernardino Monteiro",
    "Endereco": "FRANCISCO MARTINS, 41, AMARELO",
    "Municipio": "Cachoeiro de Itapemirim",
    "CEP": "29304-615",
    "telefone": "",
    "email": "",
    "Latitude": -20.859548,
    "Longitude": -41.118052,
    "Numero_professores": 18,
    "Numero_alunos": 269
  },
  {
    "Nome_escola": "Emeb Carim Tanure",
    "Endereco": "ALFREDO MARTINS AMARAL, 101, BAIMINAS",
    "Municipio": "Cachoeiro de Itapemirim",
    "CEP": "29305-430",
    "telefone": "",
    "email": "",
    "Latitude": -20.860575,
    "Longitude": -41.102839,
    "Numero_professores": 13,
    "Numero_alunos": 118
  },
  {
    "Nome_escola": "Emeb Carolina Passos Gaigher",
    "Endereco": "JOSE REBELLO, 96, PREDIO, IBITIQUARA",
    "Municipio": "Cachoeiro de Itapemirim",
    "CEP": "29307-178",
    "telefone": "",
    "email": "",
    "Latitude": -20.844804,
    "Longitude": -41.108859,
    "Numero_professores": 23,
    "Numero_alunos": 282
  },