[
  {
    "Nome_escola": "CAEE FRANCISCO ARCON APAE",
    "Endereco": "RUA ENILA PINHEIRO DE SOUZA, 48, CENTRO",
    "Municipio": "Alegre",
    "CEP": "29500-000",
    "telefone": "",
    "email": "",
    "Latitude": -20.758155,
    "Longitude": -41.536779,
    "Numero_professores": 0,
    "Numero_alunos": 0
  },
  {
    "Nome_escola": "CE ADELIA BARROZO BIFANO",
    "Endereco": "RUA WALDIR MONTEIRO, 83, PREDIO",
    "Municipio": "Alegre",
    "CEP": "29500-000",
    "telefone": "",
    "email": "",
    "Latitude": -20.7677,
    "Longitude": -41.53113,
    "Numero_professores": 17,
    "Numero_alunos": 211
  },
  {
    "Nome_escola": "CENTRO DE DESENVOLVIMENTO INFANTIL AQUARELA LTDA",
    "Endereco": "AVENIDA OLIVIO CORREA PEDROSA, 72, CENTRO",
    "Municipio": "Alegre",
    "CEP": "29500-000",
    "telefone": "",
    "email": "",
    "Latitude": -20.76122,
    "Longitude": -41.52995,
    "Numero_professores": 7,
    "Numero_alunos": 62
  },
  {
    "Nome_escola": "COOPERATIVA EDUCACIONAL SUL CAPIXABA COLEGIO INOVADOR",
    "Endereco": "RUA MISAEL BARCELOS, 54",
    "Municipio": "Alegre",
    "CEP": "29500-000",
    "telefone": "",
    "email": "",
    "Latitude": -20.767476,
    "Longitude": -41.532566,
    "Numero_professores": 14,
    "Numero_alunos": 54
  },
  {
    "Nome_escola": "IESC JUNIOR",
    "Endereco": "RUA ROMUALDO NOGUEIRA DA GAMA, 78",
    "Municipio": "Alegre",
    "CEP": "29500-000",
    "telefone": "",
    "email": "",
    "Latitude": -20.763297,
    "Longitude": -41.530432,
    "Numero_professores": 21,
    "Numero_alunos": 243
  },
  {
    "Nome_escola": "CAEE BEIJINHO DOCE PESTALOZZI",
    "Endereco": "ALAMEDA JOSE SEME, 140",
    "Municipio": "Alfredo Chaves",
    "CEP": "29240-000",
    "telefone": "",
    "email": "",
    "Latitude": -20.63506,
    "Longitude": -40.74847,
    "Numero_professores": 0,
    "Numero_alunos": 0
  },
  {
    "Nome_escola": "ESCOLA FAMILIA AGRICOLA DE ALFREDO CHAVES MEPES",
    "Endereco": "RUA PADRE HUMBERTO PIETROGRANDE, SN",
    "Municipio": "Alfredo Chaves",
    "CEP": "29240-000",
    "telefone": "",
    "email": "",
    "Latitude": -20.632525,
    "Longitude": -40.7516,
    "Numero_professores": 16,
    "Numero_alunos": 113
  },
  {
    "Nome_escola": "CAEE ANCHIETA PESTALOZZI",
    "Endereco": "RUA DAS GABIROBAS, S/N",
    "Municipio": "Anchieta",
    "CEP": "29230-000",
    "telefone": "",
    "email": "",
    "Latitude": -20.800969,
    "Longitude": -40.64421,
    "Numero_professores": 0,
    "Numero_alunos": 0
  },
  {
    "Nome_escola": "CENTRO DE EDUCACAO INFANTIL FRANCISCO GIUSTI MEPES",
    "Endereco": "RUA JOAQUIM PEREIRA DA SILVA, SN, ESCOLA",
    "Municipio": "Anchieta",
    "CEP": "29230-000",
    "telefone": "",
    "email": "",
    "Latitude": -20.805884,
    "Longitude": -40.641316,
    "Numero_professores": 25,
    "Numero_alunos": 169
  },
  {
    "Nome_escola": "CENTRO DE EDUCACAO INFANTIL PINGO DE GENTE MEPES",
    "Endereco": "RUA PROFESSOR RUI LORA, 160",
    "Municipio": "Anchieta",
    "CEP": "29230-000",
    "telefone": "",
    "email": "",
    "Latitude": -20.821333,
    "Longitude": -40.68464,
    "Numero_professores": 4,
    "Numero_alunos": 16
  },
  {
    "Nome_escola": "CENTRO DE EDUCACAO INFANTIL XODO DAS TITIAS MEPES",
    "Endereco": "RUA BEIRA CAMPO, SN, ZONA RURAL",
    "Municipio": "Anchieta",
    "CEP": "29230-000",
    "telefone": "",
    "email": "",
    "Latitude": -20.805818,
    "Longitude": -40.641328,
    "Numero_professores": 7,
    "Numero_alunos": 24
  },
  {
    "Nome_escola": "ESCOLA FAMILIA AGRICOLA DE OLIVANIA MEPES",
    "Endereco": "RUA PROJETADA, SN, ZONA RURAL",
    "Municipio": "Anchieta",
    "CEP": "29230-000",
    "telefone": "",
    "email": "",
    "Latitude": -20.582442,
    "Longitude": -40.646373,
    "Numero_professores": 16,
    "Numero_alunos": 211
  },
  {
    "Nome_escola": "ESCOLA FAMILIA TURISMO PIETROGRANDE MEPES",
    "Endereco": "RUA COSTA PEREIRA, 131",
    "Municipio": "Anchieta",
    "CEP": "29230-000",
    "telefone": "",
    "email": "",
    "Latitude": -20.804578,
    "Longitude": -40.654737,
    "Numero_professores": 4,
    "Numero_alunos": 37
  },
  {
    "Nome_escola": "CAEE NOSSO LAR APAE",
    "Endereco": "EPHIFANIO PONTIN, 200, POLIVALENTE",
    "Municipio": "Aracruz",
    "CEP": "29190-476",
    "telefone": "",
    "email": "",
    "Latitude": -19.817618,
    "Longitude": -40.271197,
    "Numero_professores": 0,
    "Numero_alunos": 0
  },
  {
    "Nome_escola": "CE DE ARACRUZ",
    "Endereco": "RUA PROFESSOR BERILO BASILIO DOS SANTOS, 180, 180, VILA RICA",
    "Municipio": "Aracruz",
    "CEP": "29194-910",
    "telefone": "",
    "email": "",
    "Latitude": -19.819032,
    "Longitude": -40.27767,
    "Numero_professores": 40,
    "Numero_alunos": 946
  },
  {
    "Nome_escola": "CENTRO DE FORMACAO PROFISSIONAL E TECNOLOGICA CICLOS LTDA",
    "Endereco": "HILARIO NUNES LOUREIRO, 101, BELA VISTA",
    "Municipio": "Aracruz",
    "CEP": "29192-025",
    "telefone": "",
    "email": "",
    "Latitude": -19.829633,
    "Longitude": -40.271814,
    "Numero_professores": 66,
    "Numero_alunos": 908
  },
  {
    "Nome_escola": "CENTRO EDUCACIONAL COLIBRI LTDA ME",
    "Endereco": "LAGOA DA TAPERA, 04, ESCOLA, COQUEIRAL",
    "Municipio": "Aracruz",
    "CEP": "29199-191",
    "telefone": "",
    "email": "",
    "Latitude": -19.931032,
    "Longitude": -40.150341,
    "Numero_professores": 13,
    "Numero_alunos": 134
  },
  {
    "Nome_escola": "CENTRO EDUCACIONAL ESPACO LIVRE",
    "Endereco": "PROFESSOR LOBO, 492, ESCOLA, CENTRO",
    "Municipio": "Aracruz",
    "CEP": "29190-062",
    "telefone": "",
    "email": "",
    "Latitude": -19.823078,
    "Longitude": -40.271314,
    "Numero_professores": 27,
    "Numero_alunos": 403
  },
  {
    "Nome_escola": "CENTRO EDUCACIONAL PENSAR LTDA ME",
    "Endereco": "LUIZ MUSSO, 240, VILA NOVA",
    "Municipio": "Aracruz",
    "CEP": "29194-509",
    "telefone": "",
    "email": "",
    "Latitude": -19.81382,
    "Longitude": -40.272973,
    "Numero_professores": 12,
    "Numero_alunos": 135
  },
  {
    "Nome_escola": "CENTRO EDUCACIONAL PRAIA DE COQUEIRAL",
    "Endereco": "VITORIA REGIA, S/Nº, COQUEIRAL",
    "Municipio": "Aracruz",
    "CEP": "29199-162",
    "telefone": "",
    "email": "",
    "Latitude": -19.933609,
    "Longitude": -40.143248,
    "Numero_professores": 17,
    "Numero_alunos": 137
  },
  {
    "Nome_escola": "COLEGIO DE EDUCACAO INFANTIL PIBARA",
    "Endereco": "PROFESSOR LOBO, 626, BLOCO II TERREO A, CENTRO",
    "Municipio": "Aracruz",
    "CEP": "29190-062",
    "telefone": "",
    "email": "",
    "Latitude": -19.823476,
    "Longitude": -40.270201,
    "Numero_professores": 23,
    "Numero_alunos": 259
  },
  {
    "Nome_escola": "ESCOLA CASA DO ESTUDANTE",
    "Endereco": "FLOR DO ESTUDANTE, 213, JARDINS",
    "Municipio": "Aracruz",
    "CEP": "29190-390",
    "telefone": "",
    "email": "",
    "Latitude": -19.822753,
    "Longitude": -40.266798,
    "Numero_professores": 33,
    "Numero_alunos": 503
  },
  {
    "Nome_escola": "ESCOLA DARWIN ARACRUZ",
    "Endereco": "CORONEL VENANCIO FLORES, 2810, VILA NOVA",
    "Municipio": "Aracruz",
    "CEP": "29194-584",
    "telefone": "",
    "email": "",
    "Latitude": -19.813545,
    "Longitude": -40.27333,
    "Numero_professores": 24,
    "Numero_alunos": 229
  },
  {
    "Nome_escola": "ESCOLA DE EDUCACAO INFANTIL SABERES",
    "Endereco": "DAS ACACIAS, 277, COQUEIRAL",
    "Municipio": "Aracruz",
    "CEP": "29199-156",
    "telefone": "",
    "email": "",
    "Latitude": -19.931881,
    "Longitude": -40.138649,
    "Numero_professores": 9,
    "Numero_alunos": 47
  },
  {
    "Nome_escola": "FACULDADE CASA DO ESTUDANTE",
    "Endereco": "RUA FLOR DE ESTUDANTE, 213, JARDINS",
    "Municipio": "Aracruz",
    "CEP": "29190-390",
    "telefone": "",
    "email": "",
    "Latitude": -19.822573,
    "Longitude": -40.266831,
    "Numero_professores": 8,
    "Numero_alunos": 98
  },
  {
    "Nome_escola": "FACULDADES INTEGRADAS DE ARACRUZ",
    "Endereco": "Rua Professor Berilo Basílio dos Santos, 180, Centro",
    "Municipio": "Aracruz",
    "CEP": "29194-910",
    "telefone": "",
    "email": "",
    "Latitude": -19.818796,
    "Longitude": -40.277506,
    "Numero_professores": 39,
    "Numero_alunos": 492
  },
  {
    "Nome_escola": "SENAI ES CENTRO DE EDUCACAO PROFISSIONAL SERGIO ROGERIO DE CASTRO",
    "Endereco": "EPHIFANIO PONTIN, 985B, VILA NOVA",
    "Municipio": "Aracruz",
    "CEP": "29194-611",
    "telefone": "",
    "email": "",
    "Latitude": -19.811413,
    "Longitude": -40.265275,
    "Numero_professores": 11,
    "Numero_alunos": 82
  },
  {
    "Nome_escola": "SESC CENTRO EDUCACIONAL PARA A VIDA",
    "Endereco": "PROFESSOR LOBO, 650, CENTRO",
    "Municipio": "Aracruz",
    "CEP": "29190-062",
    "telefone": "",
    "email": "",
    "Latitude": -19.823975,
    "Longitude": -40.269532,
    "Numero_professores": 34,
    "Numero_alunos": 499
  },
  {
    "Nome_escola": "SESI ES CENTRO DE ATIVIDADES SERGIO ROGERIO DE CASTRO",
    "Endereco": "EPHIFANIO PONTIN, 985B, VILA NOVA",
    "Municipio": "Aracruz",
    "CEP": "29194-611",
    "telefone": "",
    "email": "",
    "Latitude": -19.81141,
    "Longitude": -40.265276,
    "Numero_professores": 15,
    "Numero_alunos": 423
  },
  {
    "Nome_escola": "CAEE ALDACYR DA SILVA CANDIDO LEAL PESTALOZZI",
    "Endereco": "RUA PROJETADA, S/Nº, PREDIO ESCOLAR",
    "Municipio": "Atílio Vivácqua",
    "CEP": "29490-000",
    "telefone": "",
    "email": "",
    "Latitude": -20.920099,
    "Longitude": -41.196481,
    "Numero_professores": 0,
    "Numero_alunos": 0
  },
  {
    "Nome_escola": "CAEE ALEGRIA DE VIVER APAE",
    "Endereco": "AVENIDA SANTA TEREZINHA, 107",
    "Municipio": "Baixo Guandu",
    "CEP": "29730-000",
    "telefone": "",
    "email": "",
    "Latitude": -19.518295,
    "Longitude": -41.012518,
    "Numero_professores": 0,
    "Numero_alunos": 0
  },
  {
    "Nome_escola": "CENTRO EDUCACIONAL 1A OPCAO SONHO MEU",
    "Endereco": "AVENIDA CARLOS DE MEDEIROS, 108",
    "Municipio": "Baixo Guandu",
    "CEP": "29730-000",
    "telefone": "",
    "email": "",
    "Latitude": -19.512521,
    "Longitude": -41.009976,
    "Numero_professores": 15,
    "Numero_alunos": 257
  },
  {
    "Nome_escola": "CENTRO EDUCACIONAL PARA A VIDA ARLINDO MILAGRES FERREIRA",
    "Endereco": "RUA WANDERLAN ALVES, 290",
    "Municipio": "Baixo Guandu",
    "CEP": "29730-000",
    "telefone": "",
    "email": "",
    "Latitude": -19.518262,
    "Longitude": -41.006968,
    "Numero_professores": 14,
    "Numero_alunos": 201
  },
  {
    "Nome_escola": "ESCOLA DE EDUCACAO BASICA GINASIO BRASIL",
    "Endereco": "AVENIDA DEZ DE ABRIL, 960, CENTRO",
    "Municipio": "Baixo Guandu",
    "CEP": "29730-000",
    "telefone": "",
    "email": "",
    "Latitude": -19.517442,
    "Longitude": -41.016875,
    "Numero_professores": 20,
    "Numero_alunos": 285
  },
  {
    "Nome_escola": "CAEE DR PEDRO TALLIS CRUZ PAES APAE",
    "Endereco": "RUA VEREADOR TITO VALDEMAR VIEIRA, 550",
    "Municipio": "Barra de São Francisco",
    "CEP": "29800-000",
    "telefone": "",
    "email": "",
    "Latitude": -18.76276,
    "Longitude": -40.8973,
    "Numero_professores": 0,
    "Numero_alunos": 0
  },
  {
    "Nome_escola": "CENTRO EDUCACIONAL SAO FRANCISCO DE ASSIS",
    "Endereco": "AV. CELSO SCHWAB TAGARRO, 21, PREDIO",
    "Municipio": "Barra de São Francisco",
    "CEP": "29800-000",
    "telefone": "",
    "email": "",
    "Latitude": -18.754728,
    "Longitude": -40.882428,
    "Numero_professores": 35,
    "Numero_alunos": 488
  },
  {
    "Nome_escola": "ESCOLA ADVENTISTA DE BARRA DE SAO FRANCISCO",
    "Endereco": "PRACA JOAQUIM ALVES DE SOUZA, 40, BAMBE",
    "Municipio": "Barra de São Francisco",
    "CEP": "29800-000",
    "telefone": "",
    "email": "",
    "Latitude": -18.758192,
    "Longitude": -40.895646,
    "Numero_professores": 18,
    "Numero_alunos": 245
  },
  {
    "Nome_escola": "ESCOLA DE EDUCACAO INFANTIL NUCLEO DE FORMACAO EDUCACIONAL",
    "Endereco": "RUA ELIZEU DIVINO, 108, CENTRO",
    "Municipio": "Barra de São Francisco",
    "CEP": "29800-000",
    "telefone": "",
    "email": "",
    "Latitude": -18.754555,
    "Longitude": -40.894275,
    "Numero_professores": 6,
    "Numero_alunos": 48
  },
  {
    "Nome_escola": "ESCOLA FAMILIA AGRICOLA JACYRA DE PAULA MINIGUITE MEPES",
    "Endereco": "RODOVIA BARRA DE SAO FRANCISCO X ECOPORANGA, SN, CORREGO DO RECREIO",
    "Municipio": "Barra de São Francisco",
    "CEP": "29800-000",
    "telefone": "",
    "email": "",
    "Latitude": -18.697301,
    "Longitude": -40.88315,
    "Numero_professores": 11,
    "Numero_alunos": 274
  },
  {
    "Nome_escola": "ESCOLA FAMILIA AGRICOLA DE ENSINO MEDIO E EDUCACAO PROFISSIONAL DE BOA ESPERANCA MEPES",
    "Endereco": "ESTRADA DO CAMPO, SN, ZONA RURAL",
    "Municipio": "Boa Esperança",
    "CEP": "29845-000",
    "telefone": "",
    "email": "",
    "Latitude": -18.526135,
    "Longitude": -40.254705,
    "Numero_professores": 14,
    "Numero_alunos": 127
  },
  {
    "Nome_escola": "CEI ALMIR ALVARENGA BORGES MILINHO",
    "Endereco": "AVENIDA CRISTIANO DIAS LOPES, S/N, SILVANA",
    "Municipio": "Bom Jesus do Norte",
    "CEP": "29460-000",
    "telefone": "",
    "email": "",
    "Latitude": -21.12327,
    "Longitude": -41.66443,
    "Numero_professores": 6,
    "Numero_alunos": 89
  },
  {
    "Nome_escola": "CENTRO EDUCACIONAL ROSA DE SOUZA PEREIRA",
    "Endereco": "RUA PROGRESSO, 170",
    "Municipio": "Bom Jesus do Norte",
    "CEP": "29460-000",
    "telefone": "",
    "email": "",
    "Latitude": -21.13053,
    "Longitude": -41.67601,
    "Numero_professores": 6,
    "Numero_alunos": 93
  },
  {
    "Nome_escola": "CAEE DR GILSON CARONE APAE",
    "Endereco": "JOAO SASSO, 702 A 748, SÃO GERALDO",
    "Municipio": "Cachoeiro de Itapemirim",
    "CEP": "29314-650",
    "telefone": "",
    "email": "",
    "Latitude": -20.878484,
    "Longitude": -41.128109,
    "Numero_professores": 0,
    "Numero_alunos": 0
  },
  {
    "Nome_escola": "CE LAURO PINHEIRO",
    "Endereco": "FERNANDO DE MELO PORTINHO, 07, INDEPENDÊNCIA",
    "Municipio": "Cachoeiro de Itapemirim",
    "CEP": "29306-310",
    "telefone": "",
    "email": "",
    "Latitude": -20.852759,
    "Longitude": -41.106156,
    "Numero_professores": 41,
    "Numero_alunos": 798
  },
  {
    "Nome_escola": "CE SAO CAMILO ICE",
    "Endereco": "SAO CAMILO DE LELLIS, 01, BLOCO I, PARAÍSO",
    "Municipio": "Cachoeiro de Itapemirim",
    "CEP": "29304-315",
    "telefone": "",
    "email": "",
    "Latitude": -20.851464,
    "Longitude": -41.120784,
    "Numero_professores": 53,
    "Numero_alunos": 923
  },
  {
    "Nome_escola": "CENTRO DE ATIVIDADES JONES DOS SANTOS NEVES",
    "Endereco": "DOMINGOS ALCINO DADALTO, 2/46, ALTO MONTE CRISTO",
    "Municipio": "Cachoeiro de Itapemirim",
    "CEP": "29312-545",
    "telefone": "",
    "email": "",
    "Latitude": -20.848822,
    "Longitude": -41.148852,
    "Numero_professores": 48,
    "Numero_alunos": 1218
  },
  {
    "Nome_escola": "CENTRO UNIVERSITARIO SAO CAMILO ESPIRITO SANTO",
    "Endereco": "Rua São Camilo de Lellis, 01, Paraiso",
    "Municipio": "Cachoeiro de Itapemirim",
    "CEP": "29304-910",
    "telefone": "",
    "email": "",
    "Latitude": -20.860241,
    "Longitude": -41.121048,
    "Numero_professores": 68,
    "Numero_alunos": 1264
  },
  {
    "Nome_escola": "COLEGIO ADVENTISTA DE CACHOEIRO DE ITAPEMIRIM",
    "Endereco": "DONA CLARICE TOLEDO DE CARVALHO, 60/62, CAMPO DA LEOPOLDINA",
    "Municipio": "Cachoeiro de Itapemirim",
    "CEP": "29305-371",
    "telefone": "",
    "email": "",
    "Latitude": -20.858202,
    "Longitude": -41.122441,
    "Numero_professores": 33,
    "Numero_alunos": 607
  },
  {
    "Nome_escola": "COLEGIO EQUIPE CACHOEIRENSE",
    "Endereco": "MOREIRA, 208, INDEPENDÊNCIA",
    "Municipio": "Cachoeiro de Itapemirim",
    "CEP": "29306-320",
    "telefone": "",
    "email": "",
    "Latitude": -20.852986,
    "Longitude": -41.107049,
    "Numero_professores": 14,
    "Numero_alunos": 69
  },
  {
    "Nome_escola": "COLEGIO JESUS CRISTO REI",
    "Endereco": "MONTE CASTELO, 09, INDEPENDÊNCIA",
    "Municipio": "Cachoeiro de Itapemirim",
    "CEP": "29306-500",
    "telefone": "",
    "email": "",
    "Latitude": -20.848775,
    "Longitude": -41.109857,
    "Numero_professores": 30,
    "Numero_alunos": 381
  },
  {
    "Nome_escola": "EEFM AZEREDO BOTELHO",
    "Endereco": "HORACIO LEANDRO DE SOUZA, 204, BASILÉIA",
    "Municipio": "Cachoeiro de Itapemirim",
    "CEP": "29302-874",
    "telefone": "",
    "email": "",
    "Latitude": -20.855428,
    "Longitude": -41.126291,
    "Numero_professores": 29,
    "Numero_alunos": 457
  },
  {
    "Nome_escola": "EPPG BEM TE VI",
    "Endereco": "EDUARDO GOMES, 25, IBITIQUARA",
    "Municipio": "Cachoeiro de Itapemirim",
    "CEP": "29307-230",
    "telefone": "",
    "email": "",
    "Latitude": -20.846281,
    "Longitude": -41.110597,
    "Numero_professores": 17,
    "Numero_alunos": 422
  },
  {
    "Nome_escola": "ESCOLA FAMILIA AGRICOLA DE CACHOEIRO DE ITAPEMIRIM MEPES",
    "Endereco": "RODOVIA JOAO DOMINGO ZAGO, SN, KM 25",
    "Municipio": "Cachoeiro de Itapemirim",
    "CEP": "29323-000",
    "telefone": "",
    "email": "",
    "Latitude": -20.754458,
    "Longitude": -41.29097,
    "Numero_professores": 11,
    "Numero_alunos": 108
  },
  {
    "Nome_escola": "ESCOLA GUIMARAES ROSA LTDA",
    "Endereco": "25 DE MARCO, 110, CENTRO",
    "Municipio": "Cachoeiro de Itapemirim",
    "CEP": "29300-100",
    "telefone": "",
    "email": "",
    "Latitude": -20.851382,
    "Longitude": -41.110767,
    "Numero_professores": 27,
    "Numero_alunos": 396
  },
  {
    "Nome_escola": "ESCOLA NOVO APOGEU EDUCACIONAL",
    "Endereco": "AVENIDA JONES DOS SANTOS NEVES, 208, MARIA ORTIZ",
    "Municipio": "Cachoeiro de Itapemirim",
    "CEP": "29301-455",
    "telefone": "",
    "email": "",
    "Latitude": -20.844602,
    "Longitude": -41.12814,
    "Numero_professores": 14,
    "Numero_alunos": 197
  },
  {
    "Nome_escola": "ESCOLA PARA A VIDA PROFESSORA MARIA STELLA DE NOVAES SESC CACI",
    "Endereco": "JOANNA PAYER, 101, AEROPORTO",
    "Municipio": "Cachoeiro de Itapemirim",
    "CEP": "29314-106",
    "telefone": "",
    "email": "",
    "Latitude": -20.833054,
    "Longitude": -41.174585,
    "Numero_professores": 34,
    "Numero_alunos": 525
  },
  {
    "Nome_escola": "FACULDADE AMERICA",
    "Endereco": "Rodovia Engenheiro Fabiano Vivacqua, 165, Cachoeiro de Itapemirim, Marbrasa",
    "Municipio": "Cachoeiro de Itapemirim",
    "CEP": "29313-656",
    "telefone": "",
    "email": "",
    "Latitude": -20.837607,
    "Longitude": -41.158615,
    "Numero_professores": 23,
    "Numero_alunos": 179
  },
  {
    "Nome_escola": "FACULDADE ANHANGUERA DE CACHOEIRO DE ITAPEMIRIM",
    "Endereco": "Avenida Jones dos Santos Neves, 256 258, Maria Ortiz",
    "Municipio": "Cachoeiro de Itapemirim",
    "CEP": "29301-455",
    "telefone": "",
    "email": "",
    "Latitude": -20.844312,
    "Longitude": -41.129584,
    "Numero_professores": 12,
    "Numero_alunos": 109
  },
  {
    "Nome_escola": "FACULDADE BRASILEIRA DE CACHOEIRO",
    "Endereco": "Rodovia Engenheiro Fabiano Vivácqua, 2531, Faculdade Brasileira de Cachoeiro, Monte Belo",
    "Municipio": "Cachoeiro de Itapemirim",
    "CEP": "29314-803",
    "telefone": "",
    "email": "",
    "Latitude": -20.873698,
    "Longitude": -41.100466,
    "Numero_professores": 95,
    "Numero_alunos": 984
  },
  {
    "Nome_escola": "FACULDADE DE DIREITO DE CACHOEIRO DO ITAPEMIRIM",
    "Endereco": "Es, 482-Cachoeiroxalegre, KM 05, RODOVIA",
    "Municipio": "Cachoeiro de Itapemirim",
    "CEP": "29313-210",
    "telefone": "",
    "email": "",
    "Latitude": -20.832735,
    "Longitude": -41.157586,
    "Numero_professores": 23,
    "Numero_alunos": 332
  },
  {
    "Nome_escola": "FACULDADE DE TECNOLOGIA CACHOEIRO DE ITAPEMIRIM",
    "Endereco": "Rua Amâncio Silva, 40, Arariguaba",
    "Municipio": "Cachoeiro de Itapemirim",
    "CEP": "29305-470",
    "telefone": "",
    "email": "",
    "Latitude": -20.856984,
    "Longitude": -41.09983,
    "Numero_professores": 12,
    "Numero_alunos": 32
  },
  {
    "Nome_escola": "FACULDADE MULTIVIX DE CACHOEIRO",
    "Endereco": "Rodovia Engenheiro Fabiano Vivacqua, 2531, Cachoeiro de Itapemirim, Monte Belo",
    "Municipio": "Cachoeiro de Itapemirim",
    "CEP": "29314-803",
    "telefone": "",
    "email": "",
    "Latitude": -20.873698,
    "Longitude": -41.100466,
    "Numero_professores": 94,
    "Numero_alunos": 2470
  },
  {
    "Nome_escola": "INST DE PESQUISAS EDUCACIONAIS",
    "Endereco": "LAUDELINA LOUZADA, 46, CAMPO DA LEOPOLDINA",
    "Municipio": "Cachoeiro de Itapemirim",
    "CEP": "29305-367",
    "telefone": "",
    "email": "",
    "Latitude": -20.8545,
    "Longitude": -41.12611,
    "Numero_professores": 31,
    "Numero_alunos": 476
  },
  {
    "Nome_escola": "IPES ESCOLA DE SAUDE",
    "Endereco": "MANOEL FONSECA, 15, PREDIO, FERROVIÁRIOS",
    "Municipio": "Cachoeiro de Itapemirim",
    "CEP": "29308-010",
    "telefone": "",
    "email": "",
    "Latitude": -20.845613,
    "Longitude": -41.113499,
    "Numero_professores": 6,
    "Numero_alunos": 239
  },
  {
    "Nome_escola": "MAPLE BEAR CACHOEIRO DE ITAPEMIRIM",
    "Endereco": "AMELIA MOLINAROLLI GIRO, 57, EM FRENTE A PIZZARIA, SÃO GERALDO",
    "Municipio": "Cachoeiro de Itapemirim",
    "CEP": "29314-673",
    "telefone": "",
    "email": "",
    "Latitude": -20.867959,
    "Longitude": -41.123906,
    "Numero_professores": 10,
    "Numero_alunos": 146
  },
  {
    "Nome_escola": "SENAI ES CENTRO DE EDUCACAO PROFISSIONAL AUREO VIANNA MAMERI",
    "Endereco": "JONES DOS SANTOS NEVES, 975, ALTO MONTE CRISTO",
    "Municipio": "Cachoeiro de Itapemirim",
    "CEP": "29312-535",
    "telefone": "",
    "email": "",
    "Latitude": -20.848213,
    "Longitude": -41.149213,
    "Numero_professores": 6,
    "Numero_alunos": 110
  },
  {
    "Nome_escola": "UP TO DATE INSTITUTO DE ENSINO MULTILINGUE LTDA EPP",
    "Endereco": "RUA AMELIA MOLINAROLLI GIRO, 57, EM FRENTE A PIZZARIA, SAO GERALDO",
    "Municipio": "Cachoeiro de Itapemirim",
    "CEP": "29314-673",
    "telefone": "",
    "email": "",
    "Latitude": -20.86768,
    "Longitude": -41.124048,
    "Numero_professores": 21,
    "Numero_alunos": 211
  },
  {
    "Nome_escola": "CAEE PADRE GABRIEL MAIRE APAE CARIACICA",
    "Endereco": "RUA CARLOS ROGERIO JESUS GOMES, 163, MORADA DE SANTA FE",
    "Municipio": "Cariacica",
    "CEP": "29143-738",
    "telefone": "",
    "email": "",
    "Latitude": -20.346828,
    "Longitude": -40.388188,
    "Numero_professores": 0,
    "Numero_alunos": 0
  },
  {
    "Nome_escola": "CAT BARBARA MONTEIRO LINDEMBERG",
    "Endereco": "RUA VIANA, 325, VILA CAPIXABA",
    "Municipio": "Cariacica",
    "CEP": "29148-170",
    "telefone": "",
    "email": "",
    "Latitude": -20.337393,
    "Longitude": -40.392747,
    "Numero_professores": 38,
    "Numero_alunos": 966
  },
  {
    "Nome_escola": "CAT IND ARNALDO MAGALHAES FILHO",
    "Endereco": "RUA DO SESI, 267, PORTO DE SANTANA",
    "Municipio": "Cariacica",
    "CEP": "29153-076",
    "telefone": "",
    "email": "",
    "Latitude": -20.308566,
    "Longitude": -40.367214,
    "Numero_professores": 30,
    "Numero_alunos": 726
  },
  {
    "Nome_escola": "CE CANTINHO DA CRIANCA",
    "Endereco": "MARIA DIVINA, 220, CASTELO BRANCO",
    "Municipio": "Cariacica",
    "CEP": "29140-822",
    "telefone": "",
    "email": "",
    "Latitude": -20.371925,
    "Longitude": -40.366773,
    "Numero_professores": 1,
    "Numero_alunos": 5
  },
  {
    "Nome_escola": "CE MUNDO MODERNO",
    "Endereco": "RIO GRANDE DO SUL, 30, BOA SORTE",
    "Municipio": "Cariacica",
    "CEP": "29141-241",
    "telefone": "",
    "email": "",
    "Latitude": -20.351085,
    "Longitude": -40.366553,
    "Numero_professores": 31,
    "Numero_alunos": 627
  },
  {
    "Nome_escola": "CE PASSAREDO",
    "Endereco": "GETULIO VARGAS, 31, CAMPO GRANDE",
    "Municipio": "Cariacica",
    "CEP": "29146-070",
    "telefone": "",
    "email": "",
    "Latitude": -20.340261,
    "Longitude": -40.390558,
    "Numero_professores": 4,
    "Numero_alunos": 32
  },
  {
    "Nome_escola": "CE PEQUENOS PASSOS",
    "Endereco": "RUA SAO JOSE, 38, SAO FRANCISCO",
    "Municipio": "Cariacica",
    "CEP": "29145-455",
    "telefone": "",
    "email": "",
    "Latitude": -20.349413,
    "Longitude": -40.4031,
    "Numero_professores": 4,
    "Numero_alunos": 42
  },
  {
    "Nome_escola": "CE RIBEIRO GOUVEA",
    "Endereco": "RUA JOAO BUBACH, 95, PROXIMO CASAGRANDE, CRUZEIRO DO SUL",
    "Municipio": "Cariacica",
    "CEP": "29144-030",
    "telefone": "",
    "email": "",
    "Latitude": -20.346494,
    "Longitude": -40.390233,
    "Numero_professores": 10,
    "Numero_alunos": 113
  },
  {
    "Nome_escola": "CE SAMARITANO",
    "Endereco": "LOPES LOUREIRO, 03, CARIACICA SEDE",
    "Municipio": "Cariacica",
    "CEP": "29156-140",
    "telefone": "",
    "email": "",
    "Latitude": -20.267256,
    "Longitude": -40.417168,
    "Numero_professores": 13,
    "Numero_alunos": 258
  },
  {
    "Nome_escola": "CE SONHO MEU",
    "Endereco": "ADELIA PINHEIRO DE SOUZA, 6, ITACIBA",
    "Municipio": "Cariacica",
    "CEP": "29150-310",
    "telefone": "",
    "email": "",
    "Latitude": -20.323071,
    "Longitude": -40.377504,
    "Numero_professores": 23,
    "Numero_alunos": 524
  },
  {
    "Nome_escola": "CE THOMAS EDSON",
    "Endereco": "RUA JOAO MANOEL SCARPINO, 81, NOVA BRASÍLIA",
    "Municipio": "Cariacica",
    "CEP": "29149-419",
    "telefone": "",
    "email": "",
    "Latitude": -20.327454,
    "Longitude": -40.395341,
    "Numero_professores": 21,
    "Numero_alunos": 351
  },
  {
    "Nome_escola": "CE VINICIUS DE MORAES",
    "Endereco": "BELARMINO FREIRE ASSIS, 3, CAMPO GRANDE",
    "Municipio": "Cariacica",
    "CEP": "29146-420",
    "telefone": "",
    "email": "",
    "Latitude": -20.344052,
    "Longitude": -40.388764,
    "Numero_professores": 22,
    "Numero_alunos": 542
  },
  {
    "Nome_escola": "CEDTEC ENSINO E SOLUCOES DIDATICAS LTDA",
    "Endereco": "AV. MARIO GURGEL, S/N, JARDIM AMÉRICA",
    "Municipio": "Cariacica",
    "CEP": "29140-261",
    "telefone": "",
    "email": "",
    "Latitude": -20.334302,
    "Longitude": -40.355237,
    "Numero_professores": 15,
    "Numero_alunos": 444
  },
  {
    "Nome_escola": "CEI BRILHO DE SOL",
    "Endereco": "RUA PADRE JOSE CARLOS, 33, CAMPO GRANDE",
    "Municipio": "Cariacica",
    "CEP": "29146-050",
    "telefone": "",
    "email": "",
    "Latitude": -20.341556,
    "Longitude": -40.391986,
    "Numero_professores": 12,
    "Numero_alunos": 164
  },
  {
    "Nome_escola": "CEI CANTINHO ENCANTADO",
    "Endereco": "DO VALE, 3, CRUZEIRO DO SUL",
    "Municipio": "Cariacica",
    "CEP": "29144-028",
    "telefone": "",
    "email": "",
    "Latitude": -20.346572,
    "Longitude": -40.394159,
    "Numero_professores": 5,
    "Numero_alunos": 52
  },
  {
    "Nome_escola": "CEI CRIANCA E CIA",
    "Endereco": "DOM PEDRO II, 125, BOA SORTE",
    "Municipio": "Cariacica",
    "CEP": "29141-260",
    "telefone": "",
    "email": "",
    "Latitude": -20.349152,
    "Longitude": -40.369453,
    "Numero_professores": 4,
    "Numero_alunos": 35
  },
  {
    "Nome_escola": "CENTRO DE EDUCACAO INFANTIL DOCURA",
    "Endereco": "AMERICO SIQUEIRA, 08, CAMPO GRANDE",
    "Municipio": "Cariacica",
    "CEP": "29146-190",
    "telefone": "",
    "email": "",
    "Latitude": -20.337841,
    "Longitude": -40.389401,
    "Numero_professores": 2,
    "Numero_alunos": 31
  },
  {
    "Nome_escola": "CENTRO EDUCACIONAL ALPHA KIDS",
    "Endereco": "COSTA RICA, 328, JARDIM AMERICA",
    "Municipio": "Cariacica",
    "CEP": "29140-280",
    "telefone": "",
    "email": "",
    "Latitude": -20.334397,
    "Longitude": -40.367103,
    "Numero_professores": 1,
    "Numero_alunos": 15
  },
  {
    "Nome_escola": "CENTRO EDUCACIONAL INFANTIL PROJETANDO O FUTURO",
    "Endereco": "RUA JOAO DE DEUS DA CUNHA MAFORTE, S/N, PORTO DE SANTANA",
    "Municipio": "Cariacica",
    "CEP": "29153-070",
    "telefone": "",
    "email": "",
    "Latitude": -20.31066,
    "Longitude": -40.369566,
    "Numero_professores": 4,
    "Numero_alunos": 61
  },
  {
    "Nome_escola": "CENTRO EDUCACIONAL INOVACAO",
    "Endereco": "SANTOS RANGEL, 285, ROSA DA PENHA",
    "Municipio": "Cariacica",
    "CEP": "29143-325",
    "telefone": "",
    "email": "",
    "Latitude": -20.349164,
    "Longitude": -40.385111,
    "Numero_professores": 10,
    "Numero_alunos": 89
  },
  {
    "Nome_escola": "CENTRO EDUCACIONAL SAO GERALDO",
    "Endereco": "ESMERALDA, 39, SAO GERALDO",
    "Municipio": "Cariacica",
    "CEP": "29146-675",
    "telefone": "",
    "email": "",
    "Latitude": -20.345005,
    "Longitude": -40.381477,
    "Numero_professores": 21,
    "Numero_alunos": 261
  },
  {
    "Nome_escola": "CENTRO EDUCACIONAL SOL NASCENTE",
    "Endereco": "AV. PRESIDENTE DUTRA, 299, CAMPO GRANDE",
    "Municipio": "Cariacica",
    "CEP": "29146-090",
    "telefone": "",
    "email": "",
    "Latitude": -20.340058,
    "Longitude": -40.389285,
    "Numero_professores": 5,
    "Numero_alunos": 68
  },
  {
    "Nome_escola": "CENTRO EDUCACIONAL VICENTE PELICIONI",
    "Endereco": "RUA SAO SEBASTIAO, 204, SANTA CECÍLIA",
    "Municipio": "Cariacica",
    "CEP": "29147-511",
    "telefone": "",
    "email": "",
    "Latitude": -20.331733,
    "Longitude": -40.395483,
    "Numero_professores": 27,
    "Numero_alunos": 523
  },
  {
    "Nome_escola": "COLEGIO CASTRO ALVES",
    "Endereco": "MARIO VALENTIM, 115, SANTANA",
    "Municipio": "Cariacica",
    "CEP": "29154-190",
    "telefone": "",
    "email": "",
    "Latitude": -20.309858,
    "Longitude": -40.387384,
    "Numero_professores": 43,
    "Numero_alunos": 662
  },
  {
    "Nome_escola": "COLEGIO LUSIADAS",
    "Endereco": "MARIO PASSOS COSTA, SN, CAMPO GRANDE",
    "Municipio": "Cariacica",
    "CEP": "29146-040",
    "telefone": "",
    "email": "",
    "Latitude": -20.34033,
    "Longitude": -40.393774,
    "Numero_professores": 54,
    "Numero_alunos": 1344
  },
  {
    "Nome_escola": "COLEGIO PANORAMICO",
    "Endereco": "SAO JOAO, 596, CARIACICA SEDE",
    "Municipio": "Cariacica",
    "CEP": "29156-175",
    "telefone": "",
    "email": "",
    "Latitude": -20.267619,
    "Longitude": -40.416249,
    "Numero_professores": 22,
    "Numero_alunos": 377
  },
  {
    "Nome_escola": "COLEGIO PASSIONISTA",
    "Endereco": "BOLIVIA, 234, JARDIM AMERICA",
    "Municipio": "Cariacica",
    "CEP": "29140-230",
    "telefone": "",
    "email": "",
    "Latitude": -20.334551,
    "Longitude": -40.364137,
    "Numero_professores": 24,
    "Numero_alunos": 178
  },
  {
    "Nome_escola": "CRECHE HAPPY KIDS",
    "Endereco": "MANOEL JOAQUIM DOS SANTOS, 22, ITACIBA",
    "Municipio": "Cariacica",
    "CEP": "29150-270",
    "telefone": "",
    "email": "",
    "Latitude": -20.322301,
    "Longitude": -40.376315,
    "Numero_professores": 2,
    "Numero_alunos": 64
  },
  {
    "Nome_escola": "CRECHEZINHA PALHACINHO FELIZ",
    "Endereco": "MARIA ORTIZ, 270, LETRA C, ALTO LAGE",
    "Municipio": "Cariacica",
    "CEP": "29151-040",
    "telefone": "",
    "email": "",
    "Latitude": -20.32962,
    "Longitude": -40.366607,
    "Numero_professores": 5,
    "Numero_alunos": 49
  },
  {
    "Nome_escola": "EI PRIMEIROS PASSOS",
    "Endereco": "RUA ADILSON COELHO, 40, ORIENTE",
    "Municipio": "Cariacica",
    "CEP": "29150-533",
    "telefone": "",
    "email": "",
    "Latitude": -20.327508,
    "Longitude": -40.380843,
    "Numero_professores": 2,
    "Numero_alunos": 24
  },
  {
    "Nome_escola": "ESCOLA ADVENTISTA DE CAMPO GRANDE",
    "Endereco": "AV. ALICE COUTINHO SANTOS, 459, VERA CRUZ",
    "Municipio": "Cariacica",
    "CEP": "29146-785",
    "telefone": "",
    "email": "",
    "Latitude": -20.340445,
    "Longitude": -40.377638,
    "Numero_professores": 54,
    "Numero_alunos": 993
  },
  {
    "Nome_escola": "ESCOLA ESPACO DO SABER",
    "Endereco": "AVENIDA CAMPO GRANDE, 45, CAMPO GRANDE",
    "Municipio": "Cariacica",
    "CEP": "29146-300",
    "telefone": "",
    "email": "",
    "Latitude": -20.34902,
    "Longitude": -40.385155,
    "Numero_professores": 11,
    "Numero_alunos": 76
  },
  {
    "Nome_escola": "ESCOLA FORMATE",
    "Endereco": "PRINCESA ISABEL, 701, BLOCO B, NOVA CAMPO GRANDE",
    "Municipio": "Cariacica",
    "CEP": "29158-506",
    "telefone": "",
    "email": "",
    "Latitude": -20.330581,
    "Longitude": -40.456075,
    "Numero_professores": 9,
    "Numero_alunos": 25
  },
  {
    "Nome_escola": "ESCOLA PARA A VIDA DE EDUCACAO INFANTIL E ENSINO FUNDAMENTAL SESC CARIACICA",
    "Endereco": "RUA MANOEL FREIRE CORREA, 553, PARQUE GRAMADO",
    "Municipio": "Cariacica",
    "CEP": "29143-130",
    "telefone": "",
    "email": "",
    "Latitude": -20.355121,
    "Longitude": -40.388359,
    "Numero_professores": 34,
    "Numero_alunos": 533
  },
  {
    "Nome_escola": "FACULDADE DE CIENCIAS BIOMEDICAS DO ESPIRITO SANTO",
    "Endereco": "Rua Bolívar de Abreu, 48, Campo Grande",
    "Municipio": "Cariacica",
    "CEP": "29146-330",
    "telefone": "",
    "email": "",
    "Latitude": -20.33862,
    "Longitude": -40.384972,
    "Numero_professores": 7,
    "Numero_alunos": 68
  },
  {
    "Nome_escola": "FACULDADE DE ESTUDOS SOCIAIS DO ESPIRITO SANTO",
    "Endereco": "Rua Bolivar de Abreu, 48, Campo Grande",
    "Municipio": "Cariacica",
    "CEP": "29146-330",
    "telefone": "",
    "email": "",
    "Latitude": -20.33862,
    "Longitude": -40.384972,
    "Numero_professores": 11,
    "Numero_alunos": 201
  },
  {
    "Nome_escola": "FACULDADE ESPIRITO SANTENSE",
    "Endereco": "Rua São Jorge, 2, Alto Laje",
    "Municipio": "Cariacica",
    "CEP": "29151-120",
    "telefone": "",
    "email": "",
    "Latitude": -20.33313,
    "Longitude": -40.37935,
    "Numero_professores": 45,
    "Numero_alunos": 107
  },
  {
    "Nome_escola": "FACULDADE ESPIRITO SANTENSE DE CIENCIAS JURIDICAS",
    "Endereco": "Rua Bolívar de Abreu, 48, Campo Grande",
    "Municipio": "Cariacica",
    "CEP": "29146-330",
    "telefone": "",
    "email": "",
    "Latitude": -20.33862,
    "Longitude": -40.384972,
    "Numero_professores": 10,
    "Numero_alunos": 110
  },
  {
    "Nome_escola": "FACULDADE EUROPEIA DE VITORIA",
    "Endereco": "Rua Adélia Pereira de Souza, 06, ITACIBÁ",
    "Municipio": "Cariacica",
    "CEP": "29150-310",
    "telefone": "",
    "email": "",
    "Latitude": -20.323152,
    "Longitude": -40.377561,
    "Numero_professores": 12,
    "Numero_alunos": 44
  },
  {
    "Nome_escola": "FACULDADE MULTIVIX CARIACICA",
    "Endereco": "Rua 13 de Maio, 40, São Geraldo",
    "Municipio": "Cariacica",
    "CEP": "29146-672",
    "telefone": "",
    "email": "",
    "Latitude": -20.344841,
    "Longitude": -40.381664,
    "Numero_professores": 71,
    "Numero_alunos": 2785
  },
  {
    "Nome_escola": "GRAU TECNICO CARIACICA",
    "Endereco": "MARIO GURGEL, 05, LOJA A PAV. 01, VILA CAPIXABA",
    "Municipio": "Cariacica",
    "CEP": "29148-022",
    "telefone": "",
    "email": "",
    "Latitude": -20.337637,
    "Longitude": -40.391812,
    "Numero_professores": 16,
    "Numero_alunos": 650
  },
  {
    "Nome_escola": "SEST SENAT A 12 CARIACICA",
    "Endereco": "RIO CLARO, S/Nº, KM 0,5, ITAQUARI",
    "Municipio": "Cariacica",
    "CEP": "29151-315",
    "telefone": "",
    "email": "",
    "Latitude": -20.325959,
    "Longitude": -40.361734,
    "Numero_professores": 2,
    "Numero_alunos": 85
  },
  {
    "Nome_escola": "CEI NOSSA SENHORA DA PENHA",
    "Endereco": "RUA CORONEL FRANCISCO ATHAYDE, 225",
    "Municipio": "Castelo",
    "CEP": "29360-000",
    "telefone": "",
    "email": "",
    "Latitude": -20.603912,
    "Longitude": -41.201418,
    "Numero_professores": 9,
    "Numero_alunos": 120
  },
  {
    "Nome_escola": "CENTRO DE ENSINO INFANTIL E FUNDAMENTAL IMPACTO EDUCACIONAL LTDA",
    "Endereco": "RUA MARIA AMELIA CATTABRIGA SENNA, 50",
    "Municipio": "Castelo",
    "CEP": "29360-000",
    "telefone": "",
    "email": "",
    "Latitude": -20.601577,
    "Longitude": -41.209391,
    "Numero_professores": 24,
    "Numero_alunos": 245
  },
  {
    "Nome_escola": "COLEGIO EXPOENTE DE CASTELO",
    "Endereco": "RUA LUIZ CEOTTO, 57",
    "Municipio": "Castelo",
    "CEP": "29360-000",
    "telefone": "",
    "email": "",
    "Latitude": -20.609876,
    "Longitude": -41.20533,
    "Numero_professores": 43,
    "Numero_alunos": 507
  },
  {
    "Nome_escola": "ESCOLA FAMILIA AGRICOLA DE CASTELO MEPES",
    "Endereco": "ESTRADA DO CAMPO, SN, ARACUI",
    "Municipio": "Castelo",
    "CEP": "29360-000",
    "telefone": "",
    "email": "",
    "Latitude": -20.638873,
    "Longitude": -41.18582,
    "Numero_professores": 12,
    "Numero_alunos": 121
  },
  {
    "Nome_escola": "FACULDADE DE CASTELO MULTIVIX CASTELO",
    "Endereco": "Avenida Nicanor Marques, 245, Centro",
    "Municipio": "Castelo",
    "CEP": "29360-000",
    "telefone": "",
    "email": "",
    "Latitude": -20.604078,
    "Longitude": -41.205121,
    "Numero_professores": 24,
    "Numero_alunos": 110
  },
  {
    "Nome_escola": "CAEE ANGELA DE BRIENZA APAE",
    "Endereco": "BENJAMIM COSTA, 96, MARISTA",
    "Municipio": "Colatina",
    "CEP": "29707-130",
    "telefone": "",
    "email": "",
    "Latitude": -19.539773,
    "Longitude": -40.638609,
    "Numero_professores": 0,
    "Numero_alunos": 0
  },
  {
    "Nome_escola": "CENTRO DE EDUCACAO BASICA E PROFISSIONAL CASTELO BRANCO",
    "Endereco": "AVENIDA BRASIL, 1303, MARIA DAS GRACAS",
    "Municipio": "Colatina",
    "CEP": "29705-011",
    "telefone": "",
    "email": "",
    "Latitude": -19.51996,
    "Longitude": -40.624418,
    "Numero_professores": 31,
    "Numero_alunos": 376
  },
  {
    "Nome_escola": "CENTRO DE EDUCACAO BASICA SESI RAUL GIUBERTI",
    "Endereco": "DO CAFE GETHER LOPES DE FARIAS, 225, MORADA DO SOL",
    "Municipio": "Colatina",
    "CEP": "29704-885",
    "telefone": "",
    "email": "",
    "Latitude": -19.515178,
    "Longitude": -40.659777,
    "Numero_professores": 34,
    "Numero_alunos": 837
  },
  {
    "Nome_escola": "CENTRO DE EDUCACAO INFANTIL FAZENDINHA DOCE LAR",
    "Endereco": "HUMBERTO DE CAMPOS, S/N, CHACARA FENELON, OPERARIO",
    "Municipio": "Colatina",
    "CEP": "29701-280",
    "telefone": "",
    "email": "",
    "Latitude": -19.538973,
    "Longitude": -40.626783,
    "Numero_professores": 13,
    "Numero_alunos": 117
  },
  {
    "Nome_escola": "CENTRO DE ENSINO COLATINENSE DARWIN",
    "Endereco": "AVENIDA PRESIDENTE KENNEDY, 480, MARIA ESMÊNIA",
    "Municipio": "Colatina",
    "CEP": "29702-210",
    "telefone": "",
    "email": "",
    "Latitude": -19.544962,
    "Longitude": -40.635463,
    "Numero_professores": 18,
    "Numero_alunos": 245
  },
  {
    "Nome_escola": "CENTRO EDUCACIONAL PARA A VIDA",
    "Endereco": "CLOTHILDES GUIMARAES TOZZI, 100, CENTRO",
    "Municipio": "Colatina",
    "CEP": "29700-080",
    "telefone": "",
    "email": "",
    "Latitude": -19.535355,
    "Longitude": -40.633552,
    "Numero_professores": 25,
    "Numero_alunos": 391
  },
  {
    "Nome_escola": "CENTRO UNIVERSITARIO CASTELO BRANCO",
    "Endereco": "Avenida Brasil, 1303, Maria das Graças",
    "Municipio": "Colatina",
    "CEP": "29705-100",
    "telefone": "",
    "email": "",
    "Latitude": -19.519781,
    "Longitude": -40.623941,
    "Numero_professores": 47,
    "Numero_alunos": 481
  },
  {
    "Nome_escola": "CENTRO UNIVERSITARIO DO ESPIRITO SANTO UNESC COLATINA",
    "Endereco": "Avenida Fioravante Rossi, 2930, Martinelli",
    "Municipio": "Colatina",
    "CEP": "29703-858",
    "telefone": "",
    "email": "",
    "Latitude": -19.52891,
    "Longitude": -40.660027,
    "Numero_professores": 258,
    "Numero_alunos": 3465
  },
  {
    "Nome_escola": "COLEGIO MARISTA",
    "Endereco": "CHAMPAGNAT, 225, MARISTA",
    "Municipio": "Colatina",
    "CEP": "29707-075",
    "telefone": "",
    "email": "",
    "Latitude": -19.540495,
    "Longitude": -40.639037,
    "Numero_professores": 50,
    "Numero_alunos": 835
  },
  {
    "Nome_escola": "COLEGIO PASSIONISTA JOAO XXIII",
    "Endereco": "JOAO PRETTI, 189, SÃO SILVANO",
    "Municipio": "Colatina",
    "CEP": "29703-215",
    "telefone": "",
    "email": "",
    "Latitude": -19.519495,
    "Longitude": -40.642253,
    "Numero_professores": 33,
    "Numero_alunos": 495
  },
  {
    "Nome_escola": "ESCOLA ADVENTISTA DO ESPIRITO SANTO",
    "Endereco": "BR-259, 00, CAIXA POSTAL 169, COLUMBIA",
    "Municipio": "Colatina",
    "CEP": "29709-300",
    "telefone": "",
    "email": "",
    "Latitude": -19.525562,
    "Longitude": -40.708368,
    "Numero_professores": 21,
    "Numero_alunos": 403
  },
  {
    "Nome_escola": "ESCOLA CATENA AUREA",
    "Endereco": "ALEGRE, 3, MARIA ESMENIA",
    "Municipio": "Colatina",
    "CEP": "29702-230",
    "telefone": "",
    "email": "",
    "Latitude": -19.545154,
    "Longitude": -40.636539,
    "Numero_professores": 16,
    "Numero_alunos": 101
  },
  {
    "Nome_escola": "ESCOLA MUNDO MAGICO",
    "Endereco": "JOSE TOLEDO, 52, CENTRO",
    "Municipio": "Colatina",
    "CEP": "29700-140",
    "telefone": "",
    "email": "",
    "Latitude": -19.534454,
    "Longitude": -40.627988,
    "Numero_professores": 11,
    "Numero_alunos": 130
  },
  {
    "Nome_escola": "ESCOLA TECNICA NOROESTE CAPIXABA LTDA CEDTEC",
    "Endereco": "JOSE ZOUAIN, 439, 1º ANDAR, CENTRO",
    "Municipio": "Colatina",
    "CEP": "29700-020",
    "telefone": "",
    "email": "",
    "Latitude": -19.533285,
    "Longitude": -40.626723,
    "Numero_professores": 1,
    "Numero_alunos": 87
  },
  {
    "Nome_escola": "ITECBRASIL",
    "Endereco": "LUIZ SIMONASSI, 40, MARIA DAS GRACAS",
    "Municipio": "Colatina",
    "CEP": "29705-010",
    "telefone": "",
    "email": "",
    "Latitude": -19.518189,
    "Longitude": -40.623742,
    "Numero_professores": 26,
    "Numero_alunos": 119
  },
  {
    "Nome_escola": "SENAI ES CENTRO DE EDUCACAO PROFISSIONAL ALBANO FRANCO",
    "Endereco": "DO CAFE GETHER LOPES DE FARIAS, 175, MORADA DO SOL",
    "Municipio": "Colatina",
    "CEP": "29704-885",
    "telefone": "",
    "email": "",
    "Latitude": -19.514476,
    "Longitude": -40.658795,
    "Numero_professores": 8,
    "Numero_alunos": 123
  },
  {
    "Nome_escola": "CAEE ESPERANCA PESTALOZZI",
    "Endereco": "RUA ESPERANCA, S/N",
    "Municipio": "Conceição da Barra",
    "CEP": "29960-000",
    "telefone": "",
    "email": "",
    "Latitude": -18.582655,
    "Longitude": -39.738848,
    "Numero_professores": 0,
    "Numero_alunos": 0
  },
  {
    "Nome_escola": "CAEE MENINO JESUS PESTALOZZI",
    "Endereco": "RUA MARIA GOMES DE AGUIAR, SN",
    "Municipio": "Divino de São Lourenço",
    "CEP": "29590-000",
    "telefone": "",
    "email": "",
    "Latitude": -20.61964,
    "Longitude": -41.684908,
    "Numero_professores": 0,
    "Numero_alunos": 0
  },
  {
    "Nome_escola": "CAEE ROSA DE SARON PESTALOZZI",
    "Endereco": "RUA CANDIDO MIGUEL DE SOUZA, 54, PREDIO",
    "Municipio": "Ecoporanga",
    "CEP": "29850-000",
    "telefone": "",
    "email": "",
    "Latitude": -18.371918,
    "Longitude": -40.836429,
    "Numero_professores": 0,
    "Numero_alunos": 0
  },
  {
    "Nome_escola": "COLEGIO INTERATIVO ECOPORANGA",
    "Endereco": "RUA AYES XAVIER DA PENHA, 459",
    "Municipio": "Ecoporanga",
    "CEP": "29850-000",
    "telefone": "",
    "email": "",
    "Latitude": -18.374921,
    "Longitude": -40.829029,
    "Numero_professores": 16,
    "Numero_alunos": 232
  },
  {
    "Nome_escola": "EEIEF BALAO MAGICO",
    "Endereco": "RUA RECIFE, 415",
    "Municipio": "Fundão",
    "CEP": "29187-000",
    "telefone": "",
    "email": "",
    "Latitude": -20.039184,
    "Longitude": -40.190311,
    "Numero_professores": 12,
    "Numero_alunos": 113
  },
  {
    "Nome_escola": "CAEE IRENE SUELA PRANDO APAE",
    "Endereco": "RODOVIA DARIO SALVADOR - CORREGO QUINZE DE NOVEMBRO, 3744 5194",
    "Municipio": "Governador Lindenberg",
    "CEP": "29720-000",
    "telefone": "",
    "email": "",
    "Latitude": -19.245889,
    "Longitude": -40.479873,
    "Numero_professores": 0,
    "Numero_alunos": 0
  },
  {
    "Nome_escola": "CAEE JANDIRA MARIA FERREIRA ALVES APAE",
    "Endereco": "VEREADOR JORGE SIMOES, 10, ITAPEBUSSU",
    "Municipio": "Guarapari",
    "CEP": "29210-155",
    "telefone": "",
    "email": "",
    "Latitude": -20.660915,
    "Longitude": -40.505758,
    "Numero_professores": 0,
    "Numero_alunos": 0
  },
  {
    "Nome_escola": "CAEE PEIXINHO DOURADO PESTALOZZI",
    "Endereco": "PARANA, 25, JARDIM BOA VISTA",
    "Municipio": "Guarapari",
    "CEP": "29217-030",
    "telefone": "",
    "email": "",
    "Latitude": -20.642188,
    "Longitude": -40.480217,
    "Numero_professores": 0,
    "Numero_alunos": 0
  },
  {
    "Nome_escola": "CASA DE ACOLHIDA E EDUCACAO INFANTIL CRECHE ALEGRIA",
    "Endereco": "AVENIDA BRASIL COLONIA, 98, AO LADO DA COSFA, SANTA MÔNICA",
    "Municipio": "Guarapari",
    "CEP": "29221-520",
    "telefone": "",
    "email": "",
    "Latitude": -20.617018,
    "Longitude": -40.45488,
    "Numero_professores": 6,
    "Numero_alunos": 114
  },
  {
    "Nome_escola": "CE CANTINHO DO CEU",
    "Endereco": "JOSE BARCELLOS DE MATTOS, 449, ESCOLA, SAO JUDAS TADEU",
    "Municipio": "Guarapari",
    "CEP": "29200-720",
    "telefone": "",
    "email": "",
    "Latitude": -20.671762,
    "Longitude": -40.504061,
    "Numero_professores": 18,
    "Numero_alunos": 125
  },
  {
    "Nome_escola": "CE SOUZA MARQUES",
    "Endereco": "OLIMPIO SIMOES, 855, ITAPEBUSSU",
    "Municipio": "Guarapari",
    "CEP": "29210-060",
    "telefone": "",
    "email": "",
    "Latitude": -20.66381,
    "Longitude": -40.50602,
    "Numero_professores": 1,
    "Numero_alunos": 13
  },
  {
    "Nome_escola": "CEDTEC ENSINO E SOLUCOES DIDATICAS LTDA",
    "Endereco": "JOSIAS CERUTTI, 375, PREDIO VERDE, PRAIA DO MORRO",
    "Municipio": "Guarapari",
    "CEP": "29216-600",
    "telefone": "",
    "email": "",
    "Latitude": -20.644318,
    "Longitude": -40.484459,
    "Numero_professores": 16,
    "Numero_alunos": 556
  },
  {
    "Nome_escola": "CENTRO DE ENSINO DARWIN GUARAPARI",
    "Endereco": "SANTANA DO IAPO, 233, PREDIO, MUQUICABA",
    "Municipio": "Guarapari",
    "CEP": "29215-020",
    "telefone": "",
    "email": "",
    "Latitude": -20.659852,
    "Longitude": -40.501163,
    "Numero_professores": 19,
    "Numero_alunos": 42
  },
  {
    "Nome_escola": "ESCOLA AMERICANO DOCTUM DE GUARAPARI UNIDADE I",
    "Endereco": "ERNESTINA VIEIRA SIMOES, 218, COMUNIDADE URBANA DE MAXINDA",
    "Municipio": "Guarapari",
    "CEP": "29202-020",
    "telefone": "",
    "email": "",
    "Latitude": -20.672143,
    "Longitude": -40.511106,
    "Numero_professores": 27,
    "Numero_alunos": 381
  },
  {
    "Nome_escola": "ESCOLA CARLOS DRUMOND DE ANDRADE",
    "Endereco": "AV. CELSO BASTOS COUTO, 985, PRAIA DO MORRO",
    "Municipio": "Guarapari",
    "CEP": "29216-110",
    "telefone": "",
    "email": "",
    "Latitude": -20.65106,
    "Longitude": -40.486735,
    "Numero_professores": 11,
    "Numero_alunos": 144
  },
  {
    "Nome_escola": "ESCOLA DE ENSINO FUNDAMENTAL OS PENSADORES",
    "Endereco": "JACINTO DE ALMEIDA, 410, CENTRO",
    "Municipio": "Guarapari",
    "CEP": "29200-045",
    "telefone": "",
    "email": "",
    "Latitude": -20.671831,
    "Longitude": -40.504404,
    "Numero_professores": 11,
    "Numero_alunos": 108
  },
  {
    "Nome_escola": "ESCOLA DE ENSINO INFANTIL E FUNDAMENTAL OASIS",
    "Endereco": "JOSE BARCELLOS DE MATTOS, 562, PARQUE AREIA PRETA",
    "Municipio": "Guarapari",
    "CEP": "29200-720",
    "telefone": "",
    "email": "",
    "Latitude": -20.67129,
    "Longitude": -40.505075,
    "Numero_professores": 14,
    "Numero_alunos": 137
  },
  {
    "Nome_escola": "ESCOLA JESUS MENINO",
    "Endereco": "DONA MORENA, 181, ESCOLA, ITAPEBUSSU",
    "Municipio": "Guarapari",
    "CEP": "29210-185",
    "telefone": "",
    "email": "",
    "Latitude": -20.663642,
    "Longitude": -40.504737,
    "Numero_professores": 16,
    "Numero_alunos": 231
  },
  {
    "Nome_escola": "ESCOLA RUI BARBOSA",
    "Endereco": "PREFEITO EPAMINONDAS DE ALMEIDA, 480, SAO JUDAS TADEU",
    "Municipio": "Guarapari",
    "CEP": "29200-740",
    "telefone": "",
    "email": "",
    "Latitude": -20.672751,
    "Longitude": -40.50555,
    "Numero_professores": 22,
    "Numero_alunos": 402
  },
  {
    "Nome_escola": "FACULDADE ANHANGUERA DE GUARAPARI",
    "Endereco": "Rodovia Jones dos Santos neves, 1.000, Lagoa Funda",
    "Municipio": "Guarapari",
    "CEP": "29214-005",
    "telefone": "",
    "email": "",
    "Latitude": -20.636343,
    "Longitude": -40.517103,
    "Numero_professores": 53,
    "Numero_alunos": 282
  },
  {
    "Nome_escola": "FACULDADE ANHANGUERA UNIDADE GUARAPARI",
    "Endereco": "Rodovia Jones dos Santos Neves, 1000, Lagoa Funda",
    "Municipio": "Guarapari",
    "CEP": "29214-005",
    "telefone": "",
    "email": "",
    "Latitude": -20.657099,
    "Longitude": -40.503889,
    "Numero_professores": 81,
    "Numero_alunos": 1012
  },
  {
    "Nome_escola": "FACULDADE DE COMUNICACAO ANHANGUERA UNIDADE GUARAPARI",
    "Endereco": "Rodovia Jones dos Santos Neves, 1000, Lagoa Funda",
    "Municipio": "Guarapari",
    "CEP": "29214-005",
    "telefone": "",
    "email": "",
    "Latitude": -20.657099,
    "Longitude": -40.503889,
    "Numero_professores": 27,
    "Numero_alunos": 2
  },
  {
    "Nome_escola": "FACULDADE DE DIREITO ANHANGUERA UNIDADE GUARAPARI",
    "Endereco": "Avenida Governador Jones dos Santos Neves, 1000, Lagoa Funda",
    "Municipio": "Guarapari",
    "CEP": "29214-005",
    "telefone": "",
    "email": "",
    "Latitude": -20.657099,
    "Longitude": -40.503889,
    "Numero_professores": 21,
    "Numero_alunos": 339
  },
  {
    "Nome_escola": "FACULDADES DOCTUM DE GUARAPARI",
    "Endereco": "Rodovia Jones dos Santos Neves, 3535, Muquiçaba",
    "Municipio": "Guarapari",
    "CEP": "29215-002",
    "telefone": "",
    "email": "",
    "Latitude": -20.656958,
    "Longitude": -40.502141,
    "Numero_professores": 23,
    "Numero_alunos": 215
  },
  {
    "Nome_escola": "IE JESUS MENINO",
    "Endereco": "SANTANA DO IAPO, 233, ESCOLA, MUQUIÇABA",
    "Municipio": "Guarapari",
    "CEP": "29215-020",
    "telefone": "",
    "email": "",
    "Latitude": -20.659932,
    "Longitude": -40.501219,
    "Numero_professores": 12,
    "Numero_alunos": 174
  },
  {
    "Nome_escola": "INSTITUTO EDUCACIONAL PORTO LTDA",
    "Endereco": "RUA OLIMPIO SIMOES, 380, MURO VERMELHO, ITAPEBUSSU",
    "Municipio": "Guarapari",
    "CEP": "29210-060",
    "telefone": "",
    "email": "",
    "Latitude": -20.664896,
    "Longitude": -40.50559,
    "Numero_professores": 12,
    "Numero_alunos": 143
  },
  {
    "Nome_escola": "MAPLE BEAR GUARAPARI",
    "Endereco": "GOVERNADOR JONES DOS SANTOS NEVES, 3177, MUQUIÇABA",
    "Municipio": "Guarapari",
    "CEP": "29215-002",
    "telefone": "",
    "email": "",
    "Latitude": -20.657372,
    "Longitude": -40.502296,
    "Numero_professores": 12,
    "Numero_alunos": 123
  },
  {
    "Nome_escola": "MAXIME CENTRO EDUCACIONAL",
    "Endereco": "MANOEL LOPES GOMIDE, 31, PREDIO, PRAIA DO MORRO",
    "Municipio": "Guarapari",
    "CEP": "29216-065",
    "telefone": "",
    "email": "",
    "Latitude": -20.653117,
    "Longitude": -40.495658,
    "Numero_professores": 31,
    "Numero_alunos": 442
  },
  {
    "Nome_escola": "PE OS PEQUERRUCHOS",
    "Endereco": "JACINTO DE ALMEIDA, 410, ESCOLA, CENTRO",
    "Municipio": "Guarapari",
    "CEP": "29200-045",
    "telefone": "",
    "email": "",
    "Latitude": -20.671897,
    "Longitude": -40.504358,
    "Numero_professores": 6,
    "Numero_alunos": 87
  },
  {
    "Nome_escola": "CAEE DOUTOR JOSE REZENDE VARGAS APAE",
    "Endereco": "RUA NOSSA SENHORA DO PERPETUO SOCORRO, 155, PREDIO ESCOLAR",
    "Municipio": "Guaçuí",
    "CEP": "29560-000",
    "telefone": "",
    "email": "",
    "Latitude": -20.761689,
    "Longitude": -41.671181,
    "Numero_professores": 0,
    "Numero_alunos": 0
  },
  {
    "Nome_escola": "CEFTAC CENTRO EDUCACIONAL DE FORMACAO TECNICA ALTO CAPARAO",
    "Endereco": "RUA MURILO EMERY LUCINDO, 67",
    "Municipio": "Guaçuí",
    "CEP": "29560-000",
    "telefone": "",
    "email": "",
    "Latitude": -20.770497,
    "Longitude": -41.674703,
    "Numero_professores": 11,
    "Numero_alunos": 55
  },
  {
    "Nome_escola": "CENTRO EDUCACIONAL ISRAEL",
    "Endereco": "SEBASTIAO SIMOES, 258, PREDIO",
    "Municipio": "Guaçuí",
    "CEP": "29560-000",
    "telefone": "",
    "email": "",
    "Latitude": -20.774124,
    "Longitude": -41.682566,
    "Numero_professores": 26,
    "Numero_alunos": 352
  },
  {
    "Nome_escola": "COLEGIO SAO GERALDO",
    "Endereco": "RUA FRANCISCO OURIQUE, 199",
    "Municipio": "Guaçuí",
    "CEP": "29560-000",
    "telefone": "",
    "email": "",
    "Latitude": -20.77434,
    "Longitude": -41.68027,
    "Numero_professores": 24,
    "Numero_alunos": 319
  },
  {
    "Nome_escola": "CAEE JOAO FERREIRA SOBRINHO APAE",
    "Endereco": "RUA VITALINA ALVES MORENO, 01, PREDIO",
    "Municipio": "Ibatiba",
    "CEP": "29395-000",
    "telefone": "",
    "email": "",
    "Latitude": -20.22887,
    "Longitude": -41.49608,
    "Numero_professores": 0,
    "Numero_alunos": 0
  },
  {
    "Nome_escola": "ESCOLA DE EDUCACAO INFANTIL AGAPE JUNIOR",
    "Endereco": "AVENIDA SERVULO RODRIGUES TRINDADE, 171",
    "Municipio": "Ibatiba",
    "CEP": "29395-000",
    "telefone": "",
    "email": "",
    "Latitude": -20.233662,
    "Longitude": -41.507807,
    "Numero_professores": 4,
    "Numero_alunos": 61
  },
  {
    "Nome_escola": "ESCOLA DE ENSINO INFANTIL E FUDAMENTAL IMPACTO LTDA ME",
    "Endereco": "AVENIDA SERVULO RODRIGUES TRINDADE, 72",
    "Municipio": "Ibatiba",
    "CEP": "29395-000",
    "telefone": "",
    "email": "",
    "Latitude": -20.234363,
    "Longitude": -41.50881,
    "Numero_professores": 13,
    "Numero_alunos": 118
  },
  {
    "Nome_escola": "CAEE PROFESSORA ELZITA BARBARIOLI PESTALOZZI",
    "Endereco": "RUA MARIO ANTONIO MODENESI, SN",
    "Municipio": "Ibiraçu",
    "CEP": "29670-000",
    "telefone": "",
    "email": "",
    "Latitude": -19.820383,
    "Longitude": -40.370523,
    "Numero_professores": 0,
    "Numero_alunos": 0
  },
  {
    "Nome_escola": "CENTRO EDUCACIONAL MAGIA DE APRENDER",
    "Endereco": "RUA DOS JURITIS, 31, CASA",
    "Municipio": "Ibiraçu",
    "CEP": "29670-000",
    "telefone": "",
    "email": "",
    "Latitude": -19.833228,
    "Longitude": -40.362068,
    "Numero_professores": 12,
    "Numero_alunos": 112
  },
  {
    "Nome_escola": "ESCOLA SAO FRANCISCO DE ASSIS ESFA",
    "Endereco": "RUA DOS TUCANOS, 218, ERICINA",
    "Municipio": "Ibiraçu",
    "CEP": "29670-000",
    "telefone": "",
    "email": "",
    "Latitude": -19.833317,
    "Longitude": -40.36406,
    "Numero_professores": 16,
    "Numero_alunos": 214
  },
  {
    "Nome_escola": "CAEE RAPHAEL TARSIS OLIVEIRA AMIGO APAE DE IBITIRAMA",
    "Endereco": "AVENIDA ANIZIO FERREIRA DA SILVA, 67, PREDIO",
    "Municipio": "Ibitirama",
    "CEP": "29540-000",
    "telefone": "",
    "email": "",
    "Latitude": -20.538282,
    "Longitude": -41.664099,
    "Numero_professores": 0,
    "Numero_alunos": 0
  },
  {
    "Nome_escola": "ESCOLA FAMILIA AGRICOLA DE IBITIRAMA MEPES",
    "Endereco": "ESTRADA SAO JOSE, SN, ZONA RURAL",
    "Municipio": "Ibitirama",
    "CEP": "29540-000",
    "telefone": "",
    "email": "",
    "Latitude": -20.432005,
    "Longitude": -41.67734,
    "Numero_professores": 8,
    "Numero_alunos": 59
  },
  {
    "Nome_escola": "CAEE AMOR PERFEITO APAE",
    "Endereco": "RUA LEVI AMARO MACHADO, 125",
    "Municipio": "Irupi",
    "CEP": "29398-000",
    "telefone": "",
    "email": "",
    "Latitude": -20.343971,
    "Longitude": -41.639095,
    "Numero_professores": 0,
    "Numero_alunos": 0
  },
  {
    "Nome_escola": "CAEE ARCO IRIS APAE",
    "Endereco": "AVENIDA PREFEITO WELLINGTON FIRMINO DO CARMO, S/Nº",
    "Municipio": "Iúna",
    "CEP": "29390-000",
    "telefone": "",
    "email": "",
    "Latitude": -20.339794,
    "Longitude": -41.53781,
    "Numero_professores": 0,
    "Numero_alunos": 0
  },
  {
    "Nome_escola": "CETESC CENTRO DE ENSINO TECNICO E SUPERIOR CAPIXABA LTDA ME",
    "Endereco": "RUA RAULINO FINAMORE, 43, ESCOLA",
    "Municipio": "Iúna",
    "CEP": "29390-000",
    "telefone": "",
    "email": "",
    "Latitude": -20.350199,
    "Longitude": -41.53416,
    "Numero_professores": 7,
    "Numero_alunos": 118
  },
  {
    "Nome_escola": "COLEGIO PORTO SEGURO",
    "Endereco": "RUA TERPINHA LACERDA, 97",
    "Municipio": "Iúna",
    "CEP": "29390-000",
    "telefone": "",
    "email": "",
    "Latitude": -20.35045,
    "Longitude": -41.53447,
    "Numero_professores": 21,
    "Numero_alunos": 236
  },
  {
    "Nome_escola": "COLEGIO RENASCER EIRELI",
    "Endereco": "PRACA CEL JOAO OSORIO PEREIRA, 120, FUNDOS",
    "Municipio": "Iúna",
    "CEP": "29390-000",
    "telefone": "",
    "email": "",
    "Latitude": -20.34464,
    "Longitude": -41.537912,
    "Numero_professores": 21,
    "Numero_alunos": 252
  },
  {
    "Nome_escola": "CAEE LUZ DA VIDA PESTALOZZI",
    "Endereco": "RUA ANTENOR GABRIEL, 194, QUADRA 56",
    "Municipio": "Jaguaré",
    "CEP": "29950-000",
    "telefone": "",
    "email": "",
    "Latitude": -18.905185,
    "Longitude": -40.067719,
    "Numero_professores": 0,
    "Numero_alunos": 0
  },
  {
    "Nome_escola": "COLEGIO PORTA DO SOL",
    "Endereco": "RUA LUIZ FALCHETO, 90",
    "Municipio": "Jaguaré",
    "CEP": "29950-000",
    "telefone": "",
    "email": "",
    "Latitude": -18.909047,
    "Longitude": -40.074663,
    "Numero_professores": 21,
    "Numero_alunos": 258
  },
  {
    "Nome_escola": "ESCOLA FAMILIA AGRICOLA DE JAGUARE MEPES",
    "Endereco": "RODOVIA DOM JOSE DALVIT, SN, KM 10",
    "Municipio": "Jaguaré",
    "CEP": "29950-000",
    "telefone": "",
    "email": "",
    "Latitude": -18.909336,
    "Longitude": -40.055231,
    "Numero_professores": 11,
    "Numero_alunos": 253
  },
  {
    "Nome_escola": "CAEE JERONIMO MONTEIRO PESTALOZZI",
    "Endereco": "RUA AMERICA DELOGO, 130",
    "Municipio": "Jerônimo Monteiro",
    "CEP": "29550-000",
    "telefone": "",
    "email": "",
    "Latitude": -20.793872,
    "Longitude": -41.39966,
    "Numero_professores": 0,
    "Numero_alunos": 0
  },
  {
    "Nome_escola": "CAEE SEMENTE DE AMOR PESTALOZZI",
    "Endereco": "RUA JACINTA PALASSI DE ANGELI, Nº 81",
    "Municipio": "João Neiva",
    "CEP": "29680-000",
    "telefone": "",
    "email": "",
    "Latitude": -19.754188,
    "Longitude": -40.38198,
    "Numero_professores": 0,
    "Numero_alunos": 0
  },
  {
    "Nome_escola": "ESCOLA MONTE NEGRO",
    "Endereco": "PRACA NOSSA SENHORA DO LIBANO, 30",
    "Municipio": "João Neiva",
    "CEP": "29680-000",
    "telefone": "",
    "email": "",
    "Latitude": -19.75646,
    "Longitude": -40.384825,
    "Numero_professores": 21,
    "Numero_alunos": 331
  },
  {
    "Nome_escola": "CAEE DE LINHARES PESTALOZZI",
    "Endereco": "PRESIDENTE RODRIGUES ALVES, 275, ESCOLA, COLINA",
    "Municipio": "Linhares",
    "CEP": "29900-415",
    "telefone": "",
    "email": "",
    "Latitude": -19.390119,
    "Longitude": -40.073006,
    "Numero_professores": 0,
    "Numero_alunos": 0
  },
  {
    "Nome_escola": "CEI ACONCHEGO",
    "Endereco": "AVENIDA ALEGRE, 1136, ARACA",
    "Municipio": "Linhares",
    "CEP": "29901-392",
    "telefone": "",
    "email": "",
    "Latitude": -19.398246,
    "Longitude": -40.057691,
    "Numero_professores": 6,
    "Numero_alunos": 104
  },
  {
    "Nome_escola": "CENTRO DE ATIVIDADES EURICO DE AGUIAR SALLES",
    "Endereco": "FILOGONIO PEIXOTO, 396, AVISO",
    "Municipio": "Linhares",
    "CEP": "29901-288",
    "telefone": "",
    "email": "",
    "Latitude": -19.407215,
    "Longitude": -40.060941,
    "Numero_professores": 45,
    "Numero_alunos": 1187
  },
  {
    "Nome_escola": "CENTRO DE ENSINO LINHARENSE DARWIN",
    "Endereco": "RUI BARBOSA, 94, CENTRO",
    "Municipio": "Linhares",
    "CEP": "29900-070",
    "telefone": "",
    "email": "",
    "Latitude": -19.404151,
    "Longitude": -40.061386,
    "Numero_professores": 20,
    "Numero_alunos": 188
  },
  {
    "Nome_escola": "CENTRO DE ENSINO OUSE",
    "Endereco": "JOAO FELIPE CALMON, 1187, CENTRO",
    "Municipio": "Linhares",
    "CEP": "29900-026",
    "telefone": "",
    "email": "",
    "Latitude": -19.393989,
    "Longitude": -40.069528,
    "Numero_professores": 21,
    "Numero_alunos": 233
  },
  {
    "Nome_escola": "CENTRO EDUCACIONAL PARA A VIDA DO SESC DE LINHARES",
    "Endereco": "AUGUSTO CALMON, 1907, CENTRO",
    "Municipio": "Linhares",
    "CEP": "29900-060",
    "telefone": "",
    "email": "",
    "Latitude": -19.394289,
    "Longitude": -40.068402,
    "Numero_professores": 32,
    "Numero_alunos": 553
  },
  {
    "Nome_escola": "COLEGIO CRISTO REI",
    "Endereco": "SAO MATEUS, 1458, ARAÇÁ",
    "Municipio": "Linhares",
    "CEP": "29901-396",
    "telefone": "",
    "email": "",
    "Latitude": -19.397519,
    "Longitude": -40.061283,
    "Numero_professores": 46,
    "Numero_alunos": 780
  },
  {
    "Nome_escola": "COOPERATIVA EDUCACIONAL DE LINHARES",
    "Endereco": "RUA LUIZ POLTRONIERI, S/N, TRÊS BARRAS",
    "Municipio": "Linhares",
    "CEP": "29907-210",
    "telefone": "",
    "email": "",
    "Latitude": -19.37421,
    "Longitude": -40.074069,
    "Numero_professores": 36,
    "Numero_alunos": 706
  },
  {
    "Nome_escola": "ESCOLA CANADENSE MAPLE BEAR LINHARES",
    "Endereco": "ETORE PEDRONI, 952, TRÊS BARRAS",
    "Municipio": "Linhares",
    "CEP": "29907-005",
    "telefone": "",
    "email": "",
    "Latitude": -19.36393,
    "Longitude": -40.071536,
    "Numero_professores": 13,
    "Numero_alunos": 151
  },
  {
    "Nome_escola": "ESCOLA DE EDUCACAO BASICA CEP EDUCACIONAL",
    "Endereco": "PAULINO VIGUINI, 529, NOSSA SENHORA DA CONCEICAO",
    "Municipio": "Linhares",
    "CEP": "29900-555",
    "telefone": "",
    "email": "",
    "Latitude": -19.385648,
    "Longitude": -40.068658,
    "Numero_professores": 22,
    "Numero_alunos": 304
  },
  {
    "Nome_escola": "ESCOLA NEST LTDA",
    "Endereco": "PROFESSOR JONES, 1513, CENTRO",
    "Municipio": "Linhares",
    "CEP": "29900-131",
    "telefone": "",
    "email": "",
    "Latitude": -19.405657,
    "Longitude": -40.068067,
    "Numero_professores": 15,
    "Numero_alunos": 119
  },
  {
    "Nome_escola": "ESCOLA PROJETAR KIDS",
    "Endereco": "JOAO FELIPE CALMON, 1080, CENTRO",
    "Municipio": "Linhares",
    "CEP": "29900-010",
    "telefone": "",
    "email": "",
    "Latitude": -19.399312,
    "Longitude": -40.069297,
    "Numero_professores": 13,
    "Numero_alunos": 160
  },
  {
    "Nome_escola": "ESCOLA TECNICA DE LINHARES",
    "Endereco": "JOAO FELIPE CALMON, 1187, CENTRO",
    "Municipio": "Linhares",
    "CEP": "29900-026",
    "telefone": "",
    "email": "",
    "Latitude": -19.398335,
    "Longitude": -40.06958,
    "Numero_professores": 29,
    "Numero_alunos": 336
  },
  {
    "Nome_escola": "FACULDADE ANHANGUERA DE LINHARES",
    "Endereco": "Avenida São Mateus, 1458, Araçá",
    "Municipio": "Linhares",
    "CEP": "29901-396",
    "telefone": "",
    "email": "",
    "Latitude": -19.397351,
    "Longitude": -40.061708,
    "Numero_professores": 120,
    "Numero_alunos": 1739
  },
  {
    "Nome_escola": "SENAI ES CENTRO DE EDUCACAO PROFISSIONAL EURICO DE AGUIAR SALLES",
    "Endereco": "FILOGONIO PEIXOTO, 728, AVISO",
    "Municipio": "Linhares",
    "CEP": "29901-288",
    "telefone": "",
    "email": "",
    "Latitude": -19.406658,
    "Longitude": -40.05811,
    "Numero_professores": 22,
    "Numero_alunos": 405
  },
  {
    "Nome_escola": "SISTEMA DE ENSINO PROJETAR",
    "Endereco": "GOVERNADOR LINDENBERG, 1213, CENTRO",
    "Municipio": "Linhares",
    "CEP": "29900-020",
    "telefone": "",
    "email": "",
    "Latitude": -19.397984,
    "Longitude": -40.069668,
    "Numero_professores": 25,
    "Numero_alunos": 444
  },
  {
    "Nome_escola": "CAEE ORQUIDEA PESTALOZZI",
    "Endereco": "RUA VEREADOR JOAQUIM BATISTA DE SOUZA, 199, PROXIMO DEEDS HOTEL, CENTRO",
    "Municipio": "Mantenópolis",
    "CEP": "29770-000",
    "telefone": "",
    "email": "",
    "Latitude": -18.863296,
    "Longitude": -41.121422,
    "Numero_professores": 0,
    "Numero_alunos": 0
  },
  {
    "Nome_escola": "CAEE ZELIA VIANNA DE MORAES APAE",
    "Endereco": "RUA PRIMEIRO DE MAIO, S/Nº, ATRAS DA SUDESTE VIA",
    "Municipio": "Marataízes",
    "CEP": "29345-000",
    "telefone": "",
    "email": "",
    "Latitude": -21.042462,
    "Longitude": -40.841917,
    "Numero_professores": 0,
    "Numero_alunos": 0
  },
  {
    "Nome_escola": "COLEGIO PADRE OTAVIO MOREIRA",
    "Endereco": "RUA JAIME DOS SANTOS NEVES, 20",
    "Municipio": "Marataízes",
    "CEP": "29345-000",
    "telefone": "",
    "email": "",
    "Latitude": -21.00841,
    "Longitude": -40.80903,
    "Numero_professores": 26,
    "Numero_alunos": 454
  },
  {
    "Nome_escola": "COLEGIO PAULO FREIRE",
    "Endereco": "RUA PERNAMBUCO, 133",
    "Municipio": "Marataízes",
    "CEP": "29345-000",
    "telefone": "",
    "email": "",
    "Latitude": -21.035738,
    "Longitude": -40.820771,
    "Numero_professores": 9,
    "Numero_alunos": 80
  },
  {
    "Nome_escola": "INSTITUTO SANTO TOMAS DE AQUINO",
    "Endereco": "RUA OSWALDO ALVES, 105",
    "Municipio": "Marataízes",
    "CEP": "29345-000",
    "telefone": "",
    "email": "",
    "Latitude": -21.025278,
    "Longitude": -40.815768,
    "Numero_professores": 16,
    "Numero_alunos": 269
  },
  {
    "Nome_escola": "CENTRO EDUCACIONAL INFANTIL BALAO MAGICO",
    "Endereco": "RUA CARLOS HAND, 283, VALE DAS PALMAS",
    "Municipio": "Marechal Floriano",
    "CEP": "29255-000",
    "telefone": "",
    "email": "",
    "Latitude": -20.407329,
    "Longitude": -40.669184,
    "Numero_professores": 1,
    "Numero_alunos": 7
  },
  {
    "Nome_escola": "CENTRO EDUCACIONAL INTEGRACAO",
    "Endereco": "RUA GUSTAVO HERTEL, 620, BATATAL",
    "Municipio": "Marechal Floriano",
    "CEP": "29255-000",
    "telefone": "",
    "email": "",
    "Latitude": -20.420075,
    "Longitude": -40.679425,
    "Numero_professores": 19,
    "Numero_alunos": 266
  },
  {
    "Nome_escola": "CAEE PE JOSE DE SOUZA BRASIL APAE",
    "Endereco": "RUA DIONISIO FALQUETO, 05, PREDIO",
    "Municipio": "Marilândia",
    "CEP": "29725-000",
    "telefone": "",
    "email": "",
    "Latitude": -19.409449,
    "Longitude": -40.540991,
    "Numero_professores": 0,
    "Numero_alunos": 0
  },
  {
    "Nome_escola": "ESCOLA FAMILIA AGRICOLA DE MARILANDIA MEPES",
    "Endereco": "RUA IZALDINO CAMATA, 150, ZONA URBANA, CENTRO",
    "Municipio": "Marilândia",
    "CEP": "29725-000",
    "telefone": "",
    "email": "",
    "Latitude": -19.410802,
    "Longitude": -40.541194,
    "Numero_professores": 15,
    "Numero_alunos": 221
  },
  {
    "Nome_escola": "CAEE CRESCER PESTALOZZI",
    "Endereco": "RUA CLAUDIO VIVAS, 300, PREDIO",
    "Municipio": "Mimoso do Sul",
    "CEP": "29400-000",
    "telefone": "",
    "email": "",
    "Latitude": -21.061779,
    "Longitude": -41.371797,
    "Numero_professores": 0,
    "Numero_alunos": 0
  },
  {
    "Nome_escola": "ESCOLA FAMILIA AGRICOLA DE BELO MONTE MEPES",
    "Endereco": "ESTRADA DE BELMONTE, SN",
    "Municipio": "Mimoso do Sul",
    "CEP": "29400-000",
    "telefone": "",
    "email": "",
    "Latitude": -21.04536,
    "Longitude": -41.328369,
    "Numero_professores": 13,
    "Numero_alunos": 47
  },
  {
    "Nome_escola": "CAEE IRMA DULCE APAE",
    "Endereco": "RUA ANCHIETA, 282, PREDIO",
    "Municipio": "Montanha",
    "CEP": "29890-000",
    "telefone": "",
    "email": "",
    "Latitude": -18.125751,
    "Longitude": -40.361923,
    "Numero_professores": 0,
    "Numero_alunos": 0
  },
  {
    "Nome_escola": "CENTRO DE EDUCACAO BASICA NOSSA SENHORA APARECIDA",
    "Endereco": "RUA JOSE COELHO CORTES, 692, ESCOLA",
    "Municipio": "Montanha",
    "CEP": "29890-000",
    "telefone": "",
    "email": "",
    "Latitude": -18.12842,
    "Longitude": -40.36235,
    "Numero_professores": 16,
    "Numero_alunos": 219
  },
  {
    "Nome_escola": "ESCOLA FAMILIA AGRICOLA DE VINHATICO MEPES",
    "Endereco": "RODOVIA MONTANHA A VINHATICO, SN, KM 02",
    "Municipio": "Montanha",
    "CEP": "29890-000",
    "telefone": "",
    "email": "",
    "Latitude": -18.17949,
    "Longitude": -40.263135,
    "Numero_professores": 13,
    "Numero_alunos": 195
  },
  {
    "Nome_escola": "CAEE NASIRA DEPS ALMEIDA APAE",
    "Endereco": "RUA JOSE CABRIANO DE AGUILAR, S/N, PREDIO",
    "Municipio": "Muniz Freire",
    "CEP": "29380-000",
    "telefone": "",
    "email": "",
    "Latitude": -20.465808,
    "Longitude": -41.41256,
    "Numero_professores": 0,
    "Numero_alunos": 0
  },
  {
    "Nome_escola": "C E MUQUIENSE",
    "Endereco": "RUA CLEZIO BERTASSONI, 30, ESCOLA",
    "Municipio": "Muqui",
    "CEP": "29480-000",
    "telefone": "",
    "email": "",
    "Latitude": -20.949139,
    "Longitude": -41.345194,
    "Numero_professores": 11,
    "Numero_alunos": 172
  },
  {
    "Nome_escola": "CAEE DESPERTAR APAE",
    "Endereco": "RUA MINAH LOBATO FRAGA, 391, PREDIO",
    "Municipio": "Muqui",
    "CEP": "29480-000",
    "telefone": "",
    "email": "",
    "Latitude": -20.953512,
    "Longitude": -41.350135,
    "Numero_professores": 0,
    "Numero_alunos": 0
  },
  {
    "Nome_escola": "ESCOLA GENTE MIUDA",
    "Endereco": "RUA LEIR DA COSTA, 47, BNH",
    "Municipio": "Muqui",
    "CEP": "29480-000",
    "telefone": "",
    "email": "",
    "Latitude": -20.957113,
    "Longitude": -41.342147,
    "Numero_professores": 3,
    "Numero_alunos": 64
  },
  {
    "Nome_escola": "ASSOCIACAO ESPIRITA BENEFICENTE LAR DE ABIGAIL",
    "Endereco": "RUA IBIRACU, 89, ESCOLA",
    "Municipio": "Nova Venécia",
    "CEP": "29830-000",
    "telefone": "",
    "email": "",
    "Latitude": -18.707753,
    "Longitude": -40.396155,
    "Numero_professores": 10,
    "Numero_alunos": 141
  },
  {
    "Nome_escola": "CAEE SAO MARCOS APAE",
    "Endereco": "AVENIDA MATEUS TOSCANO, 100",
    "Municipio": "Nova Venécia",
    "CEP": "29830-000",
    "telefone": "",
    "email": "",
    "Latitude": -18.712608,
    "Longitude": -40.397985,
    "Numero_professores": 0,
    "Numero_alunos": 0
  },
  {
    "Nome_escola": "CASA ESCOLA MONTESSORIANA A CIRANDA",
    "Endereco": "ALAMEDA TEREZA NEVES, 142",
    "Municipio": "Nova Venécia",
    "CEP": "29830-000",
    "telefone": "",
    "email": "",
    "Latitude": -18.709877,
    "Longitude": -40.395027,
    "Numero_professores": 28,
    "Numero_alunos": 469
  },
  {
    "Nome_escola": "ESCOLA FAMILIA AGRICOLA DE CHAPADINHA MEPES",
    "Endereco": "ESTRADA BR 342, SN, KM 1075",
    "Municipio": "Nova Venécia",
    "CEP": "29830-000",
    "telefone": "",
    "email": "",
    "Latitude": -18.610209,
    "Longitude": -40.529486,
    "Numero_professores": 11,
    "Numero_alunos": 144
  },
  {
    "Nome_escola": "FACULDADE MULTIVIX NOVA VENECIA",
    "Endereco": "Rua Jacobina, 165, São Francisco",
    "Municipio": "Nova Venécia",
    "CEP": "29830-000",
    "telefone": "",
    "email": "",
    "Latitude": -18.692599,
    "Longitude": -40.400824,
    "Numero_professores": 106,
    "Numero_alunos": 1829
  },
  {
    "Nome_escola": "ESCOLA DE ENSINO FUNDAMENTAL DE PANCAS ASPEN",
    "Endereco": "AVENIDA JOSE NUNES DE MIRANDA, 872, PREDIO",
    "Municipio": "Pancas",
    "CEP": "29750-000",
    "telefone": "",
    "email": "",
    "Latitude": -19.221388,
    "Longitude": -40.85337,
    "Numero_professores": 12,
    "Numero_alunos": 149
  },
  {
    "Nome_escola": "CENTRO COMUNITARIO FRANCO ROSSETTI",
    "Endereco": "RUA JAIR MACHADO TOMAZ, SN",
    "Municipio": "Pedro Canário",
    "CEP": "29970-000",
    "telefone": "",
    "email": "",
    "Latitude": -18.307406,
    "Longitude": -39.935331,
    "Numero_professores": 0,
    "Numero_alunos": 0
  },
  {
    "Nome_escola": "ESCOLA CRISTA PEQUENO PRINCIPE",
    "Endereco": "RUA SANTA MARIA, 108, ESCOLA",
    "Municipio": "Pedro Canário",
    "CEP": "29970-000",
    "telefone": "",
    "email": "",
    "Latitude": -18.305346,
    "Longitude": -39.955573,
    "Numero_professores": 6,
    "Numero_alunos": 33
  },
  {
    "Nome_escola": "CAEE SAO VICENTE DE PAULA APAE",
    "Endereco": "RUA GERALDO LICINIO VACCARI, 100",
    "Municipio": "Pinheiros",
    "CEP": "29980-000",
    "telefone": "",
    "email": "",
    "Latitude": -18.417268,
    "Longitude": -40.219326,
    "Numero_professores": 0,
    "Numero_alunos": 0
  },
  {
    "Nome_escola": "CE COOPEPI",
    "Endereco": "RUA HENRIQUE JANUARIO DE AGUIAR, 189, ESCOLA, CENTRO",
    "Municipio": "Pinheiros",
    "CEP": "29980-000",
    "telefone": "",
    "email": "",
    "Latitude": -18.409588,
    "Longitude": -40.21539,
    "Numero_professores": 18,
    "Numero_alunos": 228
  },
  {
    "Nome_escola": "ESCOLA FAMILIA AGRICOLA DE PINHEIROS MEPES",
    "Endereco": "RODOVIA PINHEIROS A PEDRO CANARIO, SN, KM 25",
    "Municipio": "Pinheiros",
    "CEP": "29980-000",
    "telefone": "",
    "email": "",
    "Latitude": -18.410844,
    "Longitude": -40.221833,
    "Numero_professores": 9,
    "Numero_alunos": 64
  },
  {
    "Nome_escola": "CAEE DE PIUMA JOSE VIEIRA JATOBA APAE",
    "Endereco": "AVENIDA RIO MAR NUMERO 700, 700, APAE",
    "Municipio": "Piúma",
    "CEP": "29285-000",
    "telefone": "",
    "email": "",
    "Latitude": -20.838893,
    "Longitude": -40.722972,
    "Numero_professores": 0,
    "Numero_alunos": 0
  },
  {
    "Nome_escola": "CENTRO EDUCACIONAL PAULO FREIRE",
    "Endereco": "RUA FELICINO LOPES, 308",
    "Municipio": "Piúma",
    "CEP": "29285-000",
    "telefone": "",
    "email": "",
    "Latitude": -20.841062,
    "Longitude": -40.735737,
    "Numero_professores": 17,
    "Numero_alunos": 203
  },
  {
    "Nome_escola": "CAEE VIDA E ESPERANCA PESTALOZZI",
    "Endereco": "AVENIDA SEBASTIAO RABELO, 580",
    "Municipio": "Ponto Belo",
    "CEP": "29885-000",
    "telefone": "",
    "email": "",
    "Latitude": -18.118596,
    "Longitude": -40.539893,
    "Numero_professores": 0,
    "Numero_alunos": 0
  },
  {
    "Nome_escola": "CAEE NOVO AMANHECER APAE",
    "Endereco": "RUA ANDRE PIZZETA, 72, PREDIO",
    "Municipio": "Rio Bananal",
    "CEP": "29920-000",
    "telefone": "",
    "email": "",
    "Latitude": -19.271967,
    "Longitude": -40.318792,
    "Numero_professores": 0,
    "Numero_alunos": 0
  },
  {
    "Nome_escola": "ESCOLA FAMILIA AGRICOLA DE RIO BANANAL MEPES",
    "Endereco": "RODOVIA ROBERTO CALMON, SN, KM 40",
    "Municipio": "Rio Bananal",
    "CEP": "29920-000",
    "telefone": "",
    "email": "",
    "Latitude": -19.25936,
    "Longitude": -40.3032,
    "Numero_professores": 10,
    "Numero_alunos": 136
  },
  {
    "Nome_escola": "CAEE DE RIO NOVO DO SUL PESTALOZZI",
    "Endereco": "RUA DUQUE DE CAXIAS, 41",
    "Municipio": "Rio Novo do Sul",
    "CEP": "29290-000",
    "telefone": "",
    "email": "",
    "Latitude": -20.864853,
    "Longitude": -40.934651,
    "Numero_professores": 0,
    "Numero_alunos": 0
  },
  {
    "Nome_escola": "ESCOLA FAMILIA AGRICOLA DE RIO NOVO DO SUL MEPES",
    "Endereco": "RUA PADRE GUIDO SPOLAOR, SN, ZONA RURAL",
    "Municipio": "Rio Novo do Sul",
    "CEP": "29290-000",
    "telefone": "",
    "email": "",
    "Latitude": -20.869516,
    "Longitude": -40.931037,
    "Numero_professores": 9,
    "Numero_alunos": 78
  },
  {
    "Nome_escola": "INSTITUTO EDUCACIONAL JOAO MARIA",
    "Endereco": "RUA ALEXANDRE COSTA PECANHA, 251",
    "Municipio": "Rio Novo do Sul",
    "CEP": "29290-000",
    "telefone": "",
    "email": "",
    "Latitude": -20.869513,
    "Longitude": -40.944102,
    "Numero_professores": 12,
    "Numero_alunos": 51
  },
  {
    "Nome_escola": "CAEE GIRASSOL APAE SANTA LEOPOLDINA",
    "Endereco": "RUA REGINALDO TERRA, 535, TERREO",
    "Municipio": "Santa Leopoldina",
    "CEP": "29640-000",
    "telefone": "",
    "email": "",
    "Latitude": -20.101122,
    "Longitude": -40.520454,
    "Numero_professores": 0,
    "Numero_alunos": 0
  },
  {
    "Nome_escola": "CAEE NEUES LEBEN APAE DE SANTA MARIA DE JETIBA",
    "Endereco": "RUA HENRIQUE JOAO JULIO KUSTER, 469",
    "Municipio": "Santa Maria de Jetibá",
    "CEP": "29645-000",
    "telefone": "",
    "email": "",
    "Latitude": -20.003297,
    "Longitude": -40.737298,
    "Numero_professores": 0,
    "Numero_alunos": 0
  },
  {
    "Nome_escola": "ESCOLA COOPERACAO",
    "Endereco": "RUA JEQUITIBA, 121",
    "Municipio": "Santa Maria de Jetibá",
    "CEP": "29645-000",
    "telefone": "",
    "email": "",
    "Latitude": -20.02982,
    "Longitude": -40.74798,
    "Numero_professores": 16,
    "Numero_alunos": 167
  },
  {
    "Nome_escola": "ESCOLA FAMILIA AGRICOLA DE SAO JOAO DO GARRAFAO MEPES",
    "Endereco": "AVENIDA JOAO PEDRO LAUVERS, SN",
    "Municipio": "Santa Maria de Jetibá",
    "CEP": "29645-000",
    "telefone": "",
    "email": "",
    "Latitude": -20.156338,
    "Longitude": -40.941251,
    "Numero_professores": 14,
    "Numero_alunos": 200
  },
  {
    "Nome_escola": "CAEE MANOEL VALENTIM PESTALOZZI",
    "Endereco": "LADEIRA FORTUNATO CARLOS BONINO, 457",
    "Municipio": "Santa Teresa",
    "CEP": "29650-000",
    "telefone": "",
    "email": "",
    "Latitude": -19.941945,
    "Longitude": -40.604259,
    "Numero_professores": 0,
    "Numero_alunos": 0
  },
  {
    "Nome_escola": "ESCOLA SANTA CATARINA",
    "Endereco": "PRACA AUGUSTO RUSCHI, 114, EM FRENTE AO JARDIM",
    "Municipio": "Santa Teresa",
    "CEP": "29650-000",
    "telefone": "",
    "email": "",
    "Latitude": -19.93552,
    "Longitude": -40.600885,
    "Numero_professores": 27,
    "Numero_alunos": 381
  },
  {
    "Nome_escola": "ESCOLA SUPERIOR SAO FRANCISCO DE ASSIS",
    "Endereco": "Rua Bernardino Monteiro, 700, Dois Pinheiros",
    "Municipio": "Santa Teresa",
    "CEP": "29650-000",
    "telefone": "",
    "email": "",
    "Latitude": -19.937176,
    "Longitude": -40.591279,
    "Numero_professores": 32,
    "Numero_alunos": 544
  },
  {
    "Nome_escola": "CAEE DR PEDRO FEU ROSA APAE",
    "Endereco": "AFONSO ARINOS MELO FRANCO, 133, PARQUE RESIDENCIAL LARANJEIRAS",
    "Municipio": "Serra",
    "CEP": "29165-491",
    "telefone": "",
    "email": "",
    "Latitude": -20.196687,
    "Longitude": -40.250618,
    "Numero_professores": 0,
    "Numero_alunos": 0
  },
  {
    "Nome_escola": "CE DARWIN GRANDE VITORIA",
    "Endereco": "BARAO DO RIO BRANCO, 120, COLINA DE LARANJEIRAS",
    "Municipio": "Serra",
    "CEP": "29167-172",
    "telefone": "",
    "email": "",
    "Latitude": -20.192444,
    "Longitude": -40.261492,
    "Numero_professores": 42,
    "Numero_alunos": 215
  },
  {
    "Nome_escola": "CE HENRIQUE VALENTIM",
    "Endereco": "REGIAO SUDESTE, 79, BARCELONA",
    "Municipio": "Serra",
    "CEP": "29166-200",
    "telefone": "",
    "email": "",
    "Latitude": -20.172245,
    "Longitude": -40.246068,
    "Numero_professores": 19,
    "Numero_alunos": 419
  },
  {
    "Nome_escola": "CE LINUS PAULING",
    "Endereco": "CENTRAL, 821, PARQUE RESIDENCIAL LARANJEIRAS",
    "Municipio": "Serra",
    "CEP": "29165-130",
    "telefone": "",
    "email": "",
    "Latitude": -20.200001,
    "Longitude": -40.254088,
    "Numero_professores": 58,
    "Numero_alunos": 1639
  },
  {
    "Nome_escola": "CE SAGRADO CORACAO DE JESUS",
    "Endereco": "BAIXO GUANDU, 10, REIS MAGOS",
    "Municipio": "Serra",
    "CEP": "29182-383",
    "telefone": "",
    "email": "",
    "Latitude": -20.05653,
    "Longitude": -40.19651,
    "Numero_professores": 7,
    "Numero_alunos": 60
  },
  {
    "Nome_escola": "CE SERRANO COLEGIO ALTERNATIVO",
    "Endereco": "ADERBAL ATHAIDE GUIMARAES, 84, CASTELANDIA",
    "Municipio": "Serra",
    "CEP": "29172-655",
    "telefone": "",
    "email": "",
    "Latitude": -20.16038,
    "Longitude": -40.18679,
    "Numero_professores": 33,
    "Numero_alunos": 397
  },
  {
    "Nome_escola": "CEDTEC ENSINO E SOLUCOES DIDATICAS LTDA",
    "Endereco": "ELDES SCHERRER SOUZA, 911, PARQUE RESIDENCIAL LARANJEIRAS",
    "Municipio": "Serra",
    "CEP": "29165-680",
    "telefone": "",
    "email": "",
    "Latitude": -20.195003,
    "Longitude": -40.253339,
    "Numero_professores": 21,
    "Numero_alunos": 3702
  },
  {
    "Nome_escola": "CENTRO DE ATIV EDUCACIONAIS MUNDO LIVRE",
    "Endereco": "MONTEIRO LOBATO, 70, PARQUE RESIDENCIAL LARANJEIRAS",
    "Municipio": "Serra",
    "CEP": "29165-350",
    "telefone": "",
    "email": "",
    "Latitude": -20.196144,
    "Longitude": -40.251508,
    "Numero_professores": 21,
    "Numero_alunos": 289
  },
  {
    "Nome_escola": "CENTRO DE EDUCACAO BASICA E PROFISSIONAL HENRIQUE MEYERFREUND SESI",
    "Endereco": "PAULO MIGUEL BOHOMOLETZ, 242, CIVIT I",
    "Municipio": "Serra",
    "CEP": "29168-010",
    "telefone": "",
    "email": "",
    "Latitude": -20.164513,
    "Longitude": -40.239837,
    "Numero_professores": 16,
    "Numero_alunos": 503
  },
  {
    "Nome_escola": "CENTRO DE EDUCACAO INFANTIL IDADE KIDS",
    "Endereco": "FLORIANO PEIXOTO, 205, SÃO JUDAS TADEU",
    "Municipio": "Serra",
    "CEP": "29177-008",
    "telefone": "",
    "email": "",
    "Latitude": -20.126203,
    "Longitude": -40.312394,
    "Numero_professores": 9,
    "Numero_alunos": 60
  },
  {
    "Nome_escola": "CENTRO EDUCACIONAL ARCO IRIS",
    "Endereco": "DAS GOIABAS, 356, MORADA DE LARANJEIRAS",
    "Municipio": "Serra",
    "CEP": "29166-834",
    "telefone": "",
    "email": "",
    "Latitude": -20.199134,
    "Longitude": -40.23614,
    "Numero_professores": 8,
    "Numero_alunos": 104
  },
  {
    "Nome_escola": "CENTRO EDUCACIONAL CASTELO",
    "Endereco": "EVARISTO DA VEIGA, 136, CHÁCARA PARREIRAL",
    "Municipio": "Serra",
    "CEP": "29164-380",
    "telefone": "",
    "email": "",
    "Latitude": -20.20504,
    "Longitude": -40.248054,
    "Numero_professores": 45,
    "Numero_alunos": 1009
  },
  {
    "Nome_escola": "CENTRO EDUCACIONAL DINAMICO LTDA ME",
    "Endereco": "AVENIDA GUARAPARI, SN, VALPARAISO",
    "Municipio": "Serra",
    "CEP": "29165-791",
    "telefone": "",
    "email": "",
    "Latitude": -20.199253,
    "Longitude": -40.26097,
    "Numero_professores": 11,
    "Numero_alunos": 139
  },
  {
    "Nome_escola": "CENTRO EDUCACIONAL MUNDO DO SABER",
    "Endereco": "MENDEL, 11, PARQUE RESIDENCIAL LARANJEIRAS",
    "Municipio": "Serra",
    "CEP": "29165-591",
    "telefone": "",
    "email": "",
    "Latitude": -20.197526,
    "Longitude": -40.258637,
    "Numero_professores": 3,
    "Numero_alunos": 62
  },
  {
    "Nome_escola": "CENTRO EDUCACIONAL MUNDO DO SABER UNIDADE MORADA FUNDAMENTAL",
    "Endereco": "COPACABANA, S/N, QD 14 LT 05, MORADA DE LARANJEIRAS",
    "Municipio": "Serra",
    "CEP": "29166-820",
    "telefone": "",
    "email": "",
    "Latitude": -20.191453,
    "Longitude": -40.225556,
    "Numero_professores": 7,
    "Numero_alunos": 53
  },
  {
    "Nome_escola": "CENTRO EDUCACIONAL MUNDO DO SABER UNIDADE MORADA INFANTIL",
    "Endereco": "COPACABANA, S/N, QD 14 LT 05, MORADA DE LARANJEIRAS",
    "Municipio": "Serra",
    "CEP": "29166-820",
    "telefone": "",
    "email": "",
    "Latitude": -20.191997,
    "Longitude": -40.224568,
    "Numero_professores": 3,
    "Numero_alunos": 113
  },
  {
    "Nome_escola": "CENTRO EDUCACIONAL UNIVERSO CRIATIVO",
    "Endereco": "ARARUAMA, S N, MORADA DE LARANJEIRAS",
    "Municipio": "Serra",
    "CEP": "29166-842",
    "telefone": "",
    "email": "",
    "Latitude": -20.191894,
    "Longitude": -40.228387,
    "Numero_professores": 8,
    "Numero_alunos": 48
  },
  {
    "Nome_escola": "CENTRO UNIVERSITARIO DO ESPIRITO SANTO UNESC SERRA",
    "Endereco": "",
    "Municipio": "Serra",
    "CEP": "",
    "telefone": "",
    "email": "",
    "Latitude": -20.166844,
    "Longitude": -40.197147,
    "Numero_professores": 5,
    "Numero_alunos": 67
  },
  {
    "Nome_escola": "COLEGIO ALTERNATIVO",
    "Endereco": "IPATINGA, 82, BARCELONA",
    "Municipio": "Serra",
    "CEP": "29166-210",
    "telefone": "",
    "email": "",
    "Latitude": -20.174086,
    "Longitude": -40.253031,
    "Numero_professores": 30,
    "Numero_alunos": 418
  },
  {
    "Nome_escola": "COLEGIO APICE",
    "Endereco": "PARAGUACU, 210, JARDIM ATLÂNTICO",
    "Municipio": "Serra",
    "CEP": "29175-252",
    "telefone": "",
    "email": "",
    "Latitude": -20.136521,
    "Longitude": -40.187655,
    "Numero_professores": 34,
    "Numero_alunos": 647
  },
  {
    "Nome_escola": "ESCOLA ADVENTISTA DA SERRA",
    "Endereco": "AVENIDA JONES DOS SANTOS NEVES, 423, SERRA CENTRO",
    "Municipio": "Serra",
    "CEP": "29176-060",
    "telefone": "",
    "email": "",
    "Latitude": -20.129103,
    "Longitude": -40.304297,
    "Numero_professores": 22,
    "Numero_alunos": 376
  },
  {
    "Nome_escola": "ESCOLA ADVENTISTA DE LARANJEIRAS",
    "Endereco": "PAULO PEREIRA GOMES, 379, MORADA DE LARANJEIRAS",
    "Municipio": "Serra",
    "CEP": "29166-828",
    "telefone": "",
    "email": "",
    "Latitude": -20.200222,
    "Longitude": -40.222778,
    "Numero_professores": 41,
    "Numero_alunos": 812
  },
  {
    "Nome_escola": "ESCOLA AMERICANO DOCTUM LARANJEIRAS INSTITUTO ENSINAR BRASIL",
    "Endereco": "ELDES SCHERRER SOUZA, 108, PARQUE RESIDENCIAL LARANJEIRAS",
    "Municipio": "Serra",
    "CEP": "29165-680",
    "telefone": "",
    "email": "",
    "Latitude": -20.196797,
    "Longitude": -40.242276,
    "Numero_professores": 39,
    "Numero_alunos": 554
  },
  {
    "Nome_escola": "ESCOLA BRASILEIRA CRISTA",
    "Endereco": "POUSO ALEGRE, 49, BARCELONA",
    "Municipio": "Serra",
    "CEP": "29166-160",
    "telefone": "",
    "email": "",
    "Latitude": -20.172504,
    "Longitude": -40.255893,
    "Numero_professores": 12,
    "Numero_alunos": 57
  },
  {
    "Nome_escola": "ESCOLA CRESCER E APRENDER",
    "Endereco": "OPALA, 04, ANDRÉ CARLONI",
    "Municipio": "Serra",
    "CEP": "29161-813",
    "telefone": "",
    "email": "",
    "Latitude": -20.225951,
    "Longitude": -40.284104,
    "Numero_professores": 14,
    "Numero_alunos": 132
  },
  {
    "Nome_escola": "ESCOLA INTEGRA LTDA ME",
    "Endereco": "FLORIANO PEIXOTO, 100, SERRA CENTRO",
    "Municipio": "Serra",
    "CEP": "29176-038",
    "telefone": "",
    "email": "",
    "Latitude": -20.125638,
    "Longitude": -40.311069,
    "Numero_professores": 19,
    "Numero_alunos": 352
  },
  {
    "Nome_escola": "ESCOLA LAURA NASCIMENTO LOUREIRO",
    "Endereco": "ELDES SCHERRER SOUZA, 96, ESCOLA, CIVIT II",
    "Municipio": "Serra",
    "CEP": "29168-060",
    "telefone": "",
    "email": "",
    "Latitude": -20.194697,
    "Longitude": -40.246133,
    "Numero_professores": 36,
    "Numero_alunos": 954
  },
  {
    "Nome_escola": "ESCOLA MULTIPLA",
    "Endereco": "PARANAVAI, 145, BARCELONA",
    "Municipio": "Serra",
    "CEP": "29166-061",
    "telefone": "",
    "email": "",
    "Latitude": -20.171295,
    "Longitude": -40.249279,
    "Numero_professores": 50,
    "Numero_alunos": 876
  },
  {
    "Nome_escola": "ESCOLA OCEANUS",
    "Endereco": "LONDRINA, 218, BARCELONA",
    "Municipio": "Serra",
    "CEP": "29166-035",
    "telefone": "",
    "email": "",
    "Latitude": -20.1703,
    "Longitude": -40.251525,
    "Numero_professores": 18,
    "Numero_alunos": 313
  },
  {
    "Nome_escola": "ESCOLA SANTA TEREZINHA",
    "Endereco": "PAULO PEREIRA GOMES, SNº, MORADA DE LARANJEIRAS",
    "Municipio": "Serra",
    "CEP": "29166-828",
    "telefone": "",
    "email": "",
    "Latitude": -20.199118,
    "Longitude": -40.228186,
    "Numero_professores": 6,
    "Numero_alunos": 19
  },
  {
    "Nome_escola": "ESCOLA SIENA",
    "Endereco": "JOSE MOREIRA MARTINS RATO, 561, DE FÁTIMA",
    "Municipio": "Serra",
    "CEP": "29160-790",
    "telefone": "",
    "email": "",
    "Latitude": -20.250141,
    "Longitude": -40.264645,
    "Numero_professores": 32,
    "Numero_alunos": 424
  },
  {
    "Nome_escola": "ESCOLA SIENA LARANJEIRAS",
    "Endereco": "PITAGORAS, 126, PREDIO/ESCOLA, PARQUE RESIDENCIAL LARANJEIRAS",
    "Municipio": "Serra",
    "CEP": "29165-170",
    "telefone": "",
    "email": "",
    "Latitude": -20.199221,
    "Longitude": -40.256316,
    "Numero_professores": 19,
    "Numero_alunos": 148
  },
  {
    "Nome_escola": "ESCOLA TECNICA CEDTEC",
    "Endereco": "ELDES SCHERRER SOUZA, 911, PARQUE RESIDENCIAL LARANJEIRAS",
    "Municipio": "Serra",
    "CEP": "29165-680",
    "telefone": "",
    "email": "",
    "Latitude": -20.19511,
    "Longitude": -40.25322,
    "Numero_professores": 44,
    "Numero_alunos": 1995
  },
  {
    "Nome_escola": "FACULDADE ANHANGUERA DE SERRA",
    "Endereco": "Rua Nelcy Lopes Vieira, 199, Campus Principal, Jardim Limoeiro",
    "Municipio": "Serra",
    "CEP": "29164-018",
    "telefone": "",
    "email": "",
    "Latitude": -20.211109,
    "Longitude": -40.263865,
    "Numero_professores": 57,
    "Numero_alunos": 580
  },
  {
    "Nome_escola": "FACULDADE BRASILEIRA CRISTA",
    "Endereco": "Rua Pouso Alegre, 49, Barcelona",
    "Municipio": "Serra",
    "CEP": "29166-160",
    "telefone": "",
    "email": "",
    "Latitude": -20.172689,
    "Longitude": -40.256131,
    "Numero_professores": 37,
    "Numero_alunos": 892
  },
  {
    "Nome_escola": "FACULDADE DE EDUCACAO E TECNOLOGIA DO ESPIRITO SANTO",
    "Endereco": "Avenida Central, 15, Loja B, Parque Residencial Laranjeiras",
    "Municipio": "Serra",
    "CEP": "29165-130",
    "telefone": "",
    "email": "",
    "Latitude": -20.195654,
    "Longitude": -40.257869,
    "Numero_professores": 11,
    "Numero_alunos": 160
  },
  {
    "Nome_escola": "FACULDADE DO CENTRO LESTE",
    "Endereco": "Rodovia ES-010, S/N, KM 6,5, Manguinhos",
    "Municipio": "Serra",
    "CEP": "29164-254",
    "telefone": "",
    "email": "",
    "Latitude": -20.202783,
    "Longitude": -40.220204,
    "Numero_professores": 46,
    "Numero_alunos": 833
  },
  {
    "Nome_escola": "FACULDADE DOCTUM DE SERRA",
    "Endereco": "Avenida Eldes Scherrer Souza, 108, Campus II, Parque Residencial Laranjeiras",
    "Municipio": "Serra",
    "CEP": "29165-680",
    "telefone": "",
    "email": "",
    "Latitude": -20.196882,
    "Longitude": -40.242169,
    "Numero_professores": 72,
    "Numero_alunos": 682
  },
  {
    "Nome_escola": "FACULDADE MULTIVIX SERRA",
    "Endereco": "Rua Barão do Rio Branco, 120, Colina de Laranjeiras",
    "Municipio": "Serra",
    "CEP": "29167-172",
    "telefone": "",
    "email": "",
    "Latitude": -20.192316,
    "Longitude": -40.261921,
    "Numero_professores": 249,
    "Numero_alunos": 21705
  },
  {
    "Nome_escola": "GRAUSERRA EDUCACIONAL LTDA",
    "Endereco": "NORTE SUL, 700, SANTA LUZIA",
    "Municipio": "Serra",
    "CEP": "29165-752",
    "telefone": "",
    "email": "",
    "Latitude": -20.207027,
    "Longitude": -40.261376,
    "Numero_professores": 24,
    "Numero_alunos": 1104
  },
  {
    "Nome_escola": "IDEA INSTITUTO DE DESENVOLVIMENTO EDUCACIONAL E ASSESSORIA EIRELI ME",
    "Endereco": "TALMA RODRIGUES RIBEIRO, 482, PORTAL DE JACARAÍPE",
    "Municipio": "Serra",
    "CEP": "29173-795",
    "telefone": "",
    "email": "",
    "Latitude": -20.136606,
    "Longitude": -40.188024,
    "Numero_professores": 6,
    "Numero_alunos": 167
  },
  {
    "Nome_escola": "INSTITUTO DE ENSINO SUPERIOR BLAURO CARDOSO DE MATTOS",
    "Endereco": "Rua L, 11, Rosário de Fátima",
    "Municipio": "Serra",
    "CEP": "29161-152",
    "telefone": "",
    "email": "",
    "Latitude": -20.231562,
    "Longitude": -40.271068,
    "Numero_professores": 11,
    "Numero_alunos": 51
  },
  {
    "Nome_escola": "INSTITUTO DE ENSINO SUPERIOR CAPIXABA",
    "Endereco": "Rua L, 11, Rosario de Fatima, Rosário de Fátima",
    "Municipio": "Serra",
    "CEP": "29161-152",
    "telefone": "",
    "email": "",
    "Latitude": -20.231672,
    "Longitude": -40.271185,
    "Numero_professores": 5,
    "Numero_alunos": 32
  },
  {
    "Nome_escola": "SENAI ES CENTRO DE EDUCACAO PROFISSIONAL JONES SANTOS NEVES",
    "Endereco": "PAULO MIGUEL BOHOMOLETZ, 242, CIVIT I",
    "Municipio": "Serra",
    "CEP": "29168-010",
    "telefone": "",
    "email": "",
    "Latitude": -20.164524,
    "Longitude": -40.239805,
    "Numero_professores": 31,
    "Numero_alunos": 852
  },
  {
    "Nome_escola": "SEST SENAT POLO SERRA",
    "Endereco": "FRANCISCO SOUSA DOS SANTOS, 1025, JARDIM LIMOEIRO",
    "Municipio": "Serra",
    "CEP": "29164-153",
    "telefone": "",
    "email": "",
    "Latitude": -20.209884,
    "Longitude": -40.254147,
    "Numero_professores": 4,
    "Numero_alunos": 25
  },
  {
    "Nome_escola": "SOCIEDADE EDUCACIONAL DOMUS",
    "Endereco": "NITEROI, 709, PARQUE JACARAIPE",
    "Municipio": "Serra",
    "CEP": "29175-503",
    "telefone": "",
    "email": "",
    "Latitude": -20.149264,
    "Longitude": -40.192268,
    "Numero_professores": 31,
    "Numero_alunos": 345
  },
  {
    "Nome_escola": "CAEE RENASCER APAE",
    "Endereco": "RUA JOAO GABRIEL, 139",
    "Municipio": "São Gabriel da Palha",
    "CEP": "29780-000",
    "telefone": "",
    "email": "",
    "Latitude": -19.020817,
    "Longitude": -40.536835,
    "Numero_professores": 0,
    "Numero_alunos": 0
  },
  {
    "Nome_escola": "EEB COOPESG ROBUSTA",
    "Endereco": "RUA MARIO FREDERICO ZANOTELLI, 86, JOVELINO SOUZA VALENTIM",
    "Municipio": "São Gabriel da Palha",
    "CEP": "29780-000",
    "telefone": "",
    "email": "",
    "Latitude": -19.015853,
    "Longitude": -40.543242,
    "Numero_professores": 24,
    "Numero_alunos": 331
  },
  {
    "Nome_escola": "ESCOLA FAMILIA AGRICOLA DE ENSINO FUNDAMENTAL E MEDIO E EDUCACAO PROFISSIONAL DO BLEY MEPES",
    "Endereco": "RODOVIA JOAO IZOTON FILHO, SN, KM 12",
    "Municipio": "São Gabriel da Palha",
    "CEP": "29780-000",
    "telefone": "",
    "email": "",
    "Latitude": -19.009151,
    "Longitude": -40.476841,
    "Numero_professores": 16,
    "Numero_alunos": 252
  },
  {
    "Nome_escola": "GRUPO DE ENSINO REFERENCIA EDUCACIONAL LTDA",
    "Endereco": "RUA IVAN LUIZ BARCELOS, 19",
    "Municipio": "São Gabriel da Palha",
    "CEP": "29780-000",
    "telefone": "",
    "email": "",
    "Latitude": -19.021831,
    "Longitude": -40.535292,
    "Numero_professores": 5,
    "Numero_alunos": 34
  },
  {
    "Nome_escola": "CAEE LIZETE CONDE RIOS CAVALCANTE APAE DE SAO MATEUS",
    "Endereco": "CORONEL CONSTANTINO CUNHA, 2127, CENTRO",
    "Municipio": "São Mateus",
    "CEP": "29930-360",
    "telefone": "",
    "email": "",
    "Latitude": -18.715309,
    "Longitude": -39.852373,
    "Numero_professores": 0,
    "Numero_alunos": 0
  },
  {
    "Nome_escola": "CE ATIVA IDADE",
    "Endereco": "RUA BARILOCHE, SN, CARAPINA",
    "Municipio": "São Mateus",
    "CEP": "29933-170",
    "telefone": "",
    "email": "",
    "Latitude": -18.721121,
    "Longitude": -39.849332,
    "Numero_professores": 2,
    "Numero_alunos": 10
  },
  {
    "Nome_escola": "CE CASTELINHO ENCANTADO",
    "Endereco": "CARVALHO, 45, JACKELINE",
    "Municipio": "São Mateus",
    "CEP": "29936-240",
    "telefone": "",
    "email": "",
    "Latitude": -18.726578,
    "Longitude": -39.851999,
    "Numero_professores": 29,
    "Numero_alunos": 389
  },
  {
    "Nome_escola": "CE CRER E SER",
    "Endereco": "MONTANHA, 219, GURIRI SUL",
    "Municipio": "São Mateus",
    "CEP": "29945-555",
    "telefone": "",
    "email": "",
    "Latitude": -18.740294,
    "Longitude": -39.750904,
    "Numero_professores": 16,
    "Numero_alunos": 237
  },
  {
    "Nome_escola": "CE FIORIRE",
    "Endereco": "RUA DARCY CASTELO MENDONCA, 84, LAGO DO CISNES",
    "Municipio": "São Mateus",
    "CEP": "29936-710",
    "telefone": "",
    "email": "",
    "Latitude": -18.720118,
    "Longitude": -39.84077,
    "Numero_professores": 10,
    "Numero_alunos": 48
  },
  {
    "Nome_escola": "CE SANTA CLARA",
    "Endereco": "DOUTOR MOSCOSO, 209, CASA, CENTRO",
    "Municipio": "São Mateus",
    "CEP": "29930-380",
    "telefone": "",
    "email": "",
    "Latitude": -18.715238,
    "Longitude": -39.853956,
    "Numero_professores": 13,
    "Numero_alunos": 117
  },
  {
    "Nome_escola": "CEFM IN PACTO",
    "Endereco": "MOROBA, 356, CHACARA DO CRICARE",
    "Municipio": "São Mateus",
    "CEP": "29934-330",
    "telefone": "",
    "email": "",
    "Latitude": -18.725918,
    "Longitude": -39.837991,
    "Numero_professores": 29,
    "Numero_alunos": 289
  },
  {
    "Nome_escola": "CENTRO DE EDUCACAO PROFISSIONAL SAO MATEUS",
    "Endereco": "DOM JOSE DALVIT, 100, SANTO ANTÔNIO",
    "Municipio": "São Mateus",
    "CEP": "29941-670",
    "telefone": "",
    "email": "",
    "Latitude": -18.718155,
    "Longitude": -39.877833,
    "Numero_professores": 11,
    "Numero_alunos": 418
  },
  {
    "Nome_escola": "CENTRO EDUCACIONAL ALPHABETO",
    "Endereco": "CORONEL CONSTANTINO CUNHA, 1371, PROXIMO A COZIVIP, FATIMA",
    "Municipio": "São Mateus",
    "CEP": "29933-530",
    "telefone": "",
    "email": "",
    "Latitude": -18.717408,
    "Longitude": -39.845589,
    "Numero_professores": 8,
    "Numero_alunos": 104
  },
  {
    "Nome_escola": "CENTRO EDUCACIONAL CANTINHO DO SABER",
    "Endereco": "JAMIL ALHAKIM, 79, GURIRI SUL",
    "Municipio": "São Mateus",
    "CEP": "29945-300",
    "telefone": "",
    "email": "",
    "Latitude": -18.740779,
    "Longitude": -39.759766,
    "Numero_professores": 1,
    "Numero_alunos": 16
  },
  {
    "Nome_escola": "CENTRO EDUCACIONAL INFANTIL GENTE PEQUENA",
    "Endereco": "DA LIBERDADE, 593, SERNAMBY",
    "Municipio": "São Mateus",
    "CEP": "29930-570",
    "telefone": "",
    "email": "",
    "Latitude": -18.719603,
    "Longitude": -39.852555,
    "Numero_professores": 4,
    "Numero_alunos": 61
  },
  {
    "Nome_escola": "CENTRO UNIVERSITARIO VALE DO CRICARE",
    "Endereco": "Rua Humberto de Almeida Franklin, 257, Unidade- São Mateus- uNIVERSITÁRIO, Universitário",
    "Municipio": "São Mateus",
    "CEP": "29933-480",
    "telefone": "",
    "email": "",
    "Latitude": -18.72279,
    "Longitude": -39.845203,
    "Numero_professores": 124,
    "Numero_alunos": 966
  },
  {
    "Nome_escola": "COLEGIO CONHECER",
    "Endereco": "MATEUS CUNHA FUNDAO, 495, DOM JOSE DALVIT",
    "Municipio": "São Mateus",
    "CEP": "29931-150",
    "telefone": "",
    "email": "",
    "Latitude": -18.719618,
    "Longitude": -39.861177,
    "Numero_professores": 32,
    "Numero_alunos": 302
  },
  {
    "Nome_escola": "ESCOLA ALTERNATIVA LAGO DOS CISNES",
    "Endereco": "IZALTINO FERREIRA EIRIZ, 319, LAGO DOS CISNES",
    "Municipio": "São Mateus",
    "CEP": "29936-702",
    "telefone": "",
    "email": "",
    "Latitude": -18.720956,
    "Longitude": -39.84295,
    "Numero_professores": 43,
    "Numero_alunos": 695
  },
  {
    "Nome_escola": "ESCOLA DE ENSINO FUNDAMENTAL MAGIA DAS LETRAS",
    "Endereco": "ESBERTALINA BARBOSA DAMIANI, 745, GURIRI SUL",
    "Municipio": "São Mateus",
    "CEP": "29945-450",
    "telefone": "",
    "email": "",
    "Latitude": -18.745086,
    "Longitude": -39.751342,
    "Numero_professores": 7,
    "Numero_alunos": 105
  },